,name,state,lat,lon,commissioning_year,primary_fuel,capacity,generation,fuel_consumption,emissions,rep_fuel,metric,em_red,cum_red,cum_red_prev,ori_rep,cum_emission,new_capacity
837,Birchwood Power,VA,38.2667,-77.3147,1996,Coal,258,99801000.0,1058633.744,108615.784,Wind,-198.92835410994422,108615.784,0.000108615784,0.0,Coal→Wind,108615.784,496.1538461538462
867,Sun Peak Generating Station,NV,36.1375,-115.0339,1991,Gas_SC,222,128077000.0,1529402.831,90890.914,Gas,-198.03954265027897,47186.662123594055,0.00015580244612359406,0.00010861578400000001,Gas_SC→Gas,199506.698,341.53846153846155
699,Energy Center Dover,DE,39.149549,-75.547335,1985,Gas_CC,118,94464000.0,844882.022,50212.926,Wind,-197.11098985628652,50212.926,0.00020601537212359408,0.00015580244612359406,Gas_CC→Wind,249719.624,226.9230769230769
705,Colver Green Energy,PA,40.55,-78.8,1995,Coal,118,558903000.0,6389007.942,238324.927,Gas,-196.9695824210052,47608.112220774085,0.0002536234843443682,0.00020601537212359408,Coal→Gas,488044.551,181.53846153846155
437,West Marinette,WI,45.0869,-87.6881,1971,Gas_SC,185,116588000.0,1464473.521,86512.441,Wind,-194.58801918048084,86512.441,0.00034013592534436817,0.0002536234843443682,Gas_SC→Wind,574556.992,355.7692307692308
128,Whitewater Valley,IN,39.8028,-84.8953,1955,Coal,93,40843000.0,461185.104,47316.611,Wind,-194.0758507664905,47316.611,0.0003874525363443681,0.00034013592534436817,Coal→Wind,621873.603,178.84615384615384
1280,Algonquin Power Sanger LLC,CA,36.6842,-119.5522,1990,Gas_CC,73,52836000.0,536778.508,31900.404,Gas,-193.4961466145459,13870.954121085088,0.0004013234904654532,0.0003874525363443681,Gas_CC→Gas,653774.007,112.3076923076923
909,Madison,OH,39.4522,-84.4647,2000,Gas_SC,688,336247000.0,4064198.31,241521.752,Wind,-193.20121184597983,241521.752,0.0006428452424654533,0.0004013234904654532,Gas_SC→Wind,895295.759,1323.0769230769233
700,Gilroy Power Plant,CA,37.0001,-121.5367,1987,Gas_CC,130,116154000.0,940467.78,55885.3,Gas,-192.87612532443188,16249.583419723633,0.0006590948258851769,0.0006428452424654533,Gas_CC→Gas,951181.059,200.0
1178,Equus Freeport Power,NY,40.6439,-73.5683,2004,Gas_SC,120,72764000.0,614735.0869999999,36532.631,Wind,-192.42684032070673,36532.631,0.0006956274568851769,0.0006590948258851769,Gas_SC→Wind,987713.6900000001,230.76923076923077
92,Larsen Memorial,FL,28.0797,-81.9228,1956,Gas_CC,158,103643000.0,1452965.512,86352.363,Gas,-192.2709670249665,50985.827421977854,0.0007466132843071548,0.0006956274568851769,Gas_CC→Gas,1074066.053,243.0769230769231
743,Camden Plant Holdings LLC,NJ,39.9175,-75.1192,1993,Gas_CC,172,119443000.0,1073546.751,63797.797,Wind,-191.32578138031846,63797.797,0.0008104110813071548,0.0007466132843071548,Gas_CC→Wind,1137863.85,330.76923076923083
715,Sayreville Cogeneration Facility,NJ,40.439,-74.3444,1991,Gas_CC,429,351723000.0,2920807.696,173577.20200000002,Wind,-191.0057952739576,173577.20200000002,0.000983988283307155,0.0008104110813071548,Gas_CC→Wind,1311441.0520000001,825.0
33,AES Alamitos LLC,CA,33.7688,-118.1009,1956,Gas_SC,2055,1785596000.0,15163913.192,901172.842,Gas,-189.65927624742415,291866.4299704946,0.0012758547132776495,0.000983988283307155,Gas_SC→Gas,2212613.8940000003,3161.5384615384614
1092,Limon Generating Station,CO,39.2038,-103.7005,2002,Gas_SC,154,71243000.0,874973.2860000001,52077.904,Wind,-189.0151108626305,52077.904,0.0013279326172776498,0.0012758547132776495,Gas_SC→Wind,2264691.7980000004,296.1538461538462
628,Glenwood Landing,NY,40.8275,-73.6478,1967,Gas_SC,122,116181000.0,1116843.675,66625.55,Gas,-187.9517312774319,26980.62009648321,0.001354913237374133,0.0013279326172776498,Gas_SC→Gas,2331317.348,187.69230769230768
41,Joliet 29,IL,41.494636,-88.123827,1965,Gas_SC,1320,1091451000.0,11312187.925,670585.4299999999,Gas,-187.57280452198063,298145.02762677794,0.001653058265000911,0.001354913237374133,Gas_SC→Gas,3001902.778,2030.7692307692307
27,Lake Catherine,AR,34.4341,-92.9049,1950,Gas_SC,751,499406000.0,5247637.251,311859.148,Wind,-185.2436049288666,311859.148,0.001964917413000911,0.001653058265000911,Gas_SC→Wind,3313761.926,1444.2307692307693
1165,Riverview Energy Center,CA,38.014423,-121.790679,2003,Gas_SC,47,25786000.0,253745.559,15079.223,Wind,-183.91141328787808,15079.223,0.001979996636000911,0.001964917413000911,Gas_SC→Wind,3328841.149,90.38461538461539
136,Ames Electric Services Power Plant,IA,42.0258,-93.6089,1968,Gas_SC,108,263519000.0,3554398.289,210709.305,Gas,-182.91857908620088,120787.61140771864,0.0021007842474086297,0.001979996636000911,Gas_SC→Gas,3539550.4540000004,166.15384615384616
809,Carr Street Generating Station,NY,43.06132,-76.08239,1993,Gas_CC,121,73459000.0,937994.117,55745.064,Wind,-182.8346215377567,55745.064,0.0021565293114086297,0.0021007842474086297,Gas_CC→Wind,3595295.518,232.6923076923077
1049,Zion Energy Center,IL,42.4776,-87.895,2002,Gas_SC,990,582706000.0,6015143.555,358080.61600000004,Wind,-181.68965477517628,358080.61600000004,0.0025146099274086296,0.0021565293114086297,Gas_SC→Wind,3953376.134,1903.846153846154
863,Milford Power LP,MA,42.129361,-71.511496,1993,Gas_CC,248,207225000.0,1756061.57,104361.763,Wind,-181.60530097351582,104361.763,0.0026189716904086295,0.0025146099274086296,Gas_CC→Wind,4057737.897,476.9230769230769
154,Big Sandy,KY,38.1707,-82.6176,1963,Coal,1096,948161000.0,9072868.604,539187.029,Gas,-180.35887025137427,215642.07429786812,0.0028346137647064975,0.0026189716904086295,Coal→Gas,4596924.926,1686.1538461538462
45,Scattergood,CA,33.918151,-118.427648,1958,Gas_SC,1714,1773127000.0,13597388.757,794092.53,Gas,-179.6203875359877,189040.96713659714,0.003023654731843095,0.0028346137647064975,Gas_SC→Gas,5391017.456,2636.9230769230767
601,Tilton,IL,40.106125,-87.653818,1999,Gas_SC,188,123190000.0,1187466.184,70570.855,Wind,-179.41417154002164,70570.855,0.003094225586843095,0.003023654731843095,Gas_SC→Wind,5461588.311000001,361.53846153846155
511,Empire Energy Center,MO,37.1385,-94.1041,1978,Gas_SC,378,249804000.0,3304106.258,197016.755,Wind,-177.58644892342278,197016.755,0.003291242341843095,0.003094225586843095,Gas_SC→Wind,5658605.066000001,726.9230769230769
998,Edward L. Addison Generating Plant,GA,32.9111,-84.3064,2000,Gas_SC,700,369666000.0,3899301.86,231913.1,Wind,-176.819987329354,231913.1,0.0035231554418430947,0.003291242341843095,Gas_SC→Wind,5890518.166,1346.1538461538462
336,Southwestern,OK,35.1009,-98.3524,1952,Gas_SC,657,504821000.0,6010680.263,356641.376,Gas,-175.21328401587547,184379.18890552456,0.0037075346307486193,0.0035231554418430947,Gas_SC→Gas,6247159.542,1010.7692307692308
279,Arthur Kill Generating Station,NY,40.591564,-74.200035,1959,Gas_SC,895,937632000.0,10129449.587,601846.01,Gas,-174.8607687775553,281893.9101274369,0.003989428540876056,0.0037075346307486193,Gas_SC→Gas,6849005.552,1376.923076923077
581,Combustion Turbine Project No 2,CA,38.088138,-121.386944,1996,Gas_SC,50,36125000.0,277134.767,16469.095,Wind,-174.85880423085246,16469.095,0.004005897635876056,0.003989428540876056,Gas_SC→Wind,6865474.647,96.15384615384616
291,Port Jefferson,NY,40.949696,-73.078507,1948,Gas_SC,590,600008000.0,6140145.224,369870.655,Gas,-173.65721764354194,165127.4086727236,0.00417102504454878,0.004005897635876056,Gas_SC→Gas,7235345.302,907.6923076923076
286,74th Street,NY,40.768,-73.9515,1968,Oil,36,280000.0,2475553.925,147554.775,Gas,-173.34216265557916,147459.22942565492,0.004318484273974434,0.00417102504454878,Oil→Gas,7382900.0770000005,55.38461538461539
983,Energy Shelby County,IL,39.2794,-88.4772,2000,Gas_SC,480,331805000.0,3069795.5,181122.5,Wind,-169.33761851906985,181122.5,0.004499606773974435,0.004318484273974434,Gas_SC→Wind,7564022.5770000005,923.0769230769231
402,Silas Ray,TX,25.9131,-97.5214,1952,Gas_CC,168,116528000.0,1470921.537,87410.28,Wind,-169.1170371943471,87410.28,0.004587017053974435,0.004499606773974435,Gas_CC→Wind,7651432.857000001,323.0769230769231
1227,Center Hybrid,CA,33.9296,-118.1046,2007,Gas_SC,59,24636000.0,231665.641,13767.381,Solar,-169.11439140217158,13767.381,0.004600784434974435,0.004587017053974435,Gas_SC→Solar,7665200.238000001,184.37499999999997
321,Conesville,OH,40.1842,-81.8811,1957,Coal,2172,1177468000.0,11834871.111,1213470.392,Wind,-168.06956948833277,1213470.392,0.005814254826974435,0.004600784434974435,Coal→Wind,8878670.63,4176.923076923077
1309,Cove Point LNG Terminal,MD,38.385456,-76.409796,1978,Gas_SC,224,1458257000.0,18978570.575,1012755.91,Gas,-167.77167176078538,515148.7578295704,0.006329403584804005,0.005814254826974435,Gas_SC→Gas,9891426.540000001,344.6153846153846
1267,Cleveland Cnty Generating Facility,NC,35.170547,-81.416648,2012,Gas_SC,1472,624292000.0,5999753.653,356843.63,Wind,-167.6101976394008,356843.63,0.006686247214804005,0.006329403584804005,Gas_SC→Wind,10248270.170000002,2830.769230769231
401,Decker Creek,TX,30.3033,-97.6128,1971,Gas_SC,930,718600000.0,8587296.678,486626.463,Gas,-163.00008078098162,241415.5711272569,0.006927662785931262,0.006686247214804005,Gas_SC→Gas,10734896.633000001,1430.7692307692307
740,Masspower,MA,42.1575,-72.5225,1993,Gas_CC,260,256404000.0,2995553.975,178018.8,Gas,-160.90582452238203,90524.9876986657,0.007018187773629928,0.006927662785931262,Gas_CC→Gas,10912915.433000002,400.0
166,Cooper,KY,36.9981,-84.5919,1965,Coal,343,176455000.0,1722022.663,176678.565,Wind,-159.83021231197537,176678.565,0.007194866338629928,0.007018187773629928,Coal→Wind,11089593.998000002,659.6153846153845
875,De Pere Energy Center,WI,44.44861,-88.07204,1999,Gas_SC,192,127959000.0,1335709.702,79382.394,Wind,-157.3385996530155,79382.394,0.007274248732629929,0.007194866338629928,Gas_SC→Wind,11168976.392,369.2307692307692
1240,Culbertson Generation Station,MT,48.21,-104.391667,2010,Gas_SC,91,52930000.0,478814.661,28455.947,Wind,-156.67965141261897,28455.947,0.007302704679629929,0.007274248732629929,Gas_SC→Wind,11197432.339000002,175.00000000000003
308,G G Allen,NC,35.1897,-81.0122,1957,Coal,1148,638355000.0,5705477.373,585379.488,Wind,-154.14620140559657,585379.488,0.007888084167629929,0.007302704679629929,Coal→Wind,11782811.827000001,2207.692307692308
854,NAEA Lakewood LLC,NJ,40.0613,-74.1686,1994,Gas_CC,235,165175000.0,1943860.847,115518.244,Wind,-153.9844556286299,115518.244,0.008003602411629928,0.007888084167629929,Gas_CC→Wind,11898330.071000002,451.92307692307696
212,Black Dog,MN,44.8108,-93.2501,1952,Gas_CC,1678,1610073000.0,13281633.484,789309.6950000001,Gas,-151.98259267925633,239897.7324196729,0.008243500144049601,0.008003602411629928,Gas_CC→Gas,12687639.766000003,2581.5384615384614
275,Reeves,NM,35.171,-106.6019,1960,Gas_SC,154,123633000.0,1455196.284,86479.228,Gas,-148.14047279307843,44291.42088212796,0.008287791564931729,0.008243500144049601,Gas_SC→Gas,12774118.994000003,236.9230769230769
641,Harlem River Yard,NY,40.7991,-73.9156,2001,Gas_SC,94,68281000.0,612916.188,36424.699,Wind,-147.6808313529837,36424.699,0.00832421626393173,0.008287791564931729,Gas_SC→Wind,12810543.693000002,180.76923076923077
391,Wilkes,TX,32.848163,-94.547986,1964,Gas_SC,882,751984000.0,7860591.172,467167.276,Gas,-147.60512999748187,210564.62179177173,0.008534780885723502,0.00832421626393173,Gas_SC→Gas,13277710.969000002,1356.923076923077
385,Cedar Bayou,TX,29.75,-94.9256,1970,Gas_SC,2295,2006819000.0,20382213.632,1211289.521,Gas,-146.87762174709778,526494.2568514243,0.009061275142574925,0.008534780885723502,Gas_SC→Gas,14489000.490000002,3530.769230769231
331,Horseshoe Lake,OK,35.50866,-97.17969,1958,Gas_SC,973,1100144000.0,11918441.24,708294.052,Gas,-145.5214445368944,332887.30077755766,0.009394162443352483,0.009061275142574925,Gas_SC→Gas,15197294.542000001,1496.923076923077
333,Mustang,OK,35.46988,-97.67498,1950,Gas_SC,995,1161180000.0,10664970.871,629325.727,Gas,-145.205527656284,233091.40550710843,0.00962725384885959,0.009394162443352483,Gas_SC→Gas,15826620.269000001,1530.7692307692307
3,Greene County,AL,32.6017,-87.7811,1965,Gas_SC,1288,1153839000.0,11641749.925,696954.552,Gas,-144.31028236297757,303225.2307259198,0.00993047907958551,0.00962725384885959,Gas_SC→Gas,16523574.821,1981.5384615384617
1018,Baconton Power Plant,GA,31.3869,-84.08,2000,Gas_SC,240,153500000.0,1459241.299,86724.126,Wind,-143.04640979894288,86724.126,0.010017203205585511,0.00993047907958551,Gas_SC→Wind,16610298.947,461.53846153846155
710,Castleton Energy Center,NY,42.5375,-73.7433,1992,Gas_CC,72,81970000.0,739155.058,43928.712,Gas,-142.82690451228518,15957.745110480446,0.010033160950695992,0.010017203205585511,Gas_CC→Gas,16654227.659,110.76923076923077
1239,Hardin County Peaking Facility,TX,30.3038,-94.2526,2001,Gas_SC,172,96045000.0,1176841.821,69936.379,Wind,-140.18663240470312,69936.379,0.010103097329695993,0.010033160950695992,Gas_SC→Wind,16724164.038,330.76923076923083
17,Yucca,AZ,32.7214,-114.7106,1959,Gas_SC,421,425651000.0,4890130.695,290612.052,Gas,-139.72095257702682,145365.37605159343,0.010248462705747585,0.010103097329695993,Gas_SC→Gas,17014776.09,647.6923076923077
264,Bergen Generating Station,NJ,40.8375,-74.0244,1959,Gas_CC,1415,1137911000.0,13251579.657,787560.252,Wind,-139.37389210584618,787560.252,0.011036022957747586,0.010248462705747585,Gas_CC→Wind,17802336.342,2721.153846153846
512,Dansby,TX,30.7217,-96.4608,1978,Gas_SC,203,184525000.0,2087481.998,124061.837,Gas,-136.99231234059027,61095.59733562772,0.011097118555083213,0.011036022957747586,Gas_SC→Gas,17926398.179,312.3076923076923
95,Arvah B Hopkins,FL,30.4522,-84.4,1970,Gas_CC,1107,1412279000.0,11056639.06,657115.279,Gas,-135.8080927676784,175197.3926054192,0.011272315947688632,0.011097118555083213,Gas_CC→Gas,18583513.458,1703.076923076923
1003,Aurora,IL,41.8151,-88.2265,2001,Gas_SC,1080,824938000.0,7770818.632,461804.32,Wind,-134.88749975340227,461804.32,0.011734120267688632,0.011272315947688632,Gas_SC→Wind,19045317.778,2076.923076923077
1202,Groton Generating Station,SD,45.3735,-98.098689,2006,Gas_SC,188,134515000.0,1176232.489,69900.01,Wind,-134.19712710992184,69900.01,0.011804020277688633,0.011734120267688632,Gas_SC→Wind,19115217.788000003,361.53846153846155
170,Teche,LA,29.822222,-91.5425,1953,Gas_SC,467,503159000.0,5116865.048,304082.141,Gas,-134.07763127227327,132387.08513610138,0.011936407362824732,0.011804020277688633,Gas_SC→Gas,19419299.929,718.4615384615385
106,Powerton,IL,40.5408,-89.6786,1972,Coal,1784,1043563000.0,12096674.75,1286625.38,Wind,-132.44637712050465,1286625.38,0.013223032742824733,0.011936407362824735,Coal→Wind,20705925.309,3430.7692307692305
460,Greenwood (MI),MI,43.1056,-82.6964,1979,Gas_SC,1070,1025811000.0,10833548.402,642438.498,Wind,-131.052724146713,642438.498,0.013865471240824732,0.013223032742824733,Gas_SC→Wind,21348363.807,2057.6923076923076
551,Hay Road,DE,39.7436,-75.5072,1989,Gas_CC,1193,1209513000.0,14348604.639,852744.125,Gas,-130.66649547388351,440016.9312041788,0.014305488172028912,0.013865471240824732,Gas_CC→Gas,22201107.932,1835.3846153846152
813,Nassau Energy Corp,NY,40.7264,-73.5892,1991,Gas_CC,55,141677000.0,1775502.244,105527.713,Gas,-130.65794334631119,57182.676083976316,0.014362670848112888,0.014305488172028912,Gas_CC→Gas,22306635.645,84.61538461538461
280,East River,NY,40.7281,-73.9742,1951,Gas_SC,716,2593206000.0,36564742.325,2173868.175,Gas,-130.57604058199522,1288977.6154818414,0.01565164846359473,0.014362670848112888,Gas_SC→Gas,24480503.82,1101.5384615384614
1231,Emporia Energy Center,KS,38.445883,-96.065247,2008,Gas_SC,729,434267000.0,4931796.397,293090.158,Wind,-130.57580718431052,293090.158,0.01594473862159473,0.01565164846359473,Gas_SC→Wind,24773593.978,1401.9230769230771
631,H L Culbreath Bayside Power Station,FL,27.9072,-82.4231,1965,Gas_CC,2785,5013603000.0,53789560.455,3196640.9220000003,Gas,-129.91988788505242,1485828.1428101026,0.017430566764404833,0.01594473862159473,Gas_CC→Gas,27970234.9,4284.615384615385
1225,Mira Loma Peaker,CA,34.0053,-117.5604,2007,Gas_SC,49,25125000.0,208546.398,12392.979,Solar,-129.15452813481608,12392.979,0.01744295974340483,0.017430566764404833,Gas_SC→Solar,27982627.878999997,153.12499999999997
1093,Frank Knutson,CO,39.941129,-104.682015,2002,Gas_SC,154,73771000.0,912492.099,54291.524,Wind,-128.26719629604153,54291.524,0.017497251267404833,0.01744295974340483,Gas_SC→Wind,28036919.402999997,296.1538461538462
640,Hell Gate,NY,40.799,-73.9094,2001,Gas_SC,94,72684000.0,674065.1440000001,40058.627,Wind,-127.65454654774732,40058.627,0.017537309894404832,0.017497251267404833,Gas_SC→Wind,28076978.029999997,180.76923076923077
918,Walton County Power LLC,GA,33.8148,-83.6954,2001,Gas_SC,492,318036000.0,3151280.794,187275.659,Wind,-126.62192639172405,187275.659,0.017724585553404833,0.017537309894404832,Gas_SC→Wind,28264253.689,946.1538461538462
287,E F Barrett,NY,40.616689,-73.647881,1956,Gas_SC,684,1469493000.0,15812832.339,941535.239,Gas,-125.25645014049,440093.97942478023,0.018164679532829613,0.01772458555340483,Gas_SC→Gas,29205788.928,1052.3076923076924
404,Sim Gideon,TX,30.1456,-97.2708,1965,Gas_SC,623,680051000.0,6856742.529,407490.218,Gas,-124.58790809548287,175433.56307521457,0.018340113095904827,0.018164679532829613,Gas_SC→Gas,29613279.145999998,958.4615384615385
718,Greenleaf 2 Power Plant,CA,39.1365,-121.6397,1989,Gas_SC,49,63901000.0,647270.177,38468.761,Gas,-124.44599314263016,16663.554763484335,0.018356776650668313,0.018340113095904827,Gas_SC→Gas,29651747.906999998,75.38461538461539
334,Seminole,OK,34.96645,-96.7258,1971,Gas_SC,1724,2667360000.0,28228357.389,1677574.715,Gas,-124.25595626020913,767380.2750533259,0.019124156925721638,0.018356776650668313,Gas_SC→Gas,31329322.621999998,2652.3076923076924
827,Indeck Olean Energy Center,NY,42.085944,-78.45425,1994,Gas_CC,90,87172000.0,748123.9500000001,44458.975,Wind,-124.19031826609645,44458.975,0.01916861590072164,0.019124156925721638,Gas_CC→Wind,31373781.597,173.0769230769231
679,Anclote,FL,28.184444,-82.788611,1974,Gas_SC,1112,2373107000.0,25707131.313,1527741.288,Gas,-123.15653755118547,717956.0333667551,0.019886571934088396,0.01916861590072164,Gas_SC→Gas,32901522.884999998,1710.7692307692307
969,Harry L. Oswald,AR,34.5923,-92.2166,2002,Gas_CC,599,465218000.0,3543324.762,210578.029,Wind,-123.1388023155418,210578.029,0.020097149963088392,0.019886571934088396,Gas_CC→Wind,33112100.913999997,1151.923076923077
290,Northport,NY,40.923565,-73.342323,1967,Gas_SC,1564,3136361000.0,31779700.968,1892666.569,Gas,-123.13373074760044,822432.9507911378,0.020919582913879534,0.020097149963088392,Gas_SC→Gas,35004767.482999995,2406.1538461538457
600,Georgetown,IN,39.902556,-86.24405,2000,Gas_SC,340,244902000.0,2882872.681,171322.486,Wind,-122.59303365525584,171322.486,0.021090905399879532,0.020919582913879534,Gas_SC→Wind,35176089.969,653.8461538461539
407,O W Sommers,TX,29.308056,-98.3242,1972,Gas_SC,892,979976000.0,10762585.211,639604.099,Gas,-122.57257967300609,305202.7784129095,0.021396108178292444,0.021090905399879532,Gas_SC→Gas,35815694.067999996,1372.3076923076924
96,S O Purdom,FL,30.162304,-84.200673,1963,Gas_CC,350,663452000.0,6650960.348,395280.832,Gas,-122.19727771415967,168888.32346290682,0.02156499650175535,0.021396108178292444,Gas_CC→Gas,36210974.9,538.4615384615385
44,Haynes,CA,33.764741,-118.09913,1962,Gas_SC,2882,3802589000.0,28051436.0,1636605.754,Gas,-120.30537209057026,339032.361131252,0.0219040288628866,0.02156499650175535,Gas_SC→Gas,37847580.654,4433.846153846154
632,Terry Bundy Generating Station,NE,40.909653,-96.613086,2003,Gas_CC,212,161554000.0,1617826.487,96150.778,Wind,-118.24969122556489,96150.778,0.022000179640886602,0.0219040288628866,Gas_CC→Wind,37943731.432,407.6923076923077
1068,Elgin Energy Center LLC,IL,42.000061,-88.244572,2002,Gas_SC,540,390722000.0,4420334.302,262695.088,Wind,-118.11814637603774,262695.088,0.0222628747288866,0.022000179640886602,Gas_SC→Wind,38206426.519999996,1038.4615384615386
894,Brownsville Peaking Power,TN,35.5438,-89.198,1999,Gas_SC,460,334949000.0,3834429.612,227873.668,Wind,-116.29971269493412,227873.668,0.0224907483968866,0.0222628747288866,Gas_SC→Wind,38434300.18799999,884.6153846153846
19,H Wilson Sundt Generating Station,AZ,32.16,-110.9047,1958,Gas_SC,736,1016524000.0,10599106.418,629887.725,Gas,-115.97892427713641,283014.9770873249,0.022773763373973927,0.0224907483968866,Gas_SC→Gas,39064187.912999995,1132.3076923076924
171,Little Gypsy,LA,30.005067,-90.461694,1961,Gas_SC,1249,1713462000.0,18307564.102,1087990.954,Gas,-115.71412305550811,503299.12932694936,0.023277062503300878,0.022773763373973927,Gas_SC→Gas,40152178.867,1921.5384615384617
912,Rockingham County CT Station,NC,36.3297,-79.8297,2000,Gas_SC,975,667548000.0,6862918.011,408581.996,Wind,-115.1503488806559,408581.996,0.023685644499300877,0.023277062503300878,Gas_SC→Wind,40560760.863,1875.0
569,Richard M Flynn,NY,40.8158,-73.064,1994,Gas_CC,170,384941000.0,4680842.066,278476.368,Gas,-114.6064223893134,147121.33609297857,0.023832765835393857,0.023685644499300877,Gas_CC→Gas,40839237.231,261.53846153846155
103,Grand Tower Energy Center LLC,IL,37.6577,-89.511161,1951,Gas_CC,639,1171248000.0,11380872.664,676329.532,Gas,-114.56350892680425,276659.664641015,0.02410942550003487,0.023832765835393857,Gas_CC→Gas,41515566.763,983.0769230769231
447,Barney M Davis,TX,27.6064,-97.3117,1974,Gas_CC,1081,1335596000.0,10299947.489,612109.759,Wind,-112.83906491213801,612109.759,0.024721535259034873,0.02410942550003487,Gas_CC→Wind,42127676.522,2078.846153846154
1286,Pioneer Generating Station,ND,48.2325,-103.95278,2013,Gas_SC,288,193029000.0,1909698.654,113490.988,Wind,-112.48799609080584,113490.988,0.024835026247034875,0.024721535259034873,Gas_SC→Wind,42241167.51,553.8461538461539
35,AES Huntington Beach LLC,CA,33.6439,-117.9792,1958,Gas_SC,1021,1322790000.0,9458494.236,562099.998,Gas,-111.95435455597082,110718.81840029801,0.02494574506543517,0.024835026247034875,Gas_SC→Gas,42803267.508,1570.7692307692307
294,Bethlehem Energy Center,NY,42.594196,-73.763752,1952,Gas_CC,1292,3346011000.0,34172719.047,2030841.502,Gas,-111.83466999751444,889068.1350002659,0.025834813200435437,0.02494574506543517,Gas_CC→Gas,44834109.01,1987.6923076923076
224,Baxter Wilson,MS,32.2831,-90.9306,1967,Gas_SC,1327,1577580000.0,15533548.14,923362.417,Gas,-110.53374921882846,385038.1770882242,0.02621985137752366,0.025834813200435437,Gas_SC→Gas,45757471.427,2041.5384615384617
956,Gibson City Energy Center LLC,IL,40.4705,-88.3987,2000,Gas_SC,270,210182000.0,2484262.467,147633.886,Wind,-110.29511775474941,147633.886,0.02636748526352366,0.02621985137752366,Gas_SC→Wind,45905105.313,519.2307692307693
293,Greenidge Generation LLC,NY,42.6789,-76.9483,1950,Gas_SC,162,392792000.0,3849053.684,228303.061,Gas,-110.02951716905501,94268.99943518158,0.026461754262958843,0.02636748526352366,Gas_SC→Gas,46133408.374,249.23076923076923
168,R S Nelson,LA,30.2844,-93.2911,1959,Gas_SC,1594,1017215000.0,11279371.814,1182981.035,Wind,-109.88147391300517,1182981.035,0.027644735297958842,0.026461754262958843,Gas_SC→Wind,47316389.408999994,3065.3846153846152
744,Las Vegas Generating Station,NV,36.2319,-115.1222,1994,Gas_CC,354,270089000.0,2819195.911,167537.117,Gas,-108.91255351928713,75373.51475255036,0.027720108812711395,0.027644735297958842,Gas_CC→Gas,47483926.52599999,544.6153846153846
625,Holden,MO,38.7538,-93.9983,2002,Gas_SC,321,240843000.0,2771409.671,164764.537,Wind,-107.35822202935134,164764.537,0.027884873349711396,0.027720108812711395,Gas_SC→Wind,47648691.06299999,617.3076923076923
1204,Cannon Falls Energy Center,MN,44.536688,-92.915528,2008,Gas_SC,346,226931000.0,2599902.5,153397.7,Wind,-107.19729426301251,153397.7,0.028038271049711395,0.027884873349711396,Gas_SC→Wind,47802088.763,665.3846153846154
990,"Darby Power, LLC",OH,39.7139,-83.1778,2001,Gas_SC,564,413160000.0,4756106.0,281152.9,Wind,-106.51953810309745,281152.9,0.028319423949711393,0.028038271049711395,Gas_SC→Wind,48083241.662999995,1084.6153846153845
1262,Bayonne Energy Center,NJ,40.652834,-74.09155,2012,Gas_SC,644,402893000.0,3472497.242,206381.972,Wind,-106.27832475115304,206381.972,0.028525805921711393,0.028319423949711393,Gas_SC→Wind,48289623.635,1238.4615384615383
363,Urquhart,SC,33.435,-81.9111,1953,Gas_CC,755,1363832000.0,15099214.228,899655.8539999999,Gas,-103.84398925197638,434269.7406064751,0.02896007566231787,0.028525805921711393,Gas_CC→Gas,49189279.489,1161.5384615384614
637,Vernon Boulevard,NY,40.7537,-73.9508,2001,Gas_SC,94,77015000.0,681727.089,40516.26,Wind,-103.55585170536973,40516.26,0.02900059192231787,0.02896007566231787,Gas_SC→Wind,49229795.749,180.76923076923077
86,Big Bend,FL,27.7944,-82.4036,1969,Coal,2076,3335206000.0,40258076.805,2852606.378,Gas,-103.00985732058535,1714520.0464674032,0.030715111968785274,0.02900059192231787,Coal→Gas,52082402.127,3193.846153846154
682,Gerald Andrus,MS,33.35,-91.1167,1975,Gas_SC,781,1038230000.0,11519664.597,684678.854,Gas,-102.84376035479397,330399.27667041746,0.031045511245455692,0.030715111968785274,Gas_SC→Gas,52767080.981,1201.5384615384614
657,Pyramid,NM,32.2363,-108.5494,2003,Gas_SC,184,131700000.0,1274790.595,75869.983,Wind,-102.79737795289913,75869.983,0.031121381228455692,0.031045511245455692,Gas_SC→Wind,52842950.964,353.84615384615387
1048,RockGen Energy Center,WI,42.9767,-89.0492,2001,Gas_SC,561,466185000.0,4971121.011,295658.987,Wind,-102.49129727594823,295658.987,0.031417040215455695,0.031121381228455692,Gas_SC→Wind,53138609.951000005,1078.8461538461538
652,Kemper County,MS,32.7976,-88.606,2002,Gas_SC,372,237128000.0,2844636.671,169112.43,Wind,-102.45857323196635,169112.43,0.031586152645455695,0.031417040215455695,Gas_SC→Wind,53307722.381000005,715.3846153846154
604,Sowega Power,GA,31.3869,-84.08,1999,Gas_SC,98,76468000.0,731632.018,43481.607,Wind,-102.40188577797122,43481.607,0.03162963425245569,0.031586152645455695,Gas_SC→Wind,53351203.988000005,188.46153846153848
351,New Castle Plant,PA,40.937939,-80.369007,1939,Gas_SC,424,595298000.0,6338136.165,376668.958,Gas,-102.00835842688574,173532.92472688528,0.031803167177182574,0.03162963425245569,Gas_SC→Gas,53727872.946,652.3076923076924
1277,Mariposa Energy Project,CA,37.789167,-121.601944,2012,Gas_SC,196,130768000.0,1143482.591,67953.93,Wind,-101.69347370260115,67953.93,0.03187112110718258,0.031803167177182574,Gas_SC→Wind,53795826.876,376.92307692307696
629,Encogen,WA,48.746,-122.486,1993,Gas_CC,175,258757000.0,3304024.002,196358.765,Gas,-101.64245431103717,108062.02863997304,0.03197918313582255,0.03187112110718258,Gas_CC→Gas,53992185.641,269.2307692307692
732,Hopewell Cogeneration,VA,37.291667,-77.281111,1990,Gas_CC,399,1501401000.0,17264209.884,1025984.208,Gas,-101.50225074555182,513654.8477597713,0.03249283798358232,0.03197918313582255,Gas_CC→Gas,55018169.849,613.8461538461539
660,Greater Des Moines,IA,41.5563,-93.5283,2003,Gas_CC,575,457689000.0,4992929.627,296722.743,Wind,-99.71315379441874,296722.743,0.032789560726582324,0.03249283798358232,Gas_CC→Wind,55314892.592,1105.769230769231
1143,Edgewood Energy LLC,NY,40.7861,-73.2931,2002,Gas_SC,100,91805000.0,864144.7660000001,51354.894,Wind,-99.49780391849868,51354.894,0.03284091562058233,0.032789560726582324,Gas_SC→Wind,55366247.486,192.30769230769232
838,Ocean State Power II,RI,42.0099,-71.6701,1991,Gas_CC,252,421685000.0,5073498.176,301591.385,Gas,-98.37130545153194,157698.04386535255,0.032998613664447674,0.03284091562058233,Gas_CC→Gas,55667838.871,387.6923076923077
1079,Green Power 2,TX,29.378097,-94.932773,2003,Gas_CC,861,1322500000.0,48285090.776,2869502.616,Gas,-98.2164844035155,2418220.394316584,0.035416834058764265,0.03299861366444768,Gas_CC→Gas,58537341.486999996,1324.6153846153848
609,Sewell Creek Energy,GA,33.9486,-85.2769,2000,Gas_SC,570,426763000.0,4639901.166999999,275741.619,Wind,-97.3164110954258,275741.619,0.035692575677764266,0.035416834058764265,Gas_SC→Wind,58813083.106,1096.1538461538462
107,Waukegan,IL,42.3833,-87.8133,1952,Coal,914,747412000.0,7877858.9,832780.45,Wind,-97.08325730399118,832780.45,0.036525356127764266,0.035692575677764266,Coal→Wind,59645863.556,1757.6923076923078
116,Harding Street,IN,39.711319,-86.196867,1941,Gas_SC,1176,1737404000.0,17931821.542,1065762.083,Gas,-96.67207022572343,472900.4292520578,0.03699825655701633,0.036525356127764266,Gas_SC→Gas,60711625.639,1809.2307692307693
185,Morgantown Generating Plant,MD,38.3592,-76.9767,1970,Coal,1548,1259835000.0,12531503.731,1284643.79,Wind,-96.41771683715702,1284643.79,0.03828290034701633,0.03699825655701633,Coal→Wind,61996269.429,2976.923076923077
93,C D McIntosh Jr,FL,28.0801,-81.9229,1970,Gas_CC,1409,2031202000.0,21820771.667,1583518.393,Gas,-96.22674877216173,890402.8154969391,0.039173303162513266,0.03828290034701633,Gas_CC→Gas,63579787.822,2167.6923076923076
42,El Centro Hybrid,CA,32.802222,-115.54,1952,Gas_CC,435,660521000.0,5363384.605,318738.575,Gas,-96.19217529597894,93346.22388578329,0.039266649386399045,0.039173303162513266,Gas_CC→Gas,63898526.397,669.2307692307692
379,Victoria,TX,28.7883,-97.01,1955,Gas_CC,712,966155000.0,7497727.98,445582.317,Gas,-96.19162375670199,115897.19420942094,0.03938254658060846,0.039266649386399045,Gas_CC→Gas,64344108.714,1095.3846153846155
992,Gleason Generating Facility,TN,36.2454,-88.612,2000,Gas_SC,567,470362000.0,4899365.157,291158.105,Wind,-96.04251267637692,291158.105,0.03967370468560846,0.03938254658060846,Gas_SC→Wind,64635266.819,1090.3846153846155
810,Ocean State Power,RI,42.009722,-71.668909,1990,Gas_CC,252,442546000.0,5175091.072000001,307762.369,Gas,-95.04801218500138,156750.54134245066,0.03983045522695092,0.03967370468560846,Gas_CC→Gas,64943029.188,387.6923076923077
860,Grays Ferry Cogeneration,PA,39.942219,-75.188069,1997,Gas_SC,192,865346000.0,12846683.748,638441.926,Gas,-94.92784539669401,343156.2810813933,0.04017361150803231,0.03983045522695092,Gas_SC→Gas,65581471.114,295.38461538461536
1065,Hot Spring Generating Facility,AR,34.29759,-92.868344,2002,Gas_CC,1426,1181335000.0,8659294.141,514608.998,Wind,-94.24701877511619,514608.998,0.04068822050603231,0.04017361150803231,Gas_CC→Wind,66096080.112,2742.3076923076924
378,Nueces Bay,TX,27.819412,-97.419203,1949,Gas_CC,941,1252086000.0,9111852.548,541505.7170000001,Gas,-94.20374408557996,114251.1598592049,0.040802471665891515,0.04068822050603231,Gas_CC→Gas,66637585.829,1447.6923076923078
1007,Big Sandy Peaker Plant,WV,38.3441,-82.5938,2001,Gas_SC,348,269174000.0,2687489.8,158624.9,Wind,-93.07758921845274,158624.9,0.04096109656589151,0.040802471665891515,Gas_SC→Wind,66796210.729,669.2307692307692
869,Brooklyn Navy Yard Cogeneration,NY,40.699357,-73.976392,1996,Gas_CC,322,1616508000.0,18359005.639,1091072.527,Gas,-91.63308488191232,539464.7223807067,0.04150056128827222,0.04096109656589151,Gas_CC→Gas,67887283.256,495.3846153846154
8,Lowman Energy Center,AL,31.488019,-87.910747,1969,Coal,538,394730000.0,4043808.636,414894.287,Wind,-91.16856639822579,414894.287,0.041915455575272216,0.04150056128827222,Coal→Wind,68302177.543,1034.6153846153845
874,Dighton Power Plant,MA,41.8312,-71.1239,1999,Gas_CC,200,216922000.0,1689282.333,100391.37,Wind,-91.01076043663986,100391.37,0.04201584694527222,0.041915455575272216,Gas_CC→Wind,68402568.913,384.61538461538464
713,Bayou Cogen Plant,TX,29.6225,-95.0458,1984,Gas_SC,620,2322614000.0,32623627.833,1890563.488,Gas,-90.09124889912646,1098008.1715289182,0.04311385511680114,0.04201584694527222,Gas_SC→Gas,70293132.40100001,953.8461538461538
592,Tiger Bay,FL,27.746369,-81.849446,1997,Gas_CC,277,517793000.0,5725426.534,340251.62,Gas,-88.67596883901597,163562.94293979506,0.04327741805974093,0.04311385511680114,Gas_CC→Gas,70633384.02100001,426.1538461538462
87,Deerhaven Generating Station,FL,29.7592,-82.3878,1972,Coal,469,750718000.0,8258550.147,622402.804,Gas,-87.86037151458076,366232.1522814891,0.04364365021202242,0.04327741805974093,Coal→Gas,71255786.82500002,721.5384615384614
370,Allen,TN,35.074087,-90.14868,1959,Gas_CC,2764,3815383000.0,24638356.599,1464222.803,Wind,-87.4755250565102,1464222.803,0.04510787301502242,0.04364365021202242,Gas_CC→Wind,72720009.62800002,5315.384615384615
759,Paris Energy Center,TX,33.6968,-95.5577,1989,Gas_CC,264,408641000.0,3474746.948,206500.832,Gas,-87.10143751910918,67058.54969305647,0.04517493156471548,0.04510787301502242,Gas_CC→Gas,72926510.46000002,406.1538461538462
843,Sumas Power Plant,WA,48.9905,-122.2733,1993,Gas_CC,124,335873000.0,4194252.959,249258.094,Gas,-86.96970366769892,134646.7415285641,0.04530957830624404,0.04517493156471548,Gas_CC→Gas,73175768.55400002,190.76923076923077
831,Kennedy International Airport Cogen,NY,40.6417,-73.7778,1994,Gas_CC,171,431255000.0,4316863.858,256622.174,Gas,-86.15501808616159,109463.22162791563,0.045419041527871955,0.04530957830624404,Gas_CC→Gas,73432390.72800002,263.0769230769231
255,Fort Churchill,NV,39.1281,-119.1322,1968,Gas_SC,230,660444000.0,7254595.796,431131.175,Gas,-85.39738741234017,205765.09891872815,0.04562480662679068,0.045419041527871955,Gas_SC→Gas,73863521.90300001,353.84615384615387
100,Yates,GA,33.4622,-84.8986,1950,Gas_SC,1484,2428382000.0,25020975.687,1486953.61,Gas,-85.33795394069203,658306.635288456,0.04628311326207914,0.04562480662679068,Gas_SC→Gas,75350475.51300001,2283.076923076923
873,Sweeny Cogen Facility,TX,29.0728,-95.745,1997,Gas_SC,572,3243291000.0,55995276.912,3327820.999,Gas,-84.73084471026213,2221099.208417143,0.04850421247049627,0.04628311326207914,Gas_SC→Gas,78678296.51200001,880.0
134,George Neal North,IA,42.299794,-96.361707,1964,Coal,1080,942043000.0,9719747.225,1019408.05,Wind,-84.54063259341606,1019408.05,0.04952362052049627,0.04850421247049627,Coal→Wind,79697704.562,2076.923076923077
1223,McGrath Peaker,CA,34.205556,-119.246944,2012,Gas_SC,49,26932000.0,222666.322,13233.604,Solar,-84.50753125524702,13233.604,0.04953685412449627,0.04952362052049627,Gas_SC→Solar,79710938.16600001,153.12499999999997
800,Salinas River Cogeneration,CA,35.9515,-120.8679,1991,Gas_SC,38,260005000.0,3338059.135,198378.541,Gas,-83.68788396275166,109655.94436574928,0.04964651006886202,0.04953685412449627,Gas_SC→Gas,79909316.707,58.46153846153846
26,GREC,OK,36.190278,-95.2894,1981,Gas_CC,1734,2615424000.0,17736827.73,1099988.09,Wind,-83.61272030660763,1099988.09,0.05074649815886202,0.04964651006886202,Gas_CC→Wind,81009304.797,3334.6153846153848
469,Nearman Creek,KS,39.1681,-94.6975,1981,Coal,671,1208375000.0,13611277.482,1423278.426,Gas,-83.12465079723023,1010939.5567170526,0.05175743771557908,0.05074649815886202,Coal→Gas,82432583.223,1032.3076923076924
155,E W Brown,KY,37.78831,-84.71257,1957,Gas_SC,1748,1458548000.0,15795745.82,1516834.619,Wind,-83.11275151074204,1516834.619,0.05327427233457908,0.05175743771557908,Gas_SC→Wind,83949417.84200001,3361.538461538462
844,Ferndale Generating Station,WA,48.828996,-122.685114,1994,Gas_CC,283,755266000.0,9434462.148,560670.863,Gas,-83.0574068368457,302948.2781667699,0.05357722061274585,0.05327427233457908,Gas_CC→Gas,84510088.70500001,435.38461538461536
73,Brandon Shores,MD,39.18,-76.5389,1984,Coal,1370,1148597000.0,12187110.157,1250397.931,Gas,-82.90868060828562,858457.3593713373,0.05443567797211719,0.05357722061274585,Coal→Gas,85760486.636,2107.6923076923076
84,Crist,FL,30.5661,-87.2244,1945,Coal,1226,1308078000.0,14486362.104,1263481.962,Gas,-82.57105241424654,817121.0198637433,0.05525279899198093,0.05443567797211719,Coal→Gas,87023968.598,1886.1538461538462
394,Plant X,TX,34.1661,-102.4114,1952,Gas_SC,434,976440000.0,10435557.995,620181.384,Gas,-81.97537790522064,286986.66752321,0.05553978565950414,0.05525279899198093,Gas_SC→Gas,87644149.98200001,667.6923076923077
352,Brunner Island,PA,40.096111,-76.6962,1961,Gas_SC,1621,2060637000.0,19918795.885,1342783.238,Gas,-81.71400321745233,639623.4319939135,0.05617940909149805,0.05553978565950414,Gas_SC→Gas,88986933.22000001,2493.846153846154
643,Talbot County Energy,GA,32.5892,-84.6917,2002,Gas_SC,726,504779000.0,5623401.582,334272.254,Wind,-81.43792117568307,334272.254,0.05651368134549806,0.05617940909149805,Gas_SC→Wind,89321205.474,1396.1538461538462
273,Rio Grande,NM,31.8047,-106.5472,1957,Gas_SC,397,928728000.0,9949978.056,591310.323,Gas,-80.57112114727117,274396.5723916101,0.05678807791788966,0.05651368134549806,Gas_SC→Gas,89912515.797,610.7692307692307
335,Northeastern,OK,36.4317,-95.7008,1961,Coal,1949,3054286000.0,34998029.009,2688246.005,Gas,-79.90953671305633,1646019.1832710365,0.058434097101160695,0.05678807791788966,Coal→Gas,92600761.802,2998.461538461538
1188,Riverside Energy Resource Center,CA,33.9636,-117.4528,2006,Gas_SC,196,125585000.0,1047800.734,62271.338,Solar,-79.74735126335702,62271.338,0.058496368439160694,0.058434097101160695,Gas_SC→Solar,92663033.14,612.4999999999999
765,Bethpage Power Plant,NY,40.7469,-73.4994,1989,Gas_CC,238,539271000.0,4442748.961,264031.917,Gas,-79.66985368195967,80014.21191913995,0.05857638265107983,0.058496368439160694,Gas_CC→Gas,92927065.057,366.1538461538462
851,Pratt & Whitney,CT,41.748327,-72.636693,1992,Gas_SC,25,85790000.0,985538.778,58569.66,Gas,-79.47821927782473,29295.17848905841,0.058605677829568895,0.05857638265107983,Gas_SC→Gas,92985634.717,38.46153846153846
617,Louisa Generation Facility,VA,38.1181,-78.2139,2003,Gas_SC,507,378549000.0,4005133.685,238054.684,Wind,-78.88120905844268,238054.684,0.05884373251356889,0.058605677829568895,Gas_SC→Wind,93223689.401,975.0
567,Hines Energy Complex,FL,27.788215,-81.869983,1999,Gas_CC,3296,7497927000.0,82539135.494,4905994.901000001,Gas,-78.5904615772923,2347445.823812802,0.0611911783373817,0.05884373251356889,Gas_CC→Gas,98129684.30199999,5070.769230769231
446,Thomas C Ferguson,TX,30.558,-98.3705,1974,Gas_CC,1020,2336710000.0,23833676.627,1416400.308,Gas,-77.51409087211852,619034.9543290321,0.06181021329171073,0.0611911783373817,Gas_CC→Gas,99546084.60999998,1569.2307692307693
223,Jack Watson,MS,30.4392,-89.0286,1957,Gas_SC,1212,2392307000.0,23890945.719,1416769.574,Gas,-76.99271578368021,600432.622840236,0.06241064591455096,0.06181021329171073,Gas_SC→Gas,100962854.18399999,1864.6153846153848
277,Cunningham,NM,32.7131,-103.3533,1957,Gas_SC,517,1345768000.0,14318869.367,850966.878,Gas,-76.03652495730437,391744.8190885086,0.06280239073363947,0.06241064591455096,Gas_SC→Gas,101813821.06199999,795.3846153846154
129,Lansing,IA,43.3359,-91.1675,1948,Coal,339,405557000.0,4329877.575,453574.457,Gas,-75.90497677166327,315184.5409476286,0.0631175752745871,0.06280239073363947,Coal→Gas,102267395.519,521.5384615384615
1155,Feather River Energy Center,CA,39.109344,-121.60931,2003,Gas_SC,47,34524000.0,339638.412,20184.611,Wind,-75.82396714989792,20184.611,0.0631377598855871,0.0631175752745871,Gas_SC→Wind,102287580.13,90.38461538461539
274,Maddox,NM,32.714224,-103.301469,1963,Gas_SC,210,524387000.0,5440333.754,323309.838,Gas,-75.31911259542126,144371.06266396862,0.06328213094825107,0.0631377598855871,Gas_SC→Gas,102610889.968,323.0769230769231
1138,Bennett Mountain,ID,43.147153,-115.666637,2005,Gas_SC,392,315698000.0,3400267.35,202071.538,Wind,-74.96317271976552,202071.538,0.06348420248625107,0.06328213094825107,Gas_SC→Wind,102812961.506,753.8461538461539
384,Sabine,TX,30.0242,-93.878,1962,Gas_SC,2049,4956860000.0,50392669.797,2994758.426,Gas,-74.94831941009548,1303308.298685325,0.0647875107849364,0.06348420248625107,Gas_SC→Gas,105807719.932,3152.3076923076924
963,ANP Blackstone Energy Project,MA,42.059876,-71.515811,2001,Gas_CC,578,951288000.0,10517931.658,625063.477,Gas,-74.13826131977227,300451.4829729501,0.06508796226790935,0.0647875107849364,Gas_CC→Gas,106432783.409,889.2307692307692
572,San Jacinto Steam Electric Station,TX,29.694838,-95.040622,1995,Gas_SC,176,932261000.0,12785306.369,759890.8809999999,Gas,-73.87307443880232,441771.5499838917,0.06552973381789323,0.06508796226790935,Gas_SC→Gas,107192674.28999999,270.7692307692308
962,ANP Bellingham Energy Project,MA,42.110577,-71.453468,2002,Gas_CC,578,971792000.0,10925397.196,649280.37,Gas,-72.82047601266659,317671.71005733823,0.06584740552795058,0.06552973381789323,Gas_CC→Gas,107841954.66,889.2307692307692
197,Dan E Karn,MI,43.644996,-83.840074,1959,Gas_SC,1945,1828950000.0,20504908.273,2109575.665,Wind,-72.81785980975005,2109575.665,0.06795698119295057,0.06584740552795058,Gas_SC→Wind,109951530.325,3740.3846153846157
893,Millennium Power,MA,42.112291,-72.015113,2001,Gas_CC,427,686521000.0,7559875.478,449275.269,Gas,-72.65846021661234,215010.8288394552,0.06817199202179003,0.06795698119295057,Gas_CC→Gas,110400805.594,656.9230769230769
393,Nichols,TX,35.283357,-101.746423,1960,Gas_SC,473,1351105000.0,14264860.448,847745.3369999999,Gas,-72.53861698704762,386702.1111946526,0.06855869413298468,0.06817199202179003,Gas_SC→Gas,111248550.931,727.6923076923077
1102,Sundance,AZ,32.9285,-111.5899,2002,Gas_SC,690,470536000.0,4685144.242,278431.814,Solar,-71.41931659979794,278431.814,0.06883712594698468,0.06855869413298468,Gas_SC→Solar,111526982.74499999,2156.2499999999995
348,Shawville,PA,41.06755,-78.366228,1954,Gas_SC,632,1481276000.0,15157043.114,900764.211,Gas,-70.99452065934662,395302.1889158233,0.0692324281359005,0.06883712594698468,Gas_SC→Gas,112427746.95599999,972.3076923076924
582,Rathdrum,ID,47.80427,-116.867312,1994,Gas_SC,166,164655000.0,1539881.405,91511.305,Gas,-70.3915131371,35325.38877218687,0.06926775352467268,0.0692324281359005,Gas_SC→Gas,112519258.26099999,255.3846153846154
1295,Clayville,NJ,39.424444,-75.02,2015,Gas_SC,73,59621000.0,524669.779,31180.227,Wind,-69.91008131761438,31180.227,0.06929893375167269,0.06926775352467268,Gas_SC→Wind,112550438.48799999,140.38461538461542
575,George Neal South,IA,42.3006,-96.3617,1979,Coal,695,759395000.0,7135139.05,748335.0499999999,Gas,-69.42380760981818,489203.5091793741,0.06978813726085205,0.06929893375167269,Coal→Gas,113298773.53799999,1069.2307692307693
203,St Clair,MI,42.7642,-82.4719,1953,Coal,1923,1885094000.0,19903603.932,2087492.367,Wind,-69.28234508953092,2087492.367,0.07187562962785206,0.06978813726085205,Coal→Wind,115386265.90499999,3698.0769230769233
332,Muskogee,OK,35.76135,-95.28732,1956,Gas_SC,1889,2887174000.0,31639775.147,2623045.207,Gas,-69.07162101870428,1637842.7139137278,0.07351347234176578,0.07187562962785206,Gas_SC→Gas,118009311.11199999,2906.153846153846
1276,"Sentinel Energy Center, LLC",CA,33.934167,-116.571388,2013,Gas_SC,800,730710000.0,5964026.111,354436.256,Wind,-68.70210380486874,354436.256,0.07386790859776578,0.07351347234176578,Gas_SC→Wind,118363747.36799999,1538.4615384615386
371,Bull Run,TN,36.0211,-84.1567,1967,Coal,950,739769000.0,7270929.042,745998.767,Gas,-68.50281022692525,493564.2884725754,0.07436147288623836,0.07386790859776578,Coal→Gas,119109746.13499999,1461.5384615384614
616,Marsh Run Generation Facility,VA,38.5283,-77.7681,2004,Gas_SC,708,596322000.0,5981067.2530000005,355516.912,Wind,-68.15486103192913,355516.912,0.07471698979823835,0.07436147288623836,Gas_SC→Wind,119465263.04699999,1361.5384615384617
138,Muscatine Plant #1,IA,41.3917,-91.0569,1958,Coal,293,811937000.0,9568391.947,1003529.785,Gas,-68.0541031878445,726469.1171535216,0.07544345891539188,0.07471698979823835,Coal→Gas,120468792.83199999,450.7692307692308
568,Redding Power,CA,40.507292,-122.423281,1989,Gas_CC,180,340140000.0,2737669.894,162700.347,Gas,-67.3015666090698,46632.94822238403,0.07549009186361426,0.07544345891539188,Gas_CC→Gas,120631493.17899999,276.92307692307696
221,Chevron Oil,MS,30.34,-88.4919,1967,Gas_SC,169,600125000.0,6774642.308,402605.776,Gas,-66.54512824797585,197822.60527201512,0.07568791446888627,0.07549009186361426,Gas_SC→Gas,121034098.95499998,260.0
796,Optim Energy Altura Cogen LLC,TX,29.8161,-95.10773,1985,Gas_CC,638,3400434000.0,38558836.591,2291515.129,Gas,-65.92460703525504,1131170.7734553309,0.07681908524234161,0.07568791446888627,Gas_CC→Gas,123325614.08399998,981.5384615384615
358,Manchester Street,RI,41.8167,-71.4042,1995,Gas_CC,515,1107067000.0,13565120.175,804654.425,Gas,-65.64153767465203,426885.3094518758,0.07724597055179348,0.07681908524234161,Gas_CC→Gas,124130268.50899997,792.3076923076924
392,Jones,TX,33.5239,-101.7392,1971,Gas_SC,858,2817409000.0,28763007.782,1709344.851,Gas,-64.73058304833802,747948.5614643845,0.07799391911325787,0.07724597055179348,Gas_SC→Gas,125839613.35999997,1320.0
1063,Vandolah Power Station,FL,27.523607,-81.923951,2002,Gas_SC,728,586287000.0,5852124.626,348686.199,Wind,-64.53106133433211,348686.199,0.07834260531225787,0.07799391911325787,Gas_SC→Wind,126188299.55899997,1400.0000000000002
881,Cherokee County Cogen,SC,35.0727,-81.613,1998,Gas_CC,101,238778000.0,2776713.647,165015.424,Gas,-63.95804530328239,83536.20560368794,0.07842614151786156,0.07834260531225787,Gas_CC→Gas,126353314.98299997,155.38461538461536
53,McWilliams,AL,31.400255,-86.476449,1954,Gas_CC,653,2879239000.0,29887417.483,1776162.766,Gas,-63.487142475621816,793667.9662438284,0.0792198094841054,0.07842614151786156,Gas_CC→Gas,128129477.74899997,1004.6153846153846
903,Kalamazoo River Generating Station,MI,42.281345,-85.494956,1999,Gas_SC,77,78808000.0,959163.599,57002.899000000005,Wind,-62.334841794605225,57002.899000000005,0.0792768123831054,0.0792198094841054,Gas_SC→Wind,128186480.64799997,148.0769230769231
148,Lawrence Energy Center,KS,39.0072,-95.269167,1952,Coal,604,2137047000.0,21159756.632,2181852.158,Gas,-62.2394548854908,1452618.6472235317,0.08072943103032892,0.0792768123831054,Coal→Gas,130368332.80599996,929.2307692307692
471,Jeffrey Energy Center,KS,39.286453,-96.117231,1978,Coal,2160,7742614000.0,77712558.28,8145164.31,Gas,-62.22566825674408,5503119.661563613,0.08623255069189255,0.08072943103032892,Coal→Gas,138513497.11599997,3323.076923076923
649,Solway CT,MN,47.544582,-95.129652,2003,Gas_SC,51,56922000.0,523406.292,31105.411,Wind,-62.05747331603637,31105.411,0.08626365610289255,0.08623255069189255,Gas_SC→Wind,138544602.52699998,98.07692307692308
822,C R Wing Cogen Plant,TX,32.273178,-101.422386,1987,Gas_CC,229,643828000.0,6149831.097,365478.925,Gas,-61.787932909084006,145782.79628771995,0.08640943889918026,0.08626365610289255,Gas_CC→Gas,138910081.452,352.3076923076923
416,Chesterfield,VA,37.3822,-77.3833,1952,Coal,1797,3645796000.0,30464363.285,2020768.003,Gas,-60.942585603536344,776697.7431251332,0.0871861366423054,0.08640943889918026,Coal→Gas,140930849.45499998,2764.6153846153843
733,Bear Mountain Limited,CA,35.419181,-118.926643,1995,Gas_SC,46,43642000.0,397448.05,23620.25,Gas,-60.43384717521894,8728.107301544316,0.08719486474960696,0.0871861366423054,Gas_SC→Gas,140954469.70499998,70.76923076923077
897,Dearborn Industrial Generation,MI,42.3026,-83.154,1999,Gas_SC,747,3573856000.0,43465600.9,2132402.875,Gas,-60.325791244641195,912881.0030479347,0.08810774575265488,0.08719486474960696,Gas_SC→Gas,143086872.57999998,1149.2307692307693
1035,Pleasants Energy LLC,WV,39.3325,-81.3642,2002,Gas_SC,344,1712479000.0,17086432.614,1015467.083,Gas,-59.798892448010015,431110.6915397395,0.08853885644419461,0.08810774575265488,Gas_SC→Gas,144102339.663,529.2307692307692
146,La Cygne,KS,38.3481,-94.6456,1973,Coal,1598,6650553000.0,65925746.963,6912975.648,Gas,-59.27983123314091,4643579.554795231,0.09318243599898986,0.08853885644419461,Coal→Gas,151015315.311,2458.4615384615386
90,Northside Generating Station,FL,30.4172,-81.5525,1966,Coal,1405,5080842000.0,55671482.453,4623721.522,Gas,-58.91826727433723,2889964.4968337156,0.09607240049582357,0.09318243599898986,Coal→Gas,155639036.833,2161.5384615384614
376,Kingston,TN,35.8992,-84.5194,1954,Coal,1700,1746724000.0,18878690.876,1958476.24,Gas,-58.835614574450695,1362434.283563143,0.0974348347793867,0.09607240049582357,Coal→Gas,157597513.073,2615.3846153846157
1081,Lange Gas Turbines,SD,44.1203,-103.26,2002,Gas_SC,40,40236000.0,375206.784,22296.534,Wind,-58.249340986385384,22296.534,0.0974571313133867,0.0974348347793867,Gas_SC→Wind,157619809.60700002,76.92307692307692
624,Brandy Branch,FL,30.320556,-81.947222,2001,Gas_CC,783,3608274000.0,35947312.271,2136338.607,Gas,-58.220843757426444,905072.1365557606,0.09836220344994245,0.0974571313133867,Gas_CC→Gas,159756148.21400002,1204.6153846153848
811,Doswell Energy Center,VA,37.820805,-77.446246,1991,Gas_CC,1313,5804767000.0,52120200.275,3097620.62,Gas,-58.16121826833056,1116835.6308774462,0.09947903908081991,0.09836220344994245,Gas_CC→Gas,162853768.83400002,2020.0
305,Roxboro,NC,36.4833,-79.0731,1966,Coal,2573,2310556000.0,55418825.502,5681613.894,Gas,-57.977041074232616,4893173.17944125,0.10437221226026115,0.09947903908081991,Coal→Gas,168535382.72800002,3958.461538461538
1073,Fountain Valley Power Facility,CO,38.5569,-104.6875,2001,Gas_SC,228,162596000.0,1789184.101,106332.457,Wind,-57.929020011456124,106332.457,0.10447854471726115,0.10437221226026115,Gas_SC→Wind,168641715.185,438.46153846153845
579,Midulla Generating Station,FL,27.641667,-81.9625,2002,Gas_CC,1408,2970151000.0,31501150.87,1872084.595,Gas,-57.61046953847845,858567.5121907601,0.10533711222945191,0.10447854471726115,Gas_CC→Gas,170513799.78,2166.153846153846
694,Cheswick Power Plant,PA,40.5383,-79.7906,1970,Coal,637,645388000.0,6543784.6620000005,665475.228,Wind,-57.41674722732153,665475.228,0.1060025874574519,0.10533711222945191,Coal→Wind,171179275.008,1225.0000000000002
922,Alliant Energy Neenah,WI,44.1936,-88.5064,2000,Gas_SC,370,421449000.0,4657196.2,274772.3,Wind,-56.74905477847519,274772.3,0.10627735975745191,0.1060025874574519,Gas_SC→Wind,171454047.308,711.5384615384615
1142,Hardin Generator Project,MT,45.7578,-107.6,2006,Coal,115,62035000.0,764993.942,79515.822,Wind,-56.61481588929409,79515.822,0.1063568755794519,0.10627735975745191,Coal→Wind,171533563.13,221.15384615384616
651,Evander Andrews Power Complex,ID,43.179176,-115.734315,2001,Gas_SC,269,280995000.0,2986230.084,177466.461,Wind,-56.13721711272755,177466.461,0.1065343420404519,0.1063568755794519,Gas_SC→Wind,171711029.591,517.3076923076923
833,Stony Brook Cogen Plant,NY,40.916833,-73.129056,1995,Gas_SC,47,350411000.0,3334709.923,198180.252,Gas,-56.09041000930947,78608.03681489038,0.10661295007726679,0.1065343420404519,Gas_SC→Gas,171909209.843,72.3076923076923
1167,Hawkeye Energy Greenport LLC,NY,41.10603,-72.376155,2003,Oil,54,56092000.0,553676.246,44926.808,Wind,-56.062989371331234,44926.808,0.10665787688526678,0.10661295007726679,Oil→Wind,171954136.651,103.84615384615385
88,John R Kelly,FL,29.6461,-82.3208,1958,Gas_CC,237,833568000.0,6915963.718,410986.712,Gas,-55.792081976912286,126544.80730117072,0.10678442169256794,0.10665787688526678,Gas_CC→Gas,172365123.363,364.6153846153846
906,Sabine Cogen,TX,30.0444,-93.771389,2000,Gas_CC,105,114266000.0,1585069.487,94199.018,Gas,-55.70667491965523,55207.551578164675,0.10683962924414611,0.10678442169256794,Gas_CC→Gas,172459322.381,161.53846153846155
898,Taft Cogeneration Facility,LA,29.9888,-90.4599,2002,Gas_CC,892,3652995000.0,42945276.377,2552160.82,Gas,-55.57604968746604,1305634.0151618824,0.108145263259308,0.10683962924414611,Gas_CC→Gas,175011483.201,1372.3076923076924
1115,University Park North,IL,41.4425,-87.7514,2002,Gas_SC,720,858680000.0,8143022.589,483947.538,Wind,-55.060619360338634,483947.538,0.108629210797308,0.108145263259308,Gas_SC→Wind,175495430.739,1384.6153846153848
517,Ottumwa,IA,41.0961,-92.555833,1981,Coal,725,2751569000.0,28662182.975,3005151.0130000003,Gas,-54.55453493548828,2066221.58280324,0.11069543238011123,0.108629210797308,Coal→Gas,178500581.752,1115.3846153846155
124,Noblesville,IN,40.0969,-85.9714,1950,Gas_CC,283,1199041000.0,12602113.486,748959.963,Gas,-54.40954672104017,339806.17368468444,0.11103523855379592,0.11069543238011123,Gas_CC→Gas,179249541.715,435.38461538461536
160,Elmer Smith,KY,37.7942,-87.0608,1964,Coal,445,501812000.0,4914382.851,504216.512,Gas,-54.208320110756205,332981.09859554,0.11136821965239146,0.11103523855379592,Coal→Gas,179753758.227,684.6153846153846
12,Holcomb,KS,37.9308,-100.9725,1983,Coal,348,1590954000.0,15249576.28,1599375.823,Gas,-54.166428928043345,1056487.916976471,0.11242470756936793,0.11136821965239146,Coal→Gas,181353134.05,535.3846153846154
618,Remington,VA,38.5442,-77.7714,2000,Gas_SC,704,720233000.0,7055949.974,419713.811,Wind,-52.41375411044378,419713.811,0.11284442138036793,0.11242470756936793,Gas_SC→Wind,181772847.861,1353.8461538461538
382,Newman,TX,31.983587,-106.431777,1960,Gas_CC,879,3118790000.0,29565593.574,1757096.285,Gas,-52.14339128850165,692858.492815485,0.11353727987318342,0.11284442138036793,Gas_CC→Gas,183529944.146,1352.3076923076924
876,Androscoggin Energy Center,ME,44.506315,-70.242312,1999,Gas_SC,162,374378000.0,4668678.569,277735.255,Gas,-52.09785495607236,149984.67988514638,0.11368726455306856,0.11353727987318342,Gas_SC→Gas,183807679.401,249.23076923076923
105,Kincaid Generation LLC,IL,39.590556,-89.496389,1967,Coal,1318,1624422000.0,16187689.842,1697765.107,Gas,-52.055032071014786,1143456.774968682,0.11483072132803725,0.11368726455306856,Coal→Gas,185505444.508,2027.6923076923076
1265,Canyon Power Plant,CA,33.858056,-117.861667,2011,Gas_SC,200,129525000.0,1171072.31,69598.04,Solar,-52.010135381706185,69598.04,0.11490031936803725,0.11483072132803725,Gas_SC→Solar,185575042.54799998,624.9999999999999
483,Sooner,OK,36.45307,-97.05279,1979,Coal,2088,2562602000.0,26416800.709,2765181.454,Wind,-51.45140541838522,2765181.454,0.11766550082203725,0.11490031936803725,Coal→Wind,188340224.00199997,4015.3846153846152
114,Marion,IL,37.619747,-88.953114,1963,Coal,422,1000046000.0,12859348.206,1356548.317,Gas,-51.34518325152221,1015298.4261375323,0.11868079924817479,0.11766550082203725,Coal→Gas,189696772.31899998,649.2307692307692
135,Burlington (IA),IA,40.7412,-91.116667,1968,Coal,288,1224617000.0,12458284.273,1305468.737,Gas,-51.24002844253337,887587.5419366504,0.11956838679011143,0.11868079924817479,Coal→Gas,191002241.05599996,443.0769230769231
736,AES Warrior Run Cogeneration Facility,MD,39.595171,-78.745333,1999,Coal,229,949524000.0,11908738.447,1221680.864,Gas,-51.065418240044366,897670.8070913241,0.12046605759720276,0.11956838679011143,Coal→Gas,192223921.91999996,352.3076923076923
51,Martin Drake,CO,38.824444,-104.833333,1962,Gas_SC,257,449750000.0,5251736.758,504985.454,Gas,-50.86281469052614,351515.37520822964,0.120817572972411,0.12046605759720276,Gas_SC→Gas,192728907.37399995,395.38461538461536
717,Foster Wheeler Mt Carmel Cogen,PA,40.811189,-76.452951,1990,Coal,47,41791000.0,774489.808,91160.458,Gas,-50.75503683217671,76899.93979480406,0.1208944729122058,0.120817572972411,Coal→Gas,192820067.83199996,72.3076923076923
383,Lewis Creek,TX,30.4356,-95.5214,1970,Gas_SC,542,2362997000.0,23027716.052,1368501.96,Gas,-50.651543046367905,562166.5830690004,0.1214566394952748,0.1208944729122058,Gas_SC→Gas,194188569.79199997,833.8461538461539
268,PSEG Linden Generating Station,NJ,40.6217,-74.2072,1957,Gas_CC,2118,3409922000.0,24664883.538,1465896.209,Wind,-50.23302194077703,1465896.209,0.1229225357042748,0.1214566394952748,Gas_CC→Wind,195654466.00099996,4073.0769230769233
534,Louisa,IA,41.3181,-91.0931,1983,Coal,811,2046614000.0,19483009.331,2043380.589,Gas,-50.14873330215822,1345005.9100976312,0.12426754161437244,0.1229225357042748,Coal→Gas,197697846.58999994,1247.6923076923078
991,University Park South,IL,41.440893,-87.753189,2001,Gas_SC,348,433196000.0,4363611.899999999,257489.4,Wind,-50.08331175217355,257489.4,0.12452503101437244,0.12426754161437244,Gas_SC→Wind,197955335.98999995,669.2307692307692
25,Apache Station,AZ,32.0603,-109.8931,1963,Gas_SC,658,2354923000.0,24173837.737,1683841.084,Gas,-49.735681979036684,880260.8319520793,0.1254052918463245,0.12452503101437244,Gas_SC→Gas,199639177.07399994,1012.3076923076924
1075,McClain Energy Facility,OK,35.29774,-97.58985,2001,Gas_CC,550,2027271000.0,20765777.089,1234080.628,Gas,-49.36802024815115,542306.4421139052,0.12594759828843843,0.1254052918463245,Gas_CC→Gas,200873257.70199993,846.1538461538462
113,Dallman,IL,39.754803,-89.602389,1968,Coal,617,916183000.0,9252006.177,946787.427,Gas,-49.187258208897106,634154.4593564635,0.12658175274779487,0.12594759828843843,Coal→Gas,201820045.12899992,949.2307692307692
6,Dolet Hills,LA,32.030556,-93.569167,1986,Coal,720,793116000.0,7632777.63,830981.316,Wind,-48.542260958101174,830981.316,0.12741273406379489,0.12658175274779487,Coal→Wind,202651026.44499993,1384.6153846153848
480,Lewis & Clark,MT,47.6785,-104.15665,1958,Coal,68,256912000.0,3179862.54,345979.82,Gas,-48.34526159543241,258312.66072806824,0.12767104672452295,0.12741273406379489,Coal→Gas,202997006.26499993,104.61538461538461
1111,West Valley Generation Project,UT,40.6667,-112.0317,2001,Gas_SC,215,330479000.0,3349995.483,199087.061,Gas,-48.199733487892246,86316.32577148305,0.12775736305029442,0.12767104672452295,Gas_SC→Gas,203196093.32599992,330.7692307692307
133,Walter Scott Jr Energy Center,IA,41.18,-95.8408,1954,Coal,1777,5450692000.0,52232489.325,5478142.3,Gas,-48.13829728336906,3618179.8081496996,0.13137554285844413,0.12775736305029442,Coal→Gas,208674235.62599993,2733.846153846154
855,Yuma Cogeneration Associates,AZ,32.728822,-114.654053,1994,Gas_CC,62,113945000.0,1041395.097,61884.789,Gas,-47.7612258716958,23002.858754467416,0.13139854571719858,0.13137554285844413,Gas_CC→Gas,208736120.41499993,95.38461538461539
656,Sumpter,MI,42.167,-83.5318,2002,Gas_SC,340,352070000.0,4396849.717,261295.699,Wind,-47.50826513775531,261295.699,0.1316598414161986,0.13139854571719858,Gas_SC→Wind,208997416.11399993,653.8461538461539
373,Gallatin (TN),TN,36.3156,-86.4006,1956,Coal,1914,2765308000.0,27983225.26,2853724.553,Gas,-47.28133401311672,1910106.9062106435,0.13356994832240923,0.1316598414161986,Coal→Gas,211851140.66699994,2944.6153846153848
357,Hunlock Power Station,PA,41.200556,-76.07,1959,Gas_CC,145,269228000.0,2075792.719,123361.755,Gas,-46.6858115408901,31491.955393661454,0.1336014402778029,0.13356994832240923,Gas_CC→Gas,211974502.42199993,223.0769230769231
1216,Hunlock Unit 4,PA,41.2025,-76.068333,2000,Gas_SC,44,43761000.0,348114.654,20688.529,Wind,-46.584642987827905,20688.529,0.1336221288068029,0.1336014402778029,Gas_SC→Wind,211995190.95099995,84.61538461538461
1034,Troy Energy LLC,OH,41.47724,-83.45983,2002,Gas_SC,792,942112000.0,9615268.879,571792.094,Wind,-46.46243556722207,571792.094,0.1341939209008029,0.1336221288068029,Gas_SC→Wind,212566983.04499996,1523.076923076923
570,Almond Power Plant,CA,37.5744,-120.985,1996,Gas_SC,223,266714000.0,2568416.243,152638.392,Gas,-45.391668136100854,61626.455157602555,0.1342555473559605,0.13419392090080287,Gas_SC→Gas,212719621.43699995,343.0769230769231
1257,Dave Gates Generating Station,MT,46.104713,-112.876605,2011,Gas_SC,201,186002000.0,2343425.061,139263.304,Wind,-45.39114744257155,139263.304,0.13439481065996048,0.1342555473559605,Gas_SC→Wind,212858884.74099994,386.53846153846155
364,Wateree,SC,33.8264,-80.6228,1970,Coal,770,914984000.0,8639431.337000001,886406.4909999999,Gas,-44.560163232899725,574182.6631551767,0.13496899332311565,0.13439481065996048,Coal→Gas,213745291.23199993,1184.6153846153848
28,Thomas Fitzhugh,AR,35.462382,-93.804926,1963,Gas_CC,185,434792000.0,3751482.31,223336.403,Gas,-44.519307107443716,74970.50528342093,0.13504396382839906,0.13496899332311565,Gas_CC→Gas,213968627.63499993,284.6153846153846
1335,Salem Harbor Station NGCC,MA,42.525486,-70.878239,2018,Gas_CC,796,865595000.0,6190364.34,367883.891,Wind,-44.40434993072812,367883.891,0.13541184771939907,0.13504396382839906,Gas_CC→Wind,214336511.52599993,1530.7692307692307
4,E C Gaston,AL,33.244211,-86.458056,1960,Gas_SC,2033,4159470000.0,44005747.7,3832358.702,Gas,-44.02480168317747,2413005.3087103833,0.13782485302810946,0.13541184771939907,Gas_SC→Gas,218168870.22799993,3127.692307692308
1299,Charles D. Lamb Energy Center,OK,36.813889,-97.125278,2015,Gas_SC,122,118247000.0,1401776.227,83307.952,Wind,-43.62183992408457,83307.952,0.13790816098010944,0.13782485302810946,Gas_SC→Wind,218252178.17999992,234.61538461538464
1341,Victoria Port Power LLC,TX,28.695805,-96.945409,2019,Gas_SC,100,89423000.0,759650.819,45147.231,Wind,-43.20309106547705,45147.231,0.13795330821110946,0.13790816098010944,Gas_SC→Wind,218297325.41099992,192.30769230769232
788,JM Shafer Generating Station,CO,40.0986,-104.7736,1994,Gas_CC,394,789312000.0,6947369.705,412872.974,Gas,-43.151319101620075,143532.72979479737,0.13809684094090427,0.13795330821110946,Gas_CC→Gas,218710198.38499993,606.1538461538462
423,Mitchell (WV),WV,39.8297,-80.8153,1971,Coal,1632,3956208000.0,39052565.323,4000630.396,Gas,-42.81931623297173,2650636.9474694114,0.14074747788837366,0.13809684094090427,Coal→Gas,222710828.78099993,2510.769230769231
613,Smarr Energy Center,GA,32.9842,-83.8464,1999,Gas_SC,242,277558000.0,3503189.2800000003,208189.588,Gas,-42.69157602175354,113477.30755689558,0.14086095519593056,0.14074747788837366,Gas_SC→Gas,222919018.36899993,372.3076923076923
162,Shawnee,KY,37.1517,-88.775,1953,Coal,1750,4089194000.0,44866116.756,4705547.174,Gas,-42.47080713706187,3310174.3549342193,0.14417112955086478,0.14086095519593056,Coal→Gas,227624565.54299992,2692.3076923076924
529,R D Green,KY,37.6461,-87.5,1979,Coal,586,1302573000.0,13717138.673,1407376.869,Gas,-42.02286016041471,962894.4211022062,0.14513402397196698,0.14417112955086478,Coal→Gas,229031942.4119999,901.5384615384615
479,R M Schahfer,IN,41.2164,-87.0261,1976,Coal,2200,3160356000.0,36912136.116,3810973.865,Gas,-41.31128048360124,2732552.3323039594,0.14786657630427094,0.14513402397196698,Coal→Gas,232842916.27699992,3384.6153846153848
217,Hoot Lake,MN,46.290641,-96.043252,1914,Coal,137,213468000.0,2501980.075,262407.725,Gas,-40.82234994206084,189565.14405609417,0.14805614144832704,0.14786657630427094,Coal→Gas,233105324.0019999,210.76923076923077
1130,Bayswater Peaking Facility LLC,NY,40.610654,-73.762218,2002,Gas_SC,60,121135000.0,1267992.191,80206.897,Gas,-40.01653552741354,38871.492898963625,0.148095012941226,0.14805614144832704,Gas_SC→Gas,233185530.89899993,92.3076923076923
614,John S Rainey,SC,34.347734,-82.774478,2001,Gas_CC,1632,4222107000.0,44888370.774,2667136.603,Gas,-39.4840159966789,1226409.3234951966,0.14932142226472123,0.148095012941226,Gas_CC→Gas,235852667.5019999,2510.769230769231
424,Mt Storm,WV,39.2008,-79.2636,1965,Coal,1680,5067481000.0,50102368.115,5140495.682,Gas,-39.44273287090968,3411297.8869009465,0.15273272015162218,0.14932142226472123,Coal→Gas,240993163.18399993,2584.6153846153848
930,Lake Road Generating Plant,CT,41.872043,-71.895799,2002,Gas_CC,840,3619711000.0,39772251.212,2363498.479,Gas,-38.678422890830966,1128329.3130779585,0.15386104946470014,0.15273272015162218,Gas_CC→Gas,243356661.66299993,1292.3076923076924
362,McMeekin,SC,34.0556,-81.2172,1958,Gas_SC,292,1105026000.0,9416088.506,558190.689,Gas,-38.323409329335334,181118.0324420125,0.15404216749714214,0.15386104946470014,Gas_SC→Gas,243914852.35199994,449.2307692307692
455,East Bend,KY,38.9036,-84.8514,1981,Coal,772,2492997000.0,26608833.796,2730062.755,Gas,-38.01889934853494,1879366.93283736,0.1559215344299795,0.15404216749714214,Coal→Gas,246644915.10699993,1187.6923076923078
454,Newton,IL,38.9361,-88.2781,1977,Coal,1234,2860079000.0,28793934.068,3019906.626,Gas,-37.909152600405996,2043949.873402584,0.1579654843033821,0.1559215344299795,Coal→Gas,249664821.73299992,1898.4615384615383
433,Edgewater,WI,43.715142,-87.705863,1951,Coal,833,1189922000.0,12373316.499,1297712.24,Wind,-37.74552689978127,1297712.24,0.1592631965433821,0.1579654843033821,Coal→Wind,250962533.97299993,1601.9230769230771
895,Gregory Power Plant,TX,27.88929,-97.258417,2000,Gas_CC,432,645490000.0,4464191.792,265300.42000000004,Wind,-36.886537336895785,265300.42000000004,0.1595284969633821,0.1592631965433821,Gas_CC→Wind,251227834.39299992,830.7692307692308
20,Oklaunion,TX,34.0825,-99.1753,1986,Coal,720,1209201000.0,12914358.63,1354458.972,Gas,-35.88375132113418,941838.2432727348,0.16047033520665482,0.1595284969633821,Coal→Gas,252582293.36499992,1107.6923076923078
215,Allen S King,MN,45.03,-92.7786,1958,Coal,598,894925000.0,8883284.94,931679.661,Gas,-35.16286277393377,626300.6498544188,0.16109663585650924,0.16047033520665482,Coal→Gas,253513973.02599993,920.0
1117,Blue Spruce Energy Center,CO,39.747875,-104.681404,2003,Gas_SC,396,521191000.0,6192582.07,368052.31,Gas,-35.14357273810616,190204.1191482788,0.16128683997565751,0.16109663585650924,Gas_SC→Gas,253882025.33599994,609.2307692307692
313,R M Heskett,ND,46.8669,-100.8836,1954,Coal,203,459560000.0,5172104.727,561996.822,Gas,-34.82258150860602,405179.2357642113,0.16169201921142173,0.16128683997565751,Coal→Gas,254444022.15799993,312.3076923076923
13,Cholla,AZ,34.9394,-110.3033,1962,Coal,1127,3529723000.0,40707844.837,4176620.563,Gas,-34.72912330416572,2972158.3797356887,0.1646641775911574,0.16169201921142173,Coal→Gas,258620642.72099993,1733.8461538461538
994,Whiting Clean Energy,IN,41.6739,-87.4775,2002,Gas_CC,575,2259294000.0,26051463.417,1548203.317,Gas,-34.56639800948312,777254.949698668,0.16544143254085605,0.1646641775911574,Gas_CC→Gas,260168846.03799993,884.6153846153846
1238,San Jacinto County Peaking Facility,TX,30.4193,-95.0118,2001,Gas_SC,170,239685000.0,2826051.008,167945.994,Gas,-34.353149113084044,86157.27618964872,0.1655275898170457,0.16544143254085605,Gas_SC→Gas,260336792.03199992,261.53846153846155
507,Tolk,TX,34.186494,-102.56999,1982,Coal,1134,2029709000.0,21336678.285,2222219.412,Gas,-34.29472412492811,1529613.2971487148,0.16705720311419442,0.1655275898170457,Coal→Gas,262559011.44399992,1744.6153846153848
784,Westwood Generation LLC,PA,40.6191,-76.45,1987,Coal,36,214724000.0,3723178.783,440344.765,Gas,-34.23908902426558,367073.59390831774,0.16742427670810273,0.16705720311419442,Coal→Gas,262999356.2089999,55.38461538461539
607,Bonanza,UT,40.0864,-109.2844,1986,Coal,609,3474383000.0,34851215.795,3575733.558,Gas,-34.15515562736881,2390155.2750366037,0.16981443198313934,0.16742427670810273,Coal→Gas,266575089.7669999,936.9230769230769
22,Seminole (FL),FL,29.733056,-81.632778,1984,Coal,2278,7093448000.0,68315035.552,7009117.937,Gas,-34.120004828306044,4588590.925403944,0.1744030229085433,0.16981443198313934,Coal→Gas,273584207.7039999,3504.6153846153848
126,F B Culley,IN,37.9111,-87.3275,1955,Coal,414,1020047000.0,12318607.888,1258642.022,Gas,-33.971587146266785,910567.1060215476,0.17531359001456484,0.1744030229085433,Coal→Gas,274842849.7259999,636.9230769230769
172,Nine Mile Point,LA,29.9472,-90.1458,1951,Gas_SC,2788,9734496000.0,81544367.131,4846137.255,Gas,-33.95626877235017,1524394.3575721537,0.17683798437213702,0.17531359001456484,Gas_SC→Gas,279688986.9809999,4289.2307692307695
933,Lost Pines 1 Power Project,TX,30.1478,-97.2714,2001,Gas_CC,608,1940683000.0,21070905.502,1252212.01,Gas,-33.89373729003435,589984.6105117302,0.17742796898264873,0.17683798437213702,Gas_CC→Gas,280941198.9909999,935.3846153846154
475,Colstrip,MT,45.8831,-106.614,1975,Coal,2362,8885187000.0,86999147.495,9121047.328,Gas,-33.880611760306444,6089117.702720147,0.18351708668536887,0.17742796898264873,Coal→Gas,290062246.3189999,3633.846153846154
514,Winyah,SC,33.33184,-79.357236,1975,Coal,1260,2631016000.0,26210305.23,2689178.031,Gas,-33.36226398073181,1791385.406603316,0.18530847209197218,0.18351708668536887,Coal→Gas,292751424.3499999,1938.4615384615383
111,Baldwin Energy Complex,IL,38.205,-89.8544,1970,Coal,1893,4473276000.0,42583477.514,4466151.61,Gas,-33.3194756527161,2939716.879199921,0.1882481889711721,0.18530847209197218,Coal→Gas,297217575.9599999,2912.3076923076924
15,West Phoenix,AZ,33.4417,-112.1583,1948,Gas_CC,1324,2726067000.0,20384204.648,1211403.972,Gas,-33.14718411293375,281176.69622091134,0.188529365667393,0.1882481889711721,Gas_CC→Gas,298428979.9319999,2036.923076923077
783,Eagle Point Power Generation,NJ,39.8746,-75.1592,1990,Gas_CC,251,551910000.0,4437364.26,263724.553,Gas,-33.13912552302013,75393.98894004227,0.18860475965633303,0.188529365667393,Gas_CC→Gas,298692704.4849999,386.1538461538462
420,John E Amos,WV,38.4731,-81.8233,1971,Coal,2932,11396439000.0,109028027.615,11181736.999,Gas,-33.06913698289055,7292882.321344402,0.19589764197767742,0.18860475965633303,Coal→Gas,309874441.4839999,4510.769230769231
244,Lon Wright,NE,41.4281,-96.4623,1957,Coal,211,327347000.0,3305806.129,340384.907,Wind,-32.85157175663365,340384.907,0.19623802688467745,0.19589764197767742,Coal→Wind,310214826.3909999,405.7692307692308
917,Manchief Electric Generating Station,CO,40.217143,-103.68504,2000,Gas_SC,300,470307000.0,4941013.271,293636.626,Gas,-32.84289357751249,133151.79588033093,0.19637117868055776,0.19623802688467745,Gas_SC→Gas,310508463.0169999,461.53846153846155
530,Independence Steam Electric Station,AR,35.678442,-91.408761,1983,Coal,1800,3136187000.0,35188269.116000004,3688666.339,Gas,-32.67252334181414,2618492.0955409096,0.19898967077609866,0.19637117868055776,Coal→Gas,314197129.3559999,2769.2307692307695
419,Transalta Centralia Generation,WA,46.755938,-122.859764,1972,Coal,1778,5470187000.0,60929479.257,6390281.626,Gas,-32.654129765334595,4523666.773535924,0.2035133375496346,0.19898967077609866,Coal→Gas,320587410.9819999,2735.3846153846157
518,Scherer,GA,33.0606,-83.8075,1982,Coal,3564,6455829000.0,71558364.304,7505037.866,Gas,-32.227496581509676,5302088.260005122,0.20881542580963972,0.2035133375496346,Coal→Gas,328092448.8479999,5483.076923076923
110,Joppa Steam,IL,37.2094,-88.858889,1953,Coal,1098,4492161000.0,44699839.569,4446866.1,Gas,-32.178697848953114,2913987.1614445397,0.21172941297108427,0.20881542580963972,Coal→Gas,332539314.9479999,1689.2307692307693
62,Stanton Energy Center,FL,28.4822,-81.1678,1987,Coal,1260,5925807000.0,54802139.683,4917903.897,Gas,-32.037638004304014,2895815.921024848,0.21462522889210914,0.21172941297108427,Coal→Gas,337457218.8449999,1938.4615384615383
493,Welsh,TX,33.05522,-94.839993,1977,Coal,1674,3587706000.0,38601790.456,4048551.427,Gas,-31.962752173091623,2824303.461459795,0.21744953235356893,0.21462522889210914,Coal→Gas,341505770.2719999,2575.3846153846157
346,Homer City Generating Station,PA,40.512825,-79.196107,1969,Coal,2012,3413527000.0,33998054.615,3488198.994,Gas,-31.93718286354202,2323386.8591521163,0.21977291921272102,0.21744953235356893,Coal→Gas,344993969.2659999,3095.3846153846157
562,Woodland,CA,37.652602,-121.020397,1993,Gas_CC,195,409127000.0,3408812.739,202588.743,Gas,-31.815706933711382,62980.62087472895,0.21983589983359575,0.21977291921272102,Gas_CC→Gas,345196558.0089999,300.0
978,Liberty Electric Power Plant,PA,39.8614,-75.3358,2002,Gas_CC,614,2411821000.0,27416463.35,1629330.79,Gas,-31.722471520927375,806334.9947767728,0.22064223482837253,0.21983589983359575,Gas_CC→Gas,346825888.7989999,944.6153846153846
540,D B Wilson,KY,37.4497,-87.0806,1984,Coal,509,2511569000.0,25905336.594,2657884.525,Gas,-31.662170077840013,1800851.3013847293,0.22244308612975724,0.22064223482837253,Coal→Gas,349483773.3239999,783.0769230769231
688,Huntington,UT,39.3792,-111.0781,1974,Coal,1037,4963083000.0,47834902.969,4907864.5600000005,Gas,-31.608095624721084,3214290.9322955064,0.22565737706205274,0.22244308612975724,Coal→Gas,354391637.8839999,1595.3846153846152
505,Brame Energy Center,LA,31.395,-92.716667,1975,Coal,1706,5368708000.0,56392476.86,5593480.331,Gas,-31.443395075169473,3761493.5833179364,0.2294188706453707,0.22565737706205274,Coal→Gas,359985118.2149999,2624.6153846153848
21,Cross,SC,33.371506,-80.113235,1984,Coal,2389,6832826000.0,71046981.476,7289416.468,Gas,-31.359941459830107,4957822.594535949,0.23437669323990665,0.2294188706453707,Coal→Gas,367274534.6829999,3675.3846153846152
497,Hunter,UT,39.1747,-111.0289,1978,Coal,1577,8738927000.0,84948794.276,8715742.669,Gas,-31.307752184993795,5733721.956947682,0.24011041519685433,0.23437669323990665,Coal→Gas,375990277.3519999,2426.153846153846
693,North Valmy,NV,40.881317,-117.151605,1981,Coal,566,1085346000.0,10399050.569,1090649.724,Gas,-31.219166026803805,720292.5563816945,0.24083070775323603,0.24011041519685433,Coal→Gas,377080927.07599986,870.7692307692307
451,Pleasants Power Station,WV,39.366667,-81.294444,1979,Coal,1368,5439737000.0,51133697.24,5246313.091,Gas,-30.948528326221393,3390088.8197459504,0.24422079657298199,0.24083070775323603,Coal→Gas,382327240.1669999,2104.6153846153848
558,Clover,VA,36.869,-78.704,1995,Coal,848,1360680000.0,13959582.122,1432252.161,Gas,-30.929833651123943,967941.6177862454,0.24518873819076825,0.24422079657298199,Coal→Gas,383759492.3279999,1304.6153846153848
728,Ebensburg Power,PA,40.455,-78.7472,1990,Coal,57,338299000.0,4743554.563,517889.946,Gas,-30.821777174661086,402450.75937370287,0.24559118895014193,0.24518873819076825,Coal→Gas,384277382.27399987,87.69230769230768
49,Comanche (CO),CO,38.2081,-104.5747,1973,Coal,1634,4648786000.0,47269634.09,4883250.386,Gas,-30.662717593960533,3296925.641795266,0.24888811459193722,0.24559118895014193,Coal→Gas,389160632.65999985,2513.846153846154
642,North 1st,NY,40.7171,-73.9664,2001,Gas_SC,47,55257000.0,520139.494,30911.431,Wind,-30.564132380517457,30911.431,0.2489190260229372,0.24888811459193722,Gas_SC→Wind,389191544.09099984,90.38461538461539
1317,Exelon West Medway II LLC,MA,42.137218,-71.4447,2019,Gas_SC,200,208911000.0,1940048.243,115862.331,Wind,-30.38667831269268,115862.331,0.2490348883539372,0.2489190260229372,Gas_SC→Wind,389307406.4219998,384.61538461538464
877,Rio Bravo,NM,35.026,-106.644,2000,Gas_SC,150,131297000.0,1508569.722,89766.982,Solar,-30.075541051134103,89766.982,0.2491246553359372,0.2490348883539372,Gas_SC→Solar,389397173.4039998,468.74999999999994
227,Hawthorn,MO,39.1306,-94.4778,1969,Coal,1045,2381292000.0,22713664.04,2263843.506,Gas,-29.722616433057308,1451265.2494881323,0.2505759205854253,0.2491246553359372,Coal→Gas,391661016.9099998,1607.6923076923078
276,San Juan,NM,36.8006,-108.4386,1973,Coal,1848,5352045000.0,59622703.411,6249613.377,Gas,-29.70518444561702,4423312.6146940505,0.2549992332001194,0.2505759205854253,Coal→Gas,397910630.28699976,2843.076923076923
499,Coronado,AZ,34.5789,-109.2708,1979,Coal,820,3000622000.0,32998176.892,3460853.88,Gas,-29.455805428266316,2436939.050062658,0.25743617225018206,0.2549992332001194,Coal→Gas,401371484.16699976,1261.5384615384614
498,Rockport,IN,37.9256,-87.0372,1984,Coal,2600,4358302000.0,41905763.266,4383521.255,Gas,-29.33078235572715,2896319.5844311714,0.2603324918346132,0.25743617225018206,Coal→Gas,405755005.42199975,4000.0
372,Cumberland (TN),TN,36.3903,-87.6539,1973,Coal,2600,10186573000.0,101328432.745,10382601.489,Gas,-29.114464061721666,6906594.460810738,0.267239086295424,0.2603324918346132,Coal→Gas,416137606.9109998,4000.0
1140,Buchanan Generation LLC,VA,37.175278,-81.961388,2002,Gas_SC,88,461314000.0,4357006.208,258931.451,Gas,-28.802626407145745,101515.33998777816,0.2673406016354118,0.267239086295424,Gas_SC→Gas,416396538.36199975,135.3846153846154
513,Pawnee,CO,40.2217,-103.6803,1981,Coal,552,3337217000.0,36728409.412,3851491.118,Gas,-28.70257345605092,2712718.564503089,0.27005332019991485,0.2673406016354118,Coal→Gas,420248029.4799997,849.2307692307692
520,Mountaineer,WV,38.9794,-81.9344,1980,Coal,1300,5764921000.0,53620440.307,5491899.428,Gas,-28.68190290060068,3524711.2565751383,0.27357803145649007,0.27005332019991485,Coal→Gas,425739928.9079997,2000.0
102,E D Edwards,IL,40.5958,-89.6631,1960,Coal,779,3338667000.0,32727715.523,3432477.373,Gas,-27.991340685887376,2293210.0299216593,0.2758712414864117,0.27357803145649007,Coal→Gas,429172406.2809997,1198.4615384615383
52,Hayden,CO,40.4856,-107.185,1965,Coal,465,2286358000.0,24115724.321,2474266.67,Gas,-27.96856376941208,1694083.1404698286,0.27756532462688155,0.2758712414864117,Coal→Gas,431646672.95099974,715.3846153846154
234,Sioux,MO,38.915479,-90.290247,1967,Coal,1098,3014662000.0,30181257.813,3165411.165,Gas,-27.8839569743895,2136705.4069776405,0.2797020300338592,0.27756532462688155,Coal→Gas,434812084.11599976,1689.2307692307693
1029,Ironwood LLC,PA,40.3509,-76.3658,2001,Gas_CC,777,3300793000.0,35940023.9,2135860.525,Gas,-27.49024765705335,1009517.0857886064,0.2807115471196478,0.2797020300338592,Gas_CC→Gas,436947944.64099973,1195.3846153846155
526,Intermountain Power Project,UT,39.509731,-112.58018,1986,Coal,1640,7314550000.0,67177712.5,6892435.775,Gas,-27.19917533854339,4396461.200622359,0.28510800832027017,0.2807115471196478,Coal→Gas,443840380.4159997,2523.076923076923
452,White Bluff,AR,34.4228,-92.1406,1980,Coal,1800,4195667000.0,46014977.17,4824080.41,Gas,-27.18687138592171,3392375.362586924,0.2885003836828571,0.28510800832027017,Coal→Gas,448664460.82599974,2769.2307692307695
583,Neil Simpson II,WY,44.2856,-105.3833,1995,Coal,130,786000000.0,9468885.876,960076.625,Gas,-26.872983535829462,691866.548445622,0.28919225023130274,0.2885003836828571,Coal→Gas,449624537.45099974,200.0
457,Craig (CO),CO,40.4627,-107.5912,1979,Coal,1426,7639894000.0,80418011.579,8434235.936,Gas,-26.345890155075754,5827242.863980493,0.2950194930952832,0.28919225023130274,Coal→Gas,458058773.3869997,2193.846153846154
585,Carson Ice-Gen Project,CA,38.445681,-121.462387,1995,Gas_CC,125,243467000.0,2155557.809,128351.739,Gas,-26.24879160415219,45272.47346760209,0.2950647655687508,0.2950194930952832,Gas_CC→Gas,458187125.12599975,192.3076923076923
509,Laramie River Station,WY,42.108889,-104.8825,1981,Coal,1710,8652304000.0,97551039.731,10231153.943,Gas,-26.18158486209633,7278691.960542301,0.30234345752929315,0.2950647655687508,Coal→Gas,468418279.06899977,2630.769230769231
442,Naughton,WY,41.7581,-110.5983,1963,Coal,832,2905299000.0,30338463.637,3056807.435,Gas,-26.100138688093395,2065420.072145855,0.304408877601439,0.30234345752929315,Coal→Gas,471475086.50399977,1280.0
510,Merom,IN,39.0694,-87.5108,1982,Coal,1080,2808884000.0,29308006.55,3007001.638,Gas,-26.06220912241383,2048514.3699689978,0.30645739197140803,0.304408877601439,Coal→Gas,474482088.1419998,1661.5384615384614
487,Boardman,OR,45.693182,-119.808819,1980,Coal,642,1747200000.0,17715313.534,1857983.613,Gas,-25.88157097087208,1261779.2290867565,0.30771917120049475,0.30645739197140803,Coal→Gas,476340071.75499976,987.6923076923076
11,Escalante,NM,35.4159,-108.082,1984,Coal,257,637931000.0,6378643.973,668993.557,Gas,-25.7288804899838,451309.686330266,0.308170480886825,0.30771917120049475,Coal→Gas,477009065.31199974,395.38461538461536
325,W H Sammis,OH,40.5317,-80.6319,1959,Coal,2464,5476431000.0,53871683.463,5650061.447,Gas,-25.675838115978127,3781315.9282280286,0.31195179681505303,0.308170480886825,Coal→Gas,482659126.75899976,3790.7692307692305
388,W A Parish,TX,29.4828,-95.6311,1958,Coal,4005,11731786000.0,116339094.918,11373985.015,Gas,-25.66912671160783,7370698.474059058,0.3193224952891121,0.31195179681505303,Coal→Gas,494033111.77399975,6161.538461538461
508,John Twitty Energy Center,MO,37.151706,-93.38804,1976,Coal,603,1828216000.0,17677672.701,1796233.656,Gas,-25.43505649358146,1172383.8426183984,0.32049487913173047,0.3193224952891121,Coal→Gas,495829345.42999977,927.6923076923076
486,Wyodak,WY,44.290128,-105.381482,1978,Coal,402,2010496000.0,22292803.882,2338068.07,Gas,-25.300766330174824,1652018.087719757,0.3221468972194502,0.32049487913173047,Coal→Gas,498167413.49999976,618.4615384615385
485,Big Stone,SD,45.303652,-96.510067,1975,Coal,451,1744633000.0,19793030.226,2075891.345,Gas,-25.278468872821325,1480562.9092629845,0.3236274601287132,0.3221468972194502,Coal→Gas,500243304.8449998,693.8461538461539
536,Rawhide,CO,40.860905,-105.021207,1984,Gas_SC,798,2221328000.0,20670571.479,2088151.445,Gas,-25.20653995337385,1330158.3751114714,0.32495761850382465,0.3236274601287132,Gas_SC→Gas,502331456.2899998,1227.6923076923078
543,Major Oak Power,TX,31.091925,-96.69503,1990,Coal,948,2702959000.0,28259329.438,3076585.624,Gas,-25.18236468368499,2154243.5879779323,0.3271118620918026,0.32495761850382465,Coal→Gas,505408041.9139998,1458.4615384615383
417,Possum Point,VA,38.5367,-77.2806,1948,Oil,2081,3862181000.0,26901544.118,1604137.311,Gas,-25.089675137223928,286229.0900370681,0.32739809118183966,0.3271118620918026,Oil→Gas,507012179.2249998,3201.5384615384614
547,J K Spruce,TX,29.309722,-98.3203,1992,Coal,1444,5671932000.0,61814937.049,6342205.970000001,Gas,-25.00388560912986,4406748.8250493305,0.331804840006889,0.32739809118183966,Coal→Gas,513354385.1949998,2221.5384615384614
491,A B Brown,IN,37.9053,-87.715,1979,Coal,706,2369786000.0,25549087.069,2609644.344,Gas,-24.85991266495607,1800992.3281253264,0.3336058323350143,0.331804840006889,Coal→Gas,515964029.5389998,1086.1538461538462
1013,Blythe Energy Inc,CA,33.6157,-114.6865,2003,Gas_CC,591,1299373000.0,14184216.271,842948.417,Gas,-24.794945684356158,399557.91852329276,0.3340053902535376,0.3336058323350143,Gas_CC→Gas,516806977.9559998,909.2307692307692
207,Erickson Station,MI,42.692222,-84.657222,1973,Coal,154,616427000.0,7461886.34,782601.455,Gas,-24.70464148562353,572255.4844399674,0.33457764573797755,0.3340053902535376,Coal→Gas,517589579.4109998,236.9230769230769
421,FirstEnergy Fort Martin Power Station,WV,39.710833,-79.9275,1967,Coal,1152,5568901000.0,50443729.948,5175523.081,Gas,-24.681309522175116,3275223.6363005694,0.3378528693742781,0.33457764573797755,Coal→Gas,522765102.49199975,1772.3076923076924
1170,Hunterstown Power Plant,PA,39.8725,-77.1672,2003,Gas_CC,898,4282993000.0,46596373.326,2769155.771,Gas,-24.516050054342987,1307652.106353861,0.339160521480632,0.3378528693742781,Gas_CC→Gas,525534258.2629998,1381.5384615384614
556,Cope,SC,33.3644,-81.03,1996,Gas_SC,417,1028009000.0,9646353.337,693924.287,Gas,-24.06893080957226,343132.46436820657,0.3395036539450002,0.339160521480632,Gas_SC→Gas,526228182.5499998,641.5384615384614
48,Cherokee,CO,39.807275,-104.964548,1957,Gas_CC,1425,4021840000.0,31338454.353,1862330.822,Gas,-23.95344181480255,489941.4908429263,0.3399935954358432,0.3395036539450002,Gas_CC→Gas,528090513.3719998,2192.3076923076924
158,Mill Creek (KY),KY,38.0525,-85.9103,1972,Coal,1715,7340568000.0,68286753.78299999,6995650.739,Gas,-23.85343494661914,4490797.9333605375,0.34448439336920367,0.3399935954358432,Coal→Gas,535086164.1109998,2638.461538461538
156,Ghent,KY,38.7497,-85.035,1974,Coal,2224,10911256000.0,102797458.607,10547018.842,Gas,-23.761404812931477,6823725.194335347,0.35130811856353905,0.34448439336920367,Coal→Gas,545633182.9529998,3421.5384615384614
504,San Miguel,TX,28.7044,-98.4775,1982,Coal,410,2610918000.0,29608943.004,3223528.661,Gas,-23.668926143213454,2332594.1614361275,0.35364071272497516,0.35130811856353905,Coal→Gas,548856711.6139998,630.7692307692307
441,Dave Johnston,WY,42.8378,-105.7769,1959,Coal,921,4779630000.0,51464143.522,5397569.887,Gas,-23.309525861611156,3766596.6959038144,0.357407309420879,0.35364071272497516,Coal→Gas,554254281.5009998,1416.923076923077
500,Coleto Creek,TX,28.7128,-97.214167,1980,Coal,622,2705523000.0,28661161.895,3005980.887,Gas,-23.24802298669939,2082763.926504287,0.3594900733473833,0.357407309420879,Coal→Gas,557260262.3879998,956.9230769230769
691,Coyote,ND,47.221447,-101.815722,1981,Coal,450,2540150000.0,26724753.022,2909520.876,Gas,-22.917458151867898,2042734.8378834564,0.3615328081852668,0.3594900733473833,Coal→Gas,560169783.2639998,692.3076923076924
121,Michigan City,IN,41.7208,-86.9086,1950,Coal,680,1658109000.0,16260738.308,1705426.85,Gas,-22.717668511139752,1139623.361672388,0.3626724315469392,0.3615328081852668,Coal→Gas,561875210.1139998,1046.1538461538462
445,John P Madgett,WI,44.303583,-91.912647,1979,Coal,387,1566399000.0,17609570.054,1846887.813,Gas,-22.6952363726336,1312378.9126123395,0.3639848104595515,0.3626724315469392,Coal→Gas,563722097.9269998,595.3846153846154
32,Limestone,TX,31.4219,-96.2525,1985,Coal,1849,6332172000.0,63944990.991,6702640.393999999,Gas,-22.445640041952984,4541886.784743652,0.36852669724429515,0.3639848104595515,Coal→Gas,570424738.3209999,2844.6153846153843
440,Genoa,WI,43.5589,-91.2325,1969,Coal,345,1006246000.0,10542454.298,1105690.912,Gas,-22.21665686711484,762325.3691341772,0.3692890226134294,0.36852669724429515,Coal→Gas,571530429.2329998,530.7692307692308
1133,Choctaw County,MS,33.2881,-89.4201,2003,Gas_CC,899,3511191000.0,37344958.965,2219356.867,Gas,-22.17482278457532,1021218.4358205558,0.3703102410492499,0.3692890226134294,Gas_CC→Gas,573749786.0999998,1383.0769230769229
210,Clay Boswell,MN,47.2611,-93.6528,1958,Coal,1072,4629537000.0,47968429.253,5023355.5940000005,Gas,-22.10666990556413,3443599.266797296,0.37375384031604725,0.3703102410492499,Coal→Gas,578773141.6939998,1649.2307692307693
314,Leland Olds,ND,47.280769,-101.321213,1966,Coal,656,3386956000.0,34761578.759,3784483.071,Gas,-21.822829294683544,2628737.8699232694,0.37638257818597054,0.37375384031604725,Coal→Gas,582557624.7649997,1009.2307692307692
525,Antelope Valley,ND,47.370542,-101.83566,1984,Coal,954,6074541000.0,63158217.582,6876033.321,Gas,-21.48816945493775,4803192.218401135,0.3811857704043717,0.37638257818597054,Coal→Gas,589433658.0859997,1467.6923076923078
119,AES Petersburg,IN,38.5281,-87.2525,1967,Coal,2150,6925548000.0,70137795.295,7196134.229,Gas,-21.447033230240994,4832900.438591578,0.38601867084296326,0.3811857704043717,Coal→Gas,596629792.3149997,3307.6923076923076
686,Jim Bridger,WY,41.7378,-108.7875,1974,Coal,2441,11336603000.0,117039764.935,12275116.354,Gas,-21.410322001671528,8406679.765581945,0.3944253506085452,0.38601867084296326,Coal→Gas,608904908.6689997,3755.3846153846152
97,Bowen,GA,34.1256,-84.9222,1971,Coal,3538,8768072000.0,84573288.441,8677220.883,Gas,-21.26517325487496,5685254.900360942,0.4001106055089062,0.3944253506085452,Coal→Gas,617582129.5519997,5443.076923076923
692,Springerville,AZ,34.3186,-109.1639,1985,Coal,2176,8527353000.0,83732537.387,8777652.853,Gas,-21.154767682013283,5867828.424327983,0.40597843393323413,0.4001106055089062,Coal→Gas,626359782.4049997,3347.6923076923076
481,Sherburne County,MN,45.3808,-93.8931,1976,Coal,2468,9614564000.0,96765805.27,10148791.521,Gas,-21.065218616245602,6867973.5229377,0.41284640745617185,0.40597843393323413,Coal→Gas,636508573.9259998,3796.9230769230767
602,Henry County,IN,39.9528,-85.5039,2001,Gas_SC,180,291662000.0,2922303.334,173667.662,Wind,-21.05441136706671,173667.662,0.41302007511817185,0.41284640745617185,Gas_SC→Wind,636682241.5879997,346.1538461538462
678,Belews Creek,NC,36.2811,-80.0603,1974,Coal,2490,5751348000.0,51475866.161,4846203.945,Gas,-21.030601618738313,2883647.3452915153,0.41590372246346335,0.41302007511817185,Coal→Gas,641528445.5329998,3830.7692307692305
431,South Oak Creek,WI,42.8457,-87.8294,1959,Coal,1258,3381674000.0,33900439.978,3553613.478,Gas,-20.903059034965548,2399670.6759364507,0.41830339313939985,0.41590372246346335,Coal→Gas,645082059.0109998,1935.3846153846152
1340,Victoria City Power LLC,TX,28.7853,-97.0093,2020,Gas_SC,100,100374000.0,841447.719,50007.763,Wind,-20.899216050399296,50007.763,0.41835340090239986,0.41830339313939985,Gas_SC→Wind,645132066.7739998,192.30769230769232
535,Warrick,IN,37.915,-87.3328,1960,Coal,821,5239879000.0,57585408.857,5908255.332,Gas,-20.819115462141955,4120229.444308298,0.4224736303467081,0.41835340090239986,Coal→Gas,651040322.1059998,1263.0769230769229
422,FirstEnergy Harrison Power Station,WV,39.384167,-80.3325,1972,Coal,2052,11779753000.0,104654602.334,10737557.678,Gas,-20.702540866350347,6717903.156471164,0.4291915335031793,0.4224736303467081,Coal→Gas,661777879.7839998,3156.9230769230767
1058,Effingham County Power Project,GA,32.277252,-81.284411,2003,Gas_CC,595,1905950000.0,20766046.055,1234096.351,Gas,-20.64240994467571,583721.0387750422,0.42977525454195437,0.4291915335031793,Gas_CC→Gas,663011976.1349998,915.3846153846154
225,Moselle,MS,31.528,-89.3004,1970,Gas_CC,509,1882630000.0,15859938.67,942495.124,Gas,-20.370441531211096,300077.39318121015,0.43007533193513553,0.42977525454195437,Gas_CC→Gas,663954471.2589997,783.0769230769231
501,Fayette Power Project,TX,29.9172,-96.7506,1979,Coal,1690,9411477000.0,97702623.278,10247053.41,Gas,-20.245584315145244,7035535.640712763,0.43711086757584827,0.43007533193513553,Coal→Gas,674201524.6689997,2600.0
461,H L Spurlock,KY,38.7,-83.8181,1977,Coal,1607,8104889000.0,73851755.807,7577184.401000001,Gas,-20.195815899814562,4811519.134899827,0.4419223867107481,0.43711086757584827,Coal→Gas,681778709.0699997,2472.3076923076924
450,James H Miller Jr,AL,33.6319,-87.0597,1978,Coal,2820,17594945000.0,179699736.425,18846905.225,Gas,-20.04454526740616,12842908.347875228,0.4547652950586234,0.4419223867107481,Coal→Gas,700625614.2949997,4338.461538461538
310,James E. Rogers Energy Complex,NC,35.22,-81.7594,1940,Coal,2540,5789040000.0,50317830.194,4597599.933,Gas,-20.003887275269836,2622181.5340478923,0.45738747659267126,0.4547652950586234,Coal→Gas,705223214.2279997,3907.6923076923076
866,Gordonsville Energy LP,VA,38.124688,-78.203543,1994,Gas_CC,300,1189547000.0,9992829.717,594369.426,Gas,-19.93141531840628,188455.3141233705,0.4575759319067947,0.45738747659267126,Gas_CC→Gas,705817583.6539997,461.53846153846155
272,Four Corners,NM,36.69,-108.4814,1963,Coal,2269,8243761000.0,80177568.04,8226212.118,Gas,-19.627226993248502,5413158.976898223,0.46298909088369283,0.4575759319067947,Coal→Gas,714043795.7719997,3490.769230769231
459,Belle River,MI,42.7756,-82.495,1981,Coal,1659,4950838000.0,49747806.267,5018291.802,Gas,-19.438453716578337,3328896.5870021326,0.46631798747069503,0.46298909088369283,Coal→Gas,719062087.5739998,2552.3076923076924
1260,Coolidge Generation Station,AZ,32.917399,-111.503327,2011,Gas_SC,720,586213000.0,5214119.697,309870.42,Solar,-19.29721085027911,309870.42,0.46662785789069505,0.46631798747069503,Gas_SC→Solar,719371957.9939997,2249.9999999999995
506,Harrington,TX,35.29816,-101.747187,1976,Coal,1080,3689626000.0,35342404.537,3685235.861,Gas,-19.079331336529584,2426209.3063981887,0.46905406719709325,0.46662785789069505,Coal→Gas,723057193.8549997,1661.5384615384614
115,Clifty Creek,IN,38.7378,-85.4206,1955,Coal,1302,4881738000.0,48939578.429,5021194.772,Gas,-19.051087212481697,3355378.8398137195,0.47240944603690693,0.46905406719709325,Coal→Gas,728078388.6269996,2003.076923076923
462,Manatee,FL,27.6058,-82.3456,1976,Gas_SC,2949,9844684000.0,74676196.824,4450233.3780000005,Gas,-19.047699405452533,1090890.5671938164,0.4735003366041008,0.47240944603690693,Gas_SC→Gas,732528622.0049996,4536.923076923077
1137,Dean,MI,42.7725,-82.4953,2002,Gas_SC,356,738897000.0,8601439.405,511160.287,Gas,-18.893838047360305,259023.36468982152,0.4737593599687906,0.4735003366041008,Gas_SC→Gas,733039782.2919996,547.6923076923077
472,Trimble County,KY,38.5847,-85.4117,1990,Coal,2594,9717610000.0,84222695.172,8478734.484,Gas,-18.55852089619429,5162753.6671735495,0.47892211363596415,0.4737593599687906,Coal→Gas,741518516.7759995,3990.7692307692305
1199,Miramar Energy Facility,CA,32.8769,-117.166389,2005,Gas_SC,106,91829000.0,815270.616,48449.834,Solar,-18.46571373049215,48449.834,0.47897056346996414,0.47892211363596415,Gas_SC→Solar,741566966.6099995,331.24999999999994
689,"Gavin Power, LLC",OH,38.9347,-82.1158,1974,Coal,2600,14344976000.0,146937430.286,15074332.081,Gas,-18.459585983598025,10179335.756406214,0.4891498992263703,0.47897056346996414,Coal→Gas,756641298.6909995,4000.0
1281,Cheyenne Prairie Generating Station,WY,41.123611,-104.72,2014,Gas_SC,220,284687000.0,2791108.734,165867.066,Wind,-18.40533751357871,165867.066,0.48931576629237034,0.4891498992263703,Gas_SC→Wind,756807165.7569995,423.0769230769231
1055,Renaissance Power Plant,MI,43.1864,-84.8429,2002,Gas_SC,780,1183096000.0,12729140.542,756474.183,Wind,-18.37694173473291,756474.183,0.49007224047537035,0.48931576629237034,Gas_SC→Wind,757563639.9399995,1500.0000000000002
1082,Wygen 1,WY,44.2858,-105.3833,2003,Coal,90,770923000.0,8761068.827,918861.708,Gas,-18.321866158894327,655796.4193899098,0.49072803689476024,0.49007224047537035,Coal→Gas,758482501.6479994,138.46153846153848
619,Ladysmith,VA,38.0722,-77.5133,2001,Gas_SC,890,1184227000.0,11435831.524,682849.364,Wind,-18.314113495419996,682849.364,0.4914108862587603,0.49072803689476024,Gas_SC→Wind,759165351.0119994,1711.5384615384614
1158,Prairie State Generating Station,IL,38.279167,-89.666944,2012,Coal,1766,12152389000.0,126592426.127,12988380.74,Gas,-18.182210723359788,8841570.073322415,0.5002524563320827,0.4914108862587603,Coal→Gas,772153731.7519994,2716.9230769230767
635,Pirkey,TX,32.4607,-94.4852,1985,Coal,721,2379413000.0,22761955.815,2478093.857,Gas,-18.173416898397114,1666156.7795388263,0.5019186131116214,0.5002524563320827,Coal→Gas,774631825.6089994,1109.2307692307693
638,Joseph J Seymour Power Project,NY,40.6631,-74.0,2001,Gas_SC,94,120366000.0,1123142.414,66746.553,Wind,-18.148234157876328,66746.553,0.5019853596646214,0.5019186131116214,Gas_SC→Wind,774698572.1619993,180.76923076923077
241,Thomas Hill,MO,39.5522,-92.6381,1966,Coal,1181,7266410000.0,70350121.873,7377929.471,Gas,-17.983453149428914,4898381.910725829,0.5068837415753473,0.5019853596646214,Coal→Gas,782076501.6329993,1816.923076923077
463,Martin,FL,27.0536,-80.5628,1980,Gas_CC,6069,11444544000.0,78574021.87,4670052.302,Gas,-17.978644220960838,764782.5534377252,0.507648524128785,0.5068837415753473,Gas_CC→Gas,786746553.9349993,9336.923076923076
887,Black Hawk Station,TX,35.6957,-101.36,1999,Gas_SC,369,1874490000.0,17991850.827,1064517.741,Gas,-17.9485840720376,424877.65652109904,0.5080734017853061,0.507648524128785,Gas_SC→Gas,787811071.6759994,567.6923076923077
612,Rowan,NC,35.7314,-80.6019,2001,Gas_SC,1190,3016686000.0,31680685.36,1882801.645,Gas,-17.93508572672776,853405.2289688034,0.5089268070142748,0.5080734017853061,Gas_SC→Gas,789693873.3209994,1830.7692307692307
1077,Deer Park Energy Center,TX,29.713414,-95.134508,2003,Gas_CC,1176,7606662000.0,74957014.012,4454592.061,Gas,-17.858043208302956,1858938.8837184748,0.5107857458979934,0.5089268070142748,Gas_CC→Gas,794148465.3819994,1809.2307692307693
316,Cardinal,OH,40.2522,-80.6486,1967,Coal,1880,9760784000.0,98432593.129,10088892.151,Gas,-17.818087942336707,6758178.889077929,0.5175439247870713,0.5107857458979934,Coal→Gas,804237357.5329994,2892.3076923076924
492,Flint Creek,AR,36.2561,-94.5241,1978,Coal,558,1992327000.0,20074444.36,2105410.454,Gas,-17.74892209663403,1425560.35579217,0.5189694851428635,0.5175439247870713,Coal→Gas,806342767.9869994,858.4615384615385
315,Milton R Young,ND,47.065854,-101.213093,1970,Coal,734,5172462000.0,51248532.513,5579430.04,Gas,-17.571907104633702,3814409.137971232,0.5227838942808347,0.5189694851428635,Coal→Gas,811922198.0269994,1129.2307692307693
458,Coal Creek,ND,47.377743,-101.157058,1979,Coal,1216,8841523000.0,87657916.149,9543316.525,Gas,-17.467318755728336,6526286.549570872,0.5293101808304055,0.5227838942808347,Coal→Gas,821465514.5519993,1870.7692307692307
673,Columbia (WI),WI,43.4864,-89.4203,1975,Coal,1112,5644215000.0,59242619.219,6212741.745,Gas,-17.37206142775218,4286742.58820691,0.5335969234186124,0.5293101808304055,Coal→Gas,827678256.2969993,1710.7692307692307
639,Brentwood,NY,40.787062,-73.293412,2001,Gas_SC,47,92521000.0,870958.567,51758.055,Gas,-17.229554596523553,20186.726128641716,0.5336171101447411,0.5335969234186124,Gas_SC→Gas,827730014.3519993,72.3076923076923
1211,Wygen 2,WY,44.2919,-105.3811,2008,Coal,95,783825000.0,8916959.037,935205.921,Gas,-16.799514199424394,667738.0288177666,0.5342848481735588,0.5336171101447411,Coal→Gas,828665220.2729993,146.15384615384616
941,Eastman Cogeneration Facility,TX,32.4481,-94.6903,2001,Gas_CC,467,2560304000.0,24894178.654,1479433.551,Gas,-16.69729654594212,605770.2789357756,0.5348906184524946,0.5342848481735588,Gas_CC→Gas,830144653.8239993,718.4615384615385
365,Williams,SC,33.0158,-79.9297,1972,Coal,711,2923951000.0,26361645.203,2704237.285,Gas,-16.304769019618355,1706485.221957697,0.5365971036744523,0.5348906184524946,Coal→Gas,832848891.1089993,1093.8461538461538
494,Martin Lake,TX,32.2606,-94.5706,1977,Coal,3179,14044368000.0,135840242.896,14788925.215,Gas,-16.115844615036195,9996506.61902308,0.5465936102934754,0.5365971036744523,Coal→Gas,847637816.3239993,4890.7692307692305
327,Kyger Creek,OH,38.9144,-82.1289,1955,Coal,1085,5271043000.0,51540009.535,5287990.864,Gas,-16.04968417136597,3489330.7538836915,0.5500829410473591,0.5465936102934754,Coal→Gas,852925807.1879992,1669.2307692307693
350,Keystone,PA,40.6604,-79.3411,1967,Coal,1880,7931612000.0,77364299.749,7937574.553,Gas,-15.830543503450532,5231037.324349079,0.5553139783717082,0.5500829410473591,Coal→Gas,860863381.7409992,2892.3076923076924
9,Platte,NE,40.854765,-98.348222,1982,Coal,109,409993000.0,4842587.007,507889.874,Gas,-15.650000901350356,367986.2430626474,0.5556819646147708,0.5553139783717082,Coal→Gas,861371271.6149992,167.69230769230768
537,Sikeston Power Station,MO,36.8791,-89.6209,1981,Coal,261,1783184000.0,16880136.51,1770392.745,Gas,-15.486216064073101,1161909.3898466388,0.5568438740046174,0.5556819646147708,Coal→Gas,863141664.3599992,401.53846153846155
1251,Greenland Energy Center,FL,30.159131,-81.518415,2011,Gas_SC,610,599962000.0,6191672.347,368157.123,Wind,-15.43390093007586,368157.123,0.5572120311276175,0.5568438740046174,Gas_SC→Wind,863509821.4829992,1173.076923076923
312,Marshall (NC),NC,35.5975,-80.9658,1965,Coal,2118,6545010000.0,59710933.33499999,6104876.479,Gas,-14.977601890361557,3871495.2663420234,0.5610835263939595,0.5572120311276175,Coal→Gas,869614697.9619992,3258.4615384615386
232,Labadie,MO,38.562244,-90.837686,1970,Coal,2388,17359426000.0,163826168.915,17182089.668,Gas,-14.875460789580684,11258459.927033003,0.5723419863209924,0.5610835263939595,Coal→Gas,886796787.6299992,3673.846153846154
250,Sheldon,NE,40.5589,-96.7847,1961,Coal,227,563013000.0,5786358.566,606873.678,Gas,-14.653620950481294,414754.39068306604,0.5727567407116755,0.5723419863209924,Coal→Gas,887403661.3079991,349.2307692307692
489,Gibson,IN,38.372222,-87.765833,1975,Coal,3335,12883913000.0,121401225.622,12455766.038,Gas,-14.296776809204147,8059334.368725259,0.5808160750804008,0.5727567407116755,Coal→Gas,899859427.3459991,5130.7692307692305
240,New Madrid,MO,36.5147,-89.5617,1972,Coal,1300,6524903000.0,59087591.284,6197073.609999999,Gas,-13.73080687970205,3970553.593282581,0.5847866286736834,0.5808160750804008,Coal→Gas,906056500.9559991,2000.0
648,Wansley Unit 9,GA,33.4083,-85.0403,2004,Gas_CC,592,2138515000.0,22487977.908,1336428.957,Gas,-13.724882195530961,606694.5144266083,0.58539332318811,0.5847866286736834,Gas_CC→Gas,907392929.9129992,910.7692307692307
345,Conemaugh,PA,40.3842,-79.0611,1970,Coal,1962,8186225000.0,76568322.164,7850456.132999999,Gas,-12.742944432574154,5057036.242489358,0.5904503594305993,0.58539332318811,Coal→Gas,915243386.0459992,3018.4615384615386
252,North Omaha,NE,41.32909,-95.94466,1954,Coal,642,1947607000.0,20227757.291,2105599.714,Gas,-12.696164064322478,1441009.6089518545,0.5918913690395511,0.5904503594305993,Coal→Gas,917348985.7599992,987.6923076923076
31,Dynegy Moss Landing Power Plant Hybrid,CA,36.804837,-121.782241,1967,Gas_SC,2802,5487443000.0,38567163.41,2185318.142,Gas,-12.674793682151547,312814.9522827149,0.5922041839918338,0.5918913690395511,Gas_SC→Gas,919534303.9019991,4310.7692307692305
122,Cayuga,IN,39.9242,-87.4244,1970,Coal,1182,4762761000.0,44187386.433,4526193.386,Gas,-12.645052174919607,2900976.4745239103,0.5951051604663578,0.5922041839918338,Coal→Gas,924060497.2879992,1818.4615384615383
495,Rush Island,MO,38.131248,-90.263157,1976,Coal,1242,7865413000.0,71684445.991,7518268.246,Gas,-12.586056859779656,4834320.3797636125,0.5999394808461214,0.5951051604663578,Coal→Gas,931578765.5339992,1910.7692307692307
318,Miami Fort,OH,39.1128,-84.8036,1949,Coal,1441,7310885000.0,68113794.29,6988482.331,Gas,-11.813880773225447,4493758.379943697,0.6044332392260651,0.5999394808461214,Coal→Gas,938567247.8649992,2216.923076923077
198,J H Campbell,MI,42.910296,-86.20074,1962,Coal,1577,7290821000.0,70803324.577,7425853.869,Gas,-11.639880243742017,4937976.440813909,0.6093712156668789,0.6044332392260651,Coal→Gas,945993101.7339991,2426.153846153846
470,Iatan,MO,39.4472,-94.98,1980,Coal,1725,7571663000.0,65703095.582,6890941.699,Gas,-10.973939422109249,4307231.377277415,0.6136784470441563,0.6093712156668789,Coal→Gas,952884043.4329991,2653.846153846154
201,Monroe (MI),MI,41.8906,-83.3464,1969,Coal,3288,14295504000.0,136084002.376,14276708.615,Gas,-10.825849938925542,9398593.828456212,0.6230770408726125,0.6136784470441563,Coal→Gas,967160752.0479991,5058.461538461539
82,Crystal River,FL,28.9656,-82.6977,1966,Coal,5299,15609828000.0,116870276.679,8557198.43,Gas,-10.632565144977493,3230591.3525436716,0.6263076322251562,0.6230770408726125,Coal→Gas,975717950.4779991,8152.307692307692
456,W H Zimmer,OH,38.8675,-84.2289,1991,Coal,1425,6078823000.0,54657422.842,5591345.667,Gas,-10.514859564678831,3517043.3995820433,0.6298246756247382,0.6263076322251562,Coal→Gas,981309296.1449991,2192.3076923076924
