,name,state,lat,lon,commissioning_year,primary_fuel,capacity,generation,fuel_consumption,emissions,rep_fuel,metric,em_red,cum_red,cum_red_prev,ori_rep,cum_emission,new_capacity
1092,Limon Generating Station,CO,39.2038,-103.7005,2002,Gas_SC,154,71243000.0,874973.2860000001,52077.904,Wind,-199.90924349904859,52077.904,5.2077904e-05,0.0,Gas_SC→Wind,52077.904,296.1538461538462
1322,Bacliff,TX,29.49233,-94.98483,2018,Gas_SC,426,129998000.0,1566138.4,92408.2,Wind,-198.3932634973979,92408.2,0.000144486104,5.2077903999999996e-05,Gas_SC→Wind,144486.104,819.2307692307693
601,Tilton,IL,40.106125,-87.653818,1999,Gas_SC,188,123190000.0,1187466.184,70570.855,Wind,-193.2074297700994,70570.855,0.00021505695899999997,0.000144486104,Gas_SC→Wind,215056.95899999997,361.53846153846155
695,Astoria Generating Station,NY,40.787674,-73.912561,1954,Gas_SC,1345,1522144000.0,8977037.817,533408.173,Wind,-192.07554404444505,533408.173,0.0007484651319999999,0.00021505695900000003,Gas_SC→Wind,748465.132,2586.538461538462
14,Ocotillo,AZ,33.4225,-111.9122,1960,Gas_SC,1137,778366000.0,6998883.022,415931.12,Solar,-189.15452639858785,415931.12,0.001164396252,0.0007484651319999998,Gas_SC→Solar,1164396.2519999999,3553.1249999999995
1049,Zion Energy Center,IL,42.4776,-87.895,2002,Gas_SC,990,582706000.0,6015143.555,358080.61600000004,Wind,-189.04370521052445,358080.61600000004,0.0015224768679999998,0.001164396252,Gas_SC→Wind,1522476.8679999998,1903.846153846154
581,Combustion Turbine Project No 2,CA,38.088138,-121.386944,1996,Gas_SC,50,36125000.0,277134.767,16469.095,Wind,-189.02214789328255,16469.095,0.0015389459629999997,0.0015224768679999998,Gas_SC→Wind,1538945.9629999998,96.15384615384616
308,G G Allen,NC,35.1897,-81.0122,1957,Coal,1148,638355000.0,5705477.373,585379.488,Wind,-188.75086445668845,585379.488,0.0021243254509999998,0.001538945963,Coal→Wind,2124325.451,2207.692307692308
1330,Chamon Power LLC,TX,29.883214,-95.111345,2017,Gas_SC,120,44814000.0,403419.687,23972.504,Wind,-186.17608831111284,23972.504,0.002148297955,0.0021243254509999998,Gas_SC→Wind,2148297.955,230.76923076923077
401,Decker Creek,TX,30.3033,-97.6128,1971,Gas_SC,930,718600000.0,8587296.678,486626.463,Wind,-185.99973981310802,486626.463,0.002634924418,0.002148297955,Gas_SC→Wind,2634924.418,1788.4615384615386
998,Edward L. Addison Generating Plant,GA,32.9111,-84.3064,2000,Gas_SC,700,369666000.0,3899301.86,231913.1,Wind,-185.03415389975794,231913.1,0.002866837518,0.002634924418,Gas_SC→Wind,2866837.518,1346.1538461538462
1178,Equus Freeport Power,NY,40.6439,-73.5683,2004,Gas_SC,120,72764000.0,614735.0869999999,36532.631,Wind,-183.68577292860056,36532.631,0.002903370149,0.002866837518,Gas_SC→Wind,2903370.149,230.76923076923077
1165,Riverview Energy Center,CA,38.014423,-121.790679,2003,Gas_SC,47,25786000.0,253745.559,15079.223,Wind,-182.57581331170493,15079.223,0.0029184493720000003,0.002903370149,Gas_SC→Wind,2918449.3720000004,90.38461538461539
854,NAEA Lakewood LLC,NJ,40.0613,-74.1686,1994,Gas_CC,235,165175000.0,1943860.847,115518.244,Wind,-180.92719640439293,115518.244,0.0030339676160000004,0.0029184493720000003,Gas_CC→Wind,3033967.6160000004,451.92307692307696
983,Energy Shelby County,IL,39.2794,-88.4772,2000,Gas_SC,480,331805000.0,3069795.5,181122.5,Wind,-177.61716142251518,181122.5,0.0032150901160000003,0.0030339676160000004,Gas_SC→Wind,3215090.1160000004,923.0769230769231
628,Glenwood Landing,NY,40.8275,-73.6478,1967,Gas_SC,122,116181000.0,1116843.675,66625.55,Wind,-173.15951641447054,66625.55,0.003281715666,0.0032150901160000003,Gas_SC→Wind,3281715.666,234.61538461538464
1329,Port Comfort Power LLC,TX,28.64807,-96.54621,2017,Gas_SC,120,50094000.0,444437.984,26412.332,Wind,-172.78605916491034,26412.332,0.003308127998,0.003281715666,Gas_SC→Wind,3308127.998,230.76923076923077
875,De Pere Energy Center,WI,44.44861,-88.07204,1999,Gas_SC,192,127959000.0,1335709.702,79382.394,Wind,-169.86833145016857,79382.394,0.003387510392,0.003308127998,Gas_SC→Wind,3387510.392,369.2307692307692
264,Bergen Generating Station,NJ,40.8375,-74.0244,1959,Gas_CC,1415,1137911000.0,13251579.657,787560.252,Wind,-169.62986165424567,787560.252,0.0041750706439999995,0.003387510392,Gas_CC→Wind,4175070.644,2721.153846153846
212,Black Dog,MN,44.8108,-93.2501,1952,Gas_CC,1678,1610073000.0,13281633.484,789309.6950000001,Wind,-166.9762105041416,789309.6950000001,0.004964380339,0.0041750706439999995,Gas_CC→Wind,4964380.339,3226.9230769230767
385,Cedar Bayou,TX,29.75,-94.9256,1970,Gas_SC,2295,2006819000.0,20382213.632,1211289.521,Wind,-166.18025243151044,1211289.521,0.006175669859999999,0.004964380339,Gas_SC→Wind,6175669.859999999,4413.461538461539
106,Powerton,IL,40.5408,-89.6786,1972,Coal,1784,1043563000.0,12096674.75,1286625.38,Wind,-164.98798605733367,1286625.38,0.007462295239999999,0.006175669859999999,Coal→Wind,7462295.239999999,3430.7692307692305
391,Wilkes,TX,32.848163,-94.547986,1964,Gas_SC,882,751984000.0,7860591.172,467167.276,Wind,-160.12918765345074,467167.276,0.007929462516,0.007462295239999999,Gas_SC→Wind,7929462.515999999,1696.1538461538462
1227,Center Hybrid,CA,33.9296,-118.1046,2007,Gas_SC,59,24636000.0,231665.641,13767.381,Solar,-160.04950817131004,13767.381,0.007943229896999998,0.007929462516,Gas_SC→Solar,7943229.896999999,184.37499999999997
460,Greenwood (MI),MI,43.1056,-82.6964,1979,Gas_SC,1070,1025811000.0,10833548.402,642438.498,Wind,-159.3278148445003,642438.498,0.008585668395,0.007943229897,Gas_SC→Wind,8585668.395,2057.6923076923076
1334,Stanton Energy Reliability Center Hybrid,CA,33.806801,-117.985758,2020,Gas_SC,160,49860000.0,474567.421,28204.887,Solar,-156.3561854887319,28204.887,0.008613873281999999,0.008585668395,Gas_SC→Solar,8613873.282,500.0
92,Larsen Memorial,FL,28.0797,-81.9228,1956,Gas_CC,158,103643000.0,1452965.512,86352.363,Wind,-156.1077036631856,86352.363,0.008700225645,0.008613873281999999,Gas_CC→Wind,8700225.645,303.84615384615387
291,Port Jefferson,NY,40.949696,-73.078507,1948,Gas_SC,590,600008000.0,6140145.224,369870.655,Wind,-152.05621654763678,369870.655,0.009070096299999999,0.008700225645,Gas_SC→Wind,9070096.299999999,1134.6153846153845
641,Harlem River Yard,NY,40.7991,-73.9156,2001,Gas_SC,94,68281000.0,612916.188,36424.699,Wind,-143.8911530748994,36424.699,0.009106520998999997,0.009070096299999999,Gas_SC→Wind,9106520.998999998,180.76923076923077
512,Dansby,TX,30.7217,-96.4608,1978,Gas_SC,203,184525000.0,2087481.998,124061.837,Wind,-143.671580234739,124061.837,0.009230582835999998,0.009106520998999997,Gas_SC→Wind,9230582.835999997,390.3846153846154
1239,Hardin County Peaking Facility,TX,30.3038,-94.2526,2001,Gas_SC,172,96045000.0,1176841.821,69936.379,Wind,-143.65888902268154,69936.379,0.009300519214999999,0.009230582835999998,Gas_SC→Wind,9300519.214999998,330.76923076923083
1018,Baconton Power Plant,GA,31.3869,-84.08,2000,Gas_SC,240,153500000.0,1459241.299,86724.126,Wind,-142.84932539261771,86724.126,0.009387243340999997,0.009300519214999999,Gas_SC→Wind,9387243.340999998,461.53846153846155
1280,Algonquin Power Sanger LLC,CA,36.6842,-119.5522,1990,Gas_CC,73,52836000.0,536778.508,31900.404,Solar,-142.27048295875102,31900.404,0.009419143744999997,0.009387243340999997,Gas_CC→Solar,9419143.744999997,228.12499999999997
333,Mustang,OK,35.46988,-97.67498,1950,Gas_SC,995,1161180000.0,10664970.871,629325.727,Wind,-140.3127601644342,629325.727,0.010048469471999997,0.009419143744999997,Gas_SC→Wind,10048469.471999997,1913.4615384615383
154,Big Sandy,KY,38.1707,-82.6176,1963,Coal,1096,948161000.0,9072868.604,539187.029,Wind,-138.10798253692502,539187.029,0.010587656500999996,0.010048469471999997,Coal→Wind,10587656.500999996,2107.6923076923076
827,Indeck Olean Energy Center,NY,42.085944,-78.45425,1994,Gas_CC,90,87172000.0,748123.9500000001,44458.975,Wind,-135.67486832237967,44458.975,0.010632115475999996,0.010587656500999996,Gas_CC→Wind,10632115.475999996,173.0769230769231
1240,Culbertson Generation Station,MT,48.21,-104.391667,2010,Gas_SC,91,52930000.0,478814.661,28455.947,Wind,-135.61076874743827,28455.947,0.010660571422999997,0.010632115475999996,Gas_SC→Wind,10660571.422999997,175.00000000000003
168,R S Nelson,LA,30.2844,-93.2911,1959,Gas_SC,1594,1017215000.0,11279371.814,1182981.035,Wind,-135.28710127172118,1182981.035,0.011843552457999998,0.010660571422999997,Gas_SC→Wind,11843552.457999997,3065.3846153846152
1003,Aurora,IL,41.8151,-88.2265,2001,Gas_SC,1080,824938000.0,7770818.632,461804.32,Wind,-134.8532763411214,461804.32,0.012305356777999998,0.011843552457999998,Gas_SC→Wind,12305356.777999997,2076.923076923077
447,Barney M Davis,TX,27.6064,-97.3117,1974,Gas_CC,1081,1335596000.0,10299947.489,612109.759,Wind,-133.60964525700203,612109.759,0.012917466536999997,0.012305356777999998,Gas_CC→Wind,12917466.536999997,2078.846153846154
1121,Newington,NH,43.1047,-70.8061,2002,Gas_CC,604,494592000.0,3536235.507,214199.966,Wind,-130.14841733664747,214199.966,0.013131666502999996,0.012917466536999997,Gas_CC→Wind,13131666.502999997,1161.5384615384617
600,Georgetown,IN,39.902556,-86.24405,2000,Gas_SC,340,244902000.0,2882872.681,171322.486,Wind,-128.5568344845866,171322.486,0.013302988988999996,0.013131666502999996,Gas_SC→Wind,13302988.988999996,653.8461538461539
1267,Cleveland Cnty Generating Facility,NC,35.170547,-81.416648,2012,Gas_SC,1472,624292000.0,5999753.653,356843.63,Wind,-126.84473344722514,356843.63,0.013659832618999997,0.013302988988999996,Gas_SC→Wind,13659832.618999997,2830.769230769231
279,Arthur Kill Generating Station,NY,40.591564,-74.200035,1959,Gas_SC,895,937632000.0,10129449.587,601846.01,Wind,-125.8848140434158,601846.01,0.014261678628999998,0.013659832618999997,Gas_SC→Wind,14261678.628999997,1721.1538461538462
331,Horseshoe Lake,OK,35.50866,-97.17969,1958,Gas_SC,973,1100144000.0,11918441.24,708294.052,Wind,-122.55543569428177,708294.052,0.014969972680999996,0.014261678628999998,Gas_SC→Wind,14969972.680999996,1871.1538461538462
894,Brownsville Peaking Power,TN,35.5438,-89.198,1999,Gas_SC,460,334949000.0,3834429.612,227873.668,Wind,-121.83157125026159,227873.668,0.015197846348999997,0.014969972680999996,Gas_SC→Wind,15197846.348999996,884.6153846153846
640,Hell Gate,NY,40.799,-73.9094,2001,Gas_SC,94,72684000.0,674065.1440000001,40058.627,Wind,-121.52220134939908,40058.627,0.015237904975999996,0.015197846348999997,Gas_SC→Wind,15237904.975999996,180.76923076923077
3,Greene County,AL,32.6017,-87.7811,1965,Gas_SC,1288,1153839000.0,11641749.925,696954.552,Wind,-121.43521975748322,696954.552,0.015934859527999994,0.015237904975999996,Gas_SC→Wind,15934859.527999995,2476.9230769230767
918,Walton County Power LLC,GA,33.8148,-83.6954,2001,Gas_SC,492,318036000.0,3151280.794,187275.659,Wind,-121.21771308748441,187275.659,0.016122135186999995,0.015934859527999994,Gas_SC→Wind,16122135.186999995,946.1538461538462
1231,Emporia Energy Center,KS,38.445883,-96.065247,2008,Gas_SC,729,434267000.0,4931796.397,293090.158,Wind,-120.6627244958633,293090.158,0.016415225344999996,0.016122135186999995,Gas_SC→Wind,16415225.344999995,1401.9230769230771
107,Waukegan,IL,42.3833,-87.8133,1952,Coal,914,747412000.0,7877858.9,832780.45,Wind,-119.69932262991225,832780.45,0.017248005794999993,0.016415225344999996,Coal→Wind,17248005.794999994,1757.6923076923078
1202,Groton Generating Station,SD,45.3735,-98.098689,2006,Gas_SC,188,134515000.0,1176232.489,69900.01,Wind,-119.56422692441816,69900.01,0.017317905804999995,0.017248005794999993,Gas_SC→Wind,17317905.804999996,361.53846153846155
185,Morgantown Generating Plant,MD,38.3592,-76.9767,1970,Coal,1548,1259835000.0,12531503.731,1284643.79,Wind,-117.16992072086046,1284643.79,0.018602549594999997,0.017317905804999995,Coal→Wind,18602549.594999995,2976.923076923077
1068,Elgin Energy Center LLC,IL,42.000061,-88.244572,2002,Gas_SC,540,390722000.0,4420334.302,262695.088,Wind,-116.70910194944943,262695.088,0.018865244682999993,0.018602549594999997,Gas_SC→Wind,18865244.682999995,1038.4615384615386
1093,Frank Knutson,CO,39.941129,-104.682015,2002,Gas_SC,154,73771000.0,912492.099,54291.524,Wind,-114.96696789850186,54291.524,0.018919536206999994,0.018865244682999993,Gas_SC→Wind,18919536.206999995,296.1538461538462
632,Terry Bundy Generating Station,NE,40.909653,-96.613086,2003,Gas_CC,212,161554000.0,1617826.487,96150.778,Wind,-114.79189847488018,96150.778,0.019015686984999995,0.018919536206999994,Gas_CC→Wind,19015686.984999996,407.6923076923077
956,Gibson City Energy Center LLC,IL,40.4705,-88.3987,2000,Gas_SC,270,210182000.0,2484262.467,147633.886,Wind,-113.34886571902337,147633.886,0.019163320870999995,0.019015686984999995,Gas_SC→Wind,19163320.870999996,519.2307692307693
912,Rockingham County CT Station,NC,36.3297,-79.8297,2000,Gas_SC,975,667548000.0,6862918.011,408581.996,Wind,-111.16065191266597,408581.996,0.019571902866999995,0.019163320870999995,Gas_SC→Wind,19571902.866999995,1875.0
8,Lowman Energy Center,AL,31.488019,-87.910747,1969,Coal,538,394730000.0,4043808.636,414894.287,Wind,-109.9850619205565,414894.287,0.019986797153999994,0.019571902866999995,Coal→Wind,19986797.153999995,1034.6153846153845
969,Harry L. Oswald,AR,34.5923,-92.2166,2002,Gas_CC,599,465218000.0,3543324.762,210578.029,Wind,-108.25752615511944,210578.029,0.020197375182999994,0.019986797153999994,Gas_CC→Wind,20197375.182999995,1151.923076923077
404,Sim Gideon,TX,30.1456,-97.2708,1965,Gas_SC,623,680051000.0,6856742.529,407490.218,Wind,-107.86000112131535,407490.218,0.020604865400999994,0.020197375182999994,Gas_SC→Wind,20604865.400999993,1198.076923076923
134,George Neal North,IA,42.299794,-96.361707,1964,Coal,1080,942043000.0,9719747.225,1019408.05,Wind,-107.33071254795219,1019408.05,0.021624273450999994,0.020604865400999994,Coal→Wind,21624273.450999994,2076.923076923077
378,Nueces Bay,TX,27.819412,-97.419203,1949,Gas_CC,941,1252086000.0,9111852.548,541505.7170000001,Wind,-106.34507044222951,541505.7170000001,0.022165779167999992,0.021624273450999994,Gas_CC→Wind,22165779.167999994,1809.6153846153845
625,Holden,MO,38.7538,-93.9983,2002,Gas_SC,321,240843000.0,2771409.671,164764.537,Wind,-105.93176330062383,164764.537,0.022330543704999994,0.022165779167999992,Gas_SC→Wind,22330543.704999994,617.3076923076923
1225,Mira Loma Peaker,CA,34.0053,-117.5604,2007,Gas_SC,49,25125000.0,208546.398,12392.979,Solar,-105.40487922083281,12392.979,0.022342936683999993,0.022330543704999994,Gas_SC→Solar,22342936.683999993,153.12499999999997
551,Hay Road,DE,39.7436,-75.5072,1989,Gas_CC,1193,1209513000.0,14348604.639,852744.125,Wind,-105.35558285762576,852744.125,0.023195680808999992,0.022342936683999993,Gas_CC→Wind,23195680.808999993,2294.230769230769
155,E W Brown,KY,37.78831,-84.71257,1957,Gas_SC,1748,1458548000.0,15795745.82,1516834.619,Wind,-103.56379552668982,1516834.619,0.02471251542799999,0.023195680808999992,Gas_SC→Wind,24712515.427999992,3361.538461538462
990,"Darby Power, LLC",OH,39.7139,-83.1778,2001,Gas_SC,564,413160000.0,4756106.0,281152.9,Wind,-103.28333360333237,281152.9,0.024993668327999992,0.02471251542799999,Gas_SC→Wind,24993668.32799999,1084.6153846153845
17,Yucca,AZ,32.7214,-114.7106,1959,Gas_SC,421,425651000.0,4890130.695,290612.052,Wind,-101.6034612948888,290612.052,0.025284280379999993,0.024993668327999992,Gas_SC→Wind,25284280.37999999,809.6153846153846
1048,RockGen Energy Center,WI,42.9767,-89.0492,2001,Gas_SC,561,466185000.0,4971121.011,295658.987,Wind,-101.52035837555795,295658.987,0.025579939366999992,0.025284280379999993,Gas_SC→Wind,25579939.36699999,1078.8461538461538
604,Sowega Power,GA,31.3869,-84.08,1999,Gas_SC,98,76468000.0,731632.018,43481.607,Wind,-97.89162478972814,43481.607,0.025623420973999993,0.025579939366999992,Gas_SC→Wind,25623420.973999992,188.46153846153848
33,AES Alamitos LLC,CA,33.7688,-118.1009,1956,Gas_SC,2055,1785596000.0,15163913.192,901172.842,Solar,-97.87053736278907,901172.842,0.026524593815999992,0.025623420973999993,Gas_SC→Solar,26524593.815999992,6421.874999999999
370,Allen,TN,35.074087,-90.14868,1959,Gas_CC,2764,3815383000.0,24638356.599,1464222.803,Wind,-97.46250332400766,1464222.803,0.02798881661899999,0.026524593815999992,Gas_CC→Wind,27988816.61899999,5315.384615384615
170,Teche,LA,29.822222,-91.5425,1953,Gas_SC,467,503159000.0,5116865.048,304082.141,Wind,-97.45072378353733,304082.141,0.02829289875999999,0.02798881661899999,Gas_SC→Wind,28292898.75999999,898.0769230769232
744,Las Vegas Generating Station,NV,36.2319,-115.1222,1994,Gas_CC,354,270089000.0,2819195.911,167537.117,Solar,-97.34810394685157,167537.117,0.02846043587699999,0.02829289875999999,Gas_CC→Solar,28460435.87699999,1106.25
407,O W Sommers,TX,29.308056,-98.3242,1972,Gas_SC,892,979976000.0,10762585.211,639604.099,Wind,-96.49505351591854,639604.099,0.02910003997599999,0.02846043587699999,Gas_SC→Wind,29100039.97599999,1715.3846153846152
275,Reeves,NM,35.171,-106.6019,1960,Gas_SC,154,123633000.0,1455196.284,86479.228,Solar,-96.48994416453628,86479.228,0.029186519203999988,0.02910003997599999,Gas_SC→Solar,29186519.20399999,481.24999999999994
73,Brandon Shores,MD,39.18,-76.5389,1984,Coal,1370,1148597000.0,12187110.157,1250397.931,Wind,-94.84438049003842,1250397.931,0.03043691713499999,0.029186519203999988,Coal→Wind,30436917.13499999,2634.6153846153848
652,Kemper County,MS,32.7976,-88.606,2002,Gas_SC,372,237128000.0,2844636.671,169112.43,Wind,-94.82251361636922,169112.43,0.03060602956499999,0.03043691713499999,Gas_SC→Wind,30606029.56499999,715.3846153846154
26,GREC,OK,36.190278,-95.2894,1981,Gas_CC,1734,2615424000.0,17736827.73,1099988.09,Wind,-94.77042926940389,1099988.09,0.03170601765499999,0.03060602956499999,Gas_CC→Wind,31706017.65499999,3334.6153846153848
609,Sewell Creek Energy,GA,33.9486,-85.2769,2000,Gas_SC,570,426763000.0,4639901.166999999,275741.619,Wind,-93.3055002428323,275741.619,0.03198175927399999,0.03170601765499999,Gas_SC→Wind,31981759.27399999,1096.1538461538462
1204,Cannon Falls Energy Center,MN,44.536688,-92.915528,2008,Gas_SC,346,226931000.0,2599902.5,153397.7,Wind,-93.00366073896907,153397.7,0.03213515697399999,0.03198175927399999,Gas_SC→Wind,32135156.97399999,665.3846153846154
660,Greater Des Moines,IA,41.5563,-93.5283,2003,Gas_CC,575,457689000.0,4992929.627,296722.743,Wind,-92.80546197687126,296722.743,0.03243187971699999,0.03213515697399999,Gas_CC→Wind,32431879.71699999,1105.769230769231
992,Gleason Generating Facility,TN,36.2454,-88.612,2000,Gas_SC,567,470362000.0,4899365.157,291158.105,Wind,-91.55591784880784,291158.105,0.03272303782199999,0.03243187971699999,Gas_SC→Wind,32723037.82199999,1090.3846153846155
1143,Edgewood Energy LLC,NY,40.7861,-73.2931,2002,Gas_SC,100,91805000.0,864144.7660000001,51354.894,Wind,-90.60477332795642,51354.894,0.03277439271599999,0.03272303782199999,Gas_SC→Wind,32774392.71599999,192.30769230769232
700,Gilroy Power Plant,CA,37.0001,-121.5367,1987,Gas_CC,130,116154000.0,940467.78,55885.3,Solar,-88.98277031024516,55885.3,0.03283027801599999,0.03277439271599999,Gas_CC→Solar,32830278.01599999,406.24999999999994
197,Dan E Karn,MI,43.644996,-83.840074,1959,Gas_SC,1945,1828950000.0,20504908.273,2109575.665,Wind,-88.57992986075155,2109575.665,0.03493985368099999,0.032830278016,Gas_SC→Wind,34939853.680999994,3740.3846153846157
657,Pyramid,NM,32.2363,-108.5494,2003,Gas_SC,184,131700000.0,1274790.595,75869.983,Wind,-88.39740615765196,75869.983,0.035015723664,0.03493985368099999,Gas_SC→Wind,35015723.664,353.84615384615387
637,Vernon Boulevard,NY,40.7537,-73.9508,2001,Gas_SC,94,77015000.0,681727.089,40516.26,Wind,-88.31146273976402,40516.26,0.035056239924,0.035015723664,Gas_SC→Wind,35056239.923999995,180.76923076923077
1286,Pioneer Generating Station,ND,48.2325,-103.95278,2013,Gas_SC,288,193029000.0,1909698.654,113490.988,Wind,-84.24143666511463,113490.988,0.03516973091199999,0.035056239924,Gas_SC→Wind,35169730.91199999,553.8461538461539
874,Dighton Power Plant,MA,41.8312,-71.1239,1999,Gas_CC,200,216922000.0,1689282.333,100391.37,Wind,-83.85330696543865,100391.37,0.035270122281999994,0.03516973091199999,Gas_CC→Wind,35270122.28199999,384.61538461538464
782,Frontier,OK,35.439722,-97.625,1989,Gas_CC,131,224609000.0,1829087.25,90563.621,Wind,-83.80799715063885,90563.621,0.03536068590299999,0.035270122281999994,Gas_CC→Wind,35360685.90299999,251.92307692307693
203,St Clair,MI,42.7642,-82.4719,1953,Coal,1923,1885094000.0,19903603.932,2087492.367,Wind,-83.62341547573405,2087492.367,0.037448178269999986,0.03536068590299999,Coal→Wind,37448178.26999999,3698.0769230769233
224,Baxter Wilson,MS,32.2831,-90.9306,1967,Gas_SC,1327,1577580000.0,15533548.14,923362.417,Wind,-81.24571821057117,923362.417,0.038371540686999994,0.037448178269999986,Gas_SC→Wind,38371540.68699999,2551.923076923077
575,George Neal South,IA,42.3006,-96.3617,1979,Coal,695,759395000.0,7135139.05,748335.0499999999,Wind,-80.74365635433911,748335.0499999999,0.03911987573699999,0.038371540686999994,Coal→Wind,39119875.73699999,1336.5384615384614
710,Castleton Energy Center,NY,42.5375,-73.7433,1992,Gas_CC,72,81970000.0,739155.058,43928.712,Wind,-79.75504983672938,43928.712,0.039163804448999986,0.03911987573699999,Gas_CC→Wind,39163804.448999986,138.46153846153848
1007,Big Sandy Peaker Plant,WV,38.3441,-82.5938,2001,Gas_SC,348,269174000.0,2687489.8,158624.9,Wind,-79.3447192751692,158624.9,0.03932242934899999,0.039163804448999986,Gas_SC→Wind,39322429.348999985,669.2307692307692
379,Victoria,TX,28.7883,-97.01,1955,Gas_CC,712,966155000.0,7497727.98,445582.317,Wind,-78.09703632557972,445582.317,0.03976801166599998,0.03932242934899999,Gas_CC→Wind,39768011.665999986,1369.2307692307693
371,Bull Run,TN,36.0211,-84.1567,1967,Coal,950,739769000.0,7270929.042,745998.767,Wind,-76.88192766077665,745998.767,0.040514010432999986,0.03976801166599998,Coal→Wind,40514010.43299998,1826.923076923077
740,Masspower,MA,42.1575,-72.5225,1993,Gas_CC,260,256404000.0,2995553.975,178018.8,Wind,-75.21162157088389,178018.8,0.04069202923299998,0.040514010432999986,Gas_CC→Wind,40692029.23299998,500.00000000000006
1065,Hot Spring Generating Facility,AR,34.29759,-92.868344,2002,Gas_CC,1426,1181335000.0,8659294.141,514608.998,Wind,-69.33204655502036,514608.998,0.04120663823099999,0.04069202923299998,Gas_CC→Wind,41206638.230999984,2742.3076923076924
759,Paris Energy Center,TX,33.6968,-95.5577,1989,Gas_CC,264,408641000.0,3474746.948,206500.832,Wind,-66.5822536577812,206500.832,0.04141313906299999,0.04120663823099999,Gas_CC→Wind,41413139.062999986,507.6923076923077
694,Cheswick Power Plant,PA,40.5383,-79.7906,1970,Coal,637,645388000.0,6543784.6620000005,665475.228,Wind,-66.52178584065972,665475.228,0.04207861429099999,0.04141313906299999,Coal→Wind,42078614.290999986,1225.0000000000002
643,Talbot County Energy,GA,32.5892,-84.6917,2002,Gas_SC,726,504779000.0,5623401.582,334272.254,Wind,-66.38274266065925,334272.254,0.042412886544999986,0.04207861429099999,Gas_SC→Wind,42412886.54499999,1396.1538461538462
1262,Bayonne Energy Center,NJ,40.652834,-74.09155,2012,Gas_SC,644,402893000.0,3472497.242,206381.972,Wind,-64.87919796621478,206381.972,0.042619268516999986,0.042412886544999986,Gas_SC→Wind,42619268.51699999,1238.4615384615383
334,Seminole,OK,34.96645,-96.7258,1971,Gas_SC,1724,2667360000.0,28228357.389,1677574.715,Wind,-63.96029459753415,1677574.715,0.04429684323199999,0.042619268516999986,Gas_SC→Wind,44296843.23199999,3315.3846153846157
160,Elmer Smith,KY,37.7942,-87.0608,1964,Coal,445,501812000.0,4914382.851,504216.512,Wind,-63.28115052015043,504216.512,0.044801059744,0.04429684323199999,Coal→Wind,44801059.743999995,855.7692307692307
45,Scattergood,CA,33.918151,-118.427648,1958,Gas_SC,1714,1773127000.0,13597388.757,794092.53,Solar,-62.50867458094322,794092.53,0.045595152273999996,0.044801059744,Gas_SC→Solar,45595152.274,5356.25
483,Sooner,OK,36.45307,-97.05279,1979,Coal,2088,2562602000.0,26416800.709,2765181.454,Wind,-61.41572410134801,2765181.454,0.048360333728,0.045595152274,Coal→Wind,48360333.728,4015.3846153846152
617,Louisa Generation Facility,VA,38.1181,-78.2139,2003,Gas_SC,507,378549000.0,4005133.685,238054.684,Wind,-59.648760288902125,238054.684,0.048598388412,0.048360333728,Gas_SC→Wind,48598388.412,975.0
1102,Sundance,AZ,32.9285,-111.5899,2002,Gas_SC,690,470536000.0,4685144.242,278431.814,Solar,-59.33076738258882,278431.814,0.048876820226000005,0.048598388412,Gas_SC→Solar,48876820.226,2156.2499999999995
105,Kincaid Generation LLC,IL,39.590556,-89.496389,1967,Coal,1318,1624422000.0,16187689.842,1697765.107,Wind,-58.96950778903677,1697765.107,0.050574585333,0.048876820226000005,Coal→Wind,50574585.333000004,2534.6153846153848
682,Gerald Andrus,MS,33.35,-91.1167,1975,Gas_SC,781,1038230000.0,11519664.597,684678.854,Wind,-58.46459044539054,684678.854,0.051259264187000005,0.050574585333,Gas_SC→Wind,51259264.18700001,1501.9230769230771
903,Kalamazoo River Generating Station,MI,42.281345,-85.494956,1999,Gas_SC,77,78808000.0,959163.599,57002.899000000005,Wind,-58.36972404739285,57002.899000000005,0.051316267086000004,0.051259264187000005,Gas_SC→Wind,51316267.086,148.0769230769231
1138,Bennett Mountain,ID,43.147153,-115.666637,2005,Gas_SC,392,315698000.0,3400267.35,202071.538,Wind,-57.89602701608814,202071.538,0.05151833862400001,0.051316267086000004,Gas_SC→Wind,51518338.624000005,753.8461538461539
352,Brunner Island,PA,40.096111,-76.6962,1961,Gas_SC,1621,2060637000.0,19918795.885,1342783.238,Wind,-56.43275318748707,1342783.238,0.052861121862,0.05151833862400001,Gas_SC→Wind,52861121.862,3117.3076923076924
6,Dolet Hills,LA,32.030556,-93.569167,1986,Coal,720,793116000.0,7632777.63,830981.316,Wind,-55.91718744190005,830981.316,0.053692103178,0.052861121862,Coal→Wind,53692103.178,1384.6153846153848
129,Lansing,IA,43.3359,-91.1675,1948,Coal,339,405557000.0,4329877.575,453574.457,Wind,-55.63969878217711,453574.457,0.05414567763500001,0.053692103178,Coal→Wind,54145677.635000005,651.923076923077
84,Crist,FL,30.5661,-87.2244,1945,Coal,1226,1308078000.0,14486362.104,1263481.962,Wind,-54.643985566716474,1263481.962,0.055409159597000004,0.05414567763500001,Coal→Wind,55409159.597,2357.6923076923076
351,New Castle Plant,PA,40.937939,-80.369007,1939,Gas_SC,424,595298000.0,6338136.165,376668.958,Wind,-52.200877071895384,376668.958,0.055785828555,0.055409159597000004,Gas_SC→Wind,55785828.555,815.3846153846154
1277,Mariposa Energy Project,CA,37.789167,-121.601944,2012,Gas_SC,196,130768000.0,1143482.591,67953.93,Wind,-51.46363633423512,67953.93,0.055853782484999996,0.055785828555,Gas_SC→Wind,55853782.485,376.92307692307696
922,Alliant Energy Neenah,WI,44.1936,-88.5064,2000,Gas_SC,370,421449000.0,4657196.2,274772.3,Wind,-50.379246858660466,274772.3,0.056128554785,0.055853782484999996,Gas_SC→Wind,56128554.785,711.5384615384615
268,PSEG Linden Generating Station,NJ,40.6217,-74.2072,1957,Gas_CC,2118,3409922000.0,24664883.538,1465896.209,Wind,-49.50126185044168,1465896.209,0.05759445099399999,0.056128554785,Gas_CC→Wind,57594450.993999995,4073.0769230769233
649,Solway CT,MN,47.544582,-95.129652,2003,Gas_SC,51,56922000.0,523406.292,31105.411,Wind,-48.928920388565906,31105.411,0.05762555640499999,0.05759445099399999,Gas_SC→Wind,57625556.404999994,98.07692307692308
1188,Riverside Energy Resource Center,CA,33.9636,-117.4528,2006,Gas_SC,196,125585000.0,1047800.734,62271.338,Solar,-48.91593107248985,62271.338,0.05768782774299999,0.05762555640499999,Gas_SC→Solar,57687827.74299999,612.4999999999999
1167,Hawkeye Energy Greenport LLC,NY,41.10603,-72.376155,2003,Oil,54,56092000.0,553676.246,44926.808,Wind,-47.70707243709116,44926.808,0.05773275455099999,0.05768782774299999,Oil→Wind,57732754.55099999,103.84615384615385
717,Foster Wheeler Mt Carmel Cogen,PA,40.811189,-76.452951,1990,Coal,47,41791000.0,774489.808,91160.458,Wind,-47.59781636873972,91160.458,0.05782391500899999,0.05773275455099999,Coal→Wind,57823915.00899999,90.38461538461539
95,Arvah B Hopkins,FL,30.4522,-84.4,1970,Gas_CC,1107,1412279000.0,11056639.06,657115.279,Wind,-47.13682659529281,657115.279,0.05848103028799999,0.05782391500899999,Gas_CC→Wind,58481030.28799999,2128.846153846154
616,Marsh Run Generation Facility,VA,38.5283,-77.7681,2004,Gas_SC,708,596322000.0,5981067.2530000005,355516.912,Wind,-46.88689498392264,355516.912,0.058836547199999985,0.05848103028799999,Gas_SC→Wind,58836547.19999999,1361.5384615384617
116,Harding Street,IN,39.711319,-86.196867,1941,Gas_SC,1176,1737404000.0,17931821.542,1065762.083,Wind,-44.959003001244106,1065762.083,0.059902309282999985,0.058836547199999985,Gas_SC→Wind,59902309.282999985,2261.5384615384614
651,Evander Andrews Power Complex,ID,43.179176,-115.734315,2001,Gas_SC,269,280995000.0,2986230.084,177466.461,Wind,-44.92475454979531,177466.461,0.06007977574399999,0.059902309282999985,Gas_SC→Wind,60079775.74399999,517.3076923076923
1063,Vandolah Power Station,FL,27.523607,-81.923951,2002,Gas_SC,728,586287000.0,5852124.626,348686.199,Wind,-44.34794935578474,348686.199,0.060428461942999986,0.06007977574399999,Gas_SC→Wind,60428461.94299999,1400.0000000000002
433,Edgewater,WI,43.715142,-87.705863,1951,Coal,833,1189922000.0,12373316.499,1297712.24,Wind,-43.672157954290064,1297712.24,0.06172617418299999,0.060428461942999986,Coal→Wind,61726174.18299999,1601.9230769230771
1142,Hardin Generator Project,MT,45.7578,-107.6,2006,Coal,115,62035000.0,764993.942,79515.822,Wind,-43.53325184354957,79515.822,0.06180569000499999,0.06172617418299999,Coal→Wind,61805690.00499999,221.15384615384616
1155,Feather River Energy Center,CA,39.109344,-121.60931,2003,Gas_SC,47,34524000.0,339638.412,20184.611,Wind,-43.01748158795658,20184.611,0.06182587461599999,0.06180569000499999,Gas_SC→Wind,61825874.61599999,90.38461538461539
335,Northeastern,OK,36.4317,-95.7008,1961,Coal,1949,3054286000.0,34998029.009,2688246.005,Wind,-42.33024831968537,2688246.005,0.064514120621,0.06182587461599999,Coal→Wind,64514120.62099999,3748.0769230769233
364,Wateree,SC,33.8264,-80.6228,1970,Coal,770,914984000.0,8639431.337000001,886406.4909999999,Wind,-42.1323365150254,886406.4909999999,0.06540052711199999,0.064514120621,Coal→Wind,65400527.11199999,1480.769230769231
286,74th Street,NY,40.768,-73.9515,1968,Oil,36,280000.0,2475553.925,147554.775,Wind,-41.803191829036855,147554.775,0.06554808188699998,0.06540052711199999,Oil→Wind,65548081.88699999,69.23076923076924
1115,University Park North,IL,41.4425,-87.7514,2002,Gas_SC,720,858680000.0,8143022.589,483947.538,Wind,-41.7103091326189,483947.538,0.06603202942499999,0.06554808188699998,Gas_SC→Wind,66032029.42499999,1384.6153846153848
838,Ocean State Power II,RI,42.0099,-71.6701,1991,Gas_CC,252,421685000.0,5073498.176,301591.385,Wind,-40.51143960979199,301591.385,0.06633362081,0.06603202942499999,Gas_CC→Wind,66333620.80999999,484.61538461538464
991,University Park South,IL,41.440893,-87.753189,2001,Gas_SC,348,433196000.0,4363611.899999999,257489.4,Wind,-38.770309687935836,257489.4,0.06659111020999998,0.06633362081,Gas_SC→Wind,66591110.209999986,669.2307692307692
1081,Lange Gas Turbines,SD,44.1203,-103.26,2002,Gas_SC,40,40236000.0,375206.784,22296.534,Wind,-37.76769621954144,22296.534,0.06661340674399999,0.06659111020999998,Gas_SC→Wind,66613406.74399999,76.92307692307692
244,Lon Wright,NE,41.4281,-96.4623,1957,Coal,211,327347000.0,3305806.129,340384.907,Wind,-37.187424299275506,340384.907,0.06695379165099999,0.06661340674399999,Coal→Wind,66953791.650999986,405.7692307692308
113,Dallman,IL,39.754803,-89.602389,1968,Coal,617,916183000.0,9252006.177,946787.427,Wind,-37.094128918320486,946787.427,0.06790057907799998,0.06695379165099997,Coal→Wind,67900579.07799998,1186.5384615384617
332,Muskogee,OK,35.76135,-95.28732,1956,Gas_SC,1889,2887174000.0,31639775.147,2623045.207,Wind,-36.69548727954345,2623045.207,0.07052362428499998,0.06790057907799998,Gas_SC→Wind,70523624.28499998,3632.6923076923076
656,Sumpter,MI,42.167,-83.5318,2002,Gas_SC,340,352070000.0,4396849.717,261295.699,Wind,-36.24438068165506,261295.699,0.07078491998399998,0.07052362428499998,Gas_SC→Wind,70784919.98399998,653.8461538461539
618,Remington,VA,38.5442,-77.7714,2000,Gas_SC,704,720233000.0,7055949.974,419713.811,Wind,-36.21214888316907,419713.811,0.07120463379499999,0.07078491998399998,Gas_SC→Wind,71204633.79499999,1353.8461538461538
305,Roxboro,NC,36.4833,-79.0731,1966,Coal,2573,2310556000.0,55418825.502,5681613.894,Wind,-36.205933023232625,5681613.894,0.07688624768899999,0.07120463379499999,Coal→Wind,76886247.68899998,4948.076923076923
810,Ocean State Power,RI,42.009722,-71.668909,1990,Gas_CC,252,442546000.0,5175091.072000001,307762.369,Wind,-35.05397340426217,307762.369,0.07719401005799999,0.07688624768899999,Gas_CC→Wind,77194010.05799998,484.61538461538464
1223,McGrath Peaker,CA,34.205556,-119.246944,2012,Gas_SC,49,26932000.0,222666.322,13233.604,Solar,-35.04516518024553,13233.604,0.07720724366199999,0.07719401005799999,Gas_SC→Solar,77207243.66199999,153.12499999999997
1073,Fountain Valley Power Facility,CO,38.5569,-104.6875,2001,Gas_SC,228,162596000.0,1789184.101,106332.457,Solar,-34.3453331967794,106332.457,0.07731357611899999,0.07720724366199999,Gas_SC→Solar,77313576.11899999,712.4999999999999
479,R M Schahfer,IN,41.2164,-87.0261,1976,Coal,2200,3160356000.0,36912136.116,3810973.865,Wind,-34.16473694316873,3810973.865,0.08112454998399998,0.07731357611899999,Coal→Wind,81124549.98399998,4230.769230769231
733,Bear Mountain Limited,CA,35.419181,-118.926643,1995,Gas_SC,46,43642000.0,397448.05,23620.25,Solar,-33.02019751139019,23620.25,0.08114817023399998,0.08112454998399998,Gas_SC→Solar,81148170.23399998,143.74999999999997
1295,Clayville,NJ,39.424444,-75.02,2015,Gas_SC,73,59621000.0,524669.779,31180.227,Wind,-32.913534574109775,31180.227,0.08117935046099999,0.08114817023399998,Gas_SC→Wind,81179350.46099998,140.38461538461542
1034,Troy Energy LLC,OH,41.47724,-83.45983,2002,Gas_SC,792,942112000.0,9615268.879,571792.094,Wind,-32.45235637538837,571792.094,0.08175114255499998,0.08117935046099999,Gas_SC→Wind,81751142.55499998,1523.076923076923
215,Allen S King,MN,45.03,-92.7786,1958,Coal,598,894925000.0,8883284.94,931679.661,Wind,-32.36215097151009,931679.661,0.08268282221599997,0.08175114255499998,Coal→Wind,82682822.21599998,1150.0
582,Rathdrum,ID,47.80427,-116.867312,1994,Gas_SC,166,164655000.0,1539881.405,91511.305,Wind,-31.89821200451047,91511.305,0.08277433352099998,0.08268282221599997,Gas_SC→Wind,82774333.52099998,319.2307692307692
171,Little Gypsy,LA,30.005067,-90.461694,1961,Gas_SC,1249,1713462000.0,18307564.102,1087990.954,Wind,-31.77680209191524,1087990.954,0.08386232447499999,0.08277433352099998,Gas_SC→Wind,83862324.47499998,2401.923076923077
376,Kingston,TN,35.8992,-84.5194,1954,Coal,1700,1746724000.0,18878690.876,1958476.24,Wind,-31.680154967267722,1958476.24,0.08582080071499998,0.08386232447499999,Coal→Wind,85820800.71499997,3269.230769230769
217,Hoot Lake,MN,46.290641,-96.043252,1914,Coal,137,213468000.0,2501980.075,262407.725,Wind,-31.44921077235861,262407.725,0.08608320843999996,0.08582080071499998,Coal→Wind,86083208.43999997,263.46153846153845
20,Oklaunion,TX,34.0825,-99.1753,1986,Coal,720,1209201000.0,12914358.63,1354458.972,Wind,-26.843611800112797,1354458.972,0.08743766741199997,0.08608320843999996,Coal→Wind,87437667.41199997,1384.6153846153848
1257,Dave Gates Generating Station,MT,46.104713,-112.876605,2011,Gas_SC,201,186002000.0,2343425.061,139263.304,Wind,-25.14317970545763,139263.304,0.08757693071599998,0.08743766741199997,Gas_SC→Wind,87576930.71599998,386.53846153846155
906,Sabine Cogen,TX,30.0444,-93.771389,2000,Gas_CC,105,114266000.0,1585069.487,94199.018,Wind,-24.976279305056572,94199.018,0.08767112973399999,0.08757693071599998,Gas_CC→Wind,87671129.73399998,201.9230769230769
1276,"Sentinel Energy Center, LLC",CA,33.934167,-116.571388,2013,Gas_SC,800,730710000.0,5964026.111,354436.256,Wind,-22.90093821237404,354436.256,0.08802556598999998,0.08767112973399999,Gas_SC→Wind,88025565.98999998,1538.4615384615386
718,Greenleaf 2 Power Plant,CA,39.1365,-121.6397,1989,Gas_SC,49,63901000.0,647270.177,38468.761,Wind,-22.041282518811244,38468.761,0.08806403475099998,0.08802556598999998,Gas_SC→Wind,88064034.75099999,94.23076923076924
507,Tolk,TX,34.186494,-102.56999,1982,Coal,1134,2029709000.0,21336678.285,2222219.412,Wind,-20.950348220650984,2222219.412,0.09028625416299998,0.08806403475099998,Coal→Wind,90286254.16299999,2180.769230769231
1299,Charles D. Lamb Energy Center,OK,36.813889,-97.125278,2015,Gas_SC,122,118247000.0,1401776.227,83307.952,Wind,-20.938865955122502,83307.952,0.090369562115,0.09028625416299998,Gas_SC→Wind,90369562.115,234.61538461538464
103,Grand Tower Energy Center LLC,IL,37.6577,-89.511161,1951,Gas_CC,639,1171248000.0,11380872.664,676329.532,Wind,-20.213815607401653,676329.532,0.091045891647,0.090369562115,Gas_CC→Wind,91045891.647,1228.8461538461538
1216,Hunlock Unit 4,PA,41.2025,-76.068333,2000,Gas_SC,44,43761000.0,348114.654,20688.529,Wind,-18.447472707482266,20688.529,0.091066580176,0.091045891647,Gas_SC→Wind,91066580.176,84.61538461538461
290,Northport,NY,40.923565,-73.342323,1967,Gas_SC,1564,3136361000.0,31779700.968,1892666.569,Wind,-18.376242731685917,1892666.569,0.092959246745,0.091066580176,Gas_SC→Wind,92959246.745,3007.692307692308
895,Gregory Power Plant,TX,27.88929,-97.258417,2000,Gas_CC,432,645490000.0,4464191.792,265300.42000000004,Wind,-17.454079509125698,265300.42000000004,0.093224547165,0.092959246745,Gas_CC→Wind,93224547.165,830.7692307692308
498,Rockport,IN,37.9256,-87.0372,1984,Coal,2600,4358302000.0,41905763.266,4383521.255,Wind,-17.106826215223595,4383521.255,0.09760806842,0.093224547165,Coal→Wind,97608068.42,5000.0
373,Gallatin (TN),TN,36.3156,-86.4006,1956,Coal,1914,2765308000.0,27983225.26,2853724.553,Wind,-15.477041614744111,2853724.553,0.10046179297300001,0.09760806842,Coal→Wind,100461792.973,3680.769230769231
877,Rio Bravo,NM,35.026,-106.644,2000,Gas_SC,150,131297000.0,1508569.722,89766.982,Solar,-14.736587956764934,89766.982,0.100551559955,0.10046179297300001,Gas_SC→Solar,100551559.955,468.74999999999994
469,Nearman Creek,KS,39.1681,-94.6975,1981,Coal,671,1208375000.0,13611277.482,1423278.426,Wind,-14.470029294908551,1423278.426,0.101974838381,0.100551559955,Coal→Wind,101974838.381,1290.3846153846155
394,Plant X,TX,34.1661,-102.4114,1952,Gas_SC,434,976440000.0,10435557.995,620181.384,Wind,-12.39901605930102,620181.384,0.102595019765,0.101974838381,Gas_SC→Wind,102595019.765,834.6153846153846
613,Smarr Energy Center,GA,32.9842,-83.8464,1999,Gas_SC,242,277558000.0,3503189.2800000003,208189.588,Wind,-9.856920180791763,208189.588,0.102803209353,0.102595019765,Gas_SC→Wind,102803209.353,465.3846153846154
346,Homer City Generating Station,PA,40.512825,-79.196107,1969,Coal,2012,3413527000.0,33998054.615,3488198.994,Wind,-7.161596371034977,3488198.994,0.106291408347,0.102803209353,Coal→Wind,106291408.347,3869.230769230769
1265,Canyon Power Plant,CA,33.858056,-117.861667,2011,Gas_SC,200,129525000.0,1171072.31,69598.04,Solar,-6.724666058037713,69598.04,0.10636100638700001,0.106291408347,Gas_SC→Solar,106361006.38700001,624.9999999999999
530,Independence Steam Electric Station,AR,35.678442,-91.408761,1983,Coal,1800,3136187000.0,35188269.116000004,3688666.339,Wind,-6.42806851034612,3688666.339,0.11004967272600001,0.10636100638700001,Coal→Wind,110049672.72600001,3461.5384615384614
93,C D McIntosh Jr,FL,28.0801,-81.9229,1970,Gas_CC,1409,2031202000.0,21820771.667,1583518.393,Wind,-5.801424714988914,1583518.393,0.11163319111900001,0.11004967272600001,Gas_CC→Wind,111633191.11900002,2709.6153846153848
87,Deerhaven Generating Station,FL,29.7592,-82.3878,1972,Coal,469,750718000.0,8258550.147,622402.804,Wind,-5.675092387638559,622402.804,0.11225559392300002,0.11163319111900001,Coal→Wind,112255593.92300002,901.923076923077
642,North 1st,NY,40.7171,-73.9664,2001,Gas_SC,47,55257000.0,520139.494,30911.431,Wind,-5.457425910559128,30911.431,0.11228650535400002,0.11225559392300002,Gas_SC→Wind,112286505.35400002,90.38461538461539
250,Sheldon,NE,40.5589,-96.7847,1961,Coal,227,563013000.0,5786358.566,606873.678,Wind,-5.051663567671054,606873.678,0.11289337903200002,0.11228650535400002,Coal→Wind,112893379.03200002,436.53846153846155
136,Ames Electric Services Power Plant,IA,42.0258,-93.6089,1968,Gas_SC,108,263519000.0,3554398.289,210709.305,Wind,-3.0863796737442564,210709.305,0.11310408833700003,0.11289337903200002,Gas_SC→Wind,113104088.33700003,207.6923076923077
629,Encogen,WA,48.746,-122.486,1993,Gas_CC,175,258757000.0,3304024.002,196358.765,Wind,-2.8941316926908667,196358.765,0.11330044710200003,0.11310408833700003,Gas_CC→Wind,113300447.10200003,336.53846153846155
1055,Renaissance Power Plant,MI,43.1864,-84.8429,2002,Gas_SC,780,1183096000.0,12729140.542,756474.183,Wind,-1.6426310655458531,756474.183,0.11405692128500003,0.11330044710200003,Gas_SC→Wind,114056921.28500003,1500.0000000000002
602,Henry County,IN,39.9528,-85.5039,2001,Gas_SC,180,291662000.0,2922303.334,173667.662,Wind,-1.3402230668166477,173667.662,0.11423058894700003,0.11405692128500003,Gas_SC→Wind,114230588.94700003,346.1538461538462
313,R M Heskett,ND,46.8669,-100.8836,1954,Coal,203,459560000.0,5172104.727,561996.822,Wind,-0.9962604071495652,561996.822,0.11479258576900002,0.11423058894700003,Coal→Wind,114792585.76900002,390.3846153846154
417,Possum Point,VA,38.5367,-77.2806,1948,Oil,2081,3862181000.0,26901544.118,1604137.311,Wind,0.09286150678909866,1604137.311,0.11639672308000003,0.11479258576900002,Oil→Wind,116396723.08000003,4001.923076923077
393,Nichols,TX,35.283357,-101.746423,1960,Gas_SC,473,1351105000.0,14264860.448,847745.3369999999,Wind,0.42502614271106004,847745.3369999999,0.11724446841700002,0.11639672308000003,Gas_SC→Wind,117244468.41700003,909.6153846153846
287,E F Barrett,NY,40.616689,-73.647881,1956,Gas_SC,684,1469493000.0,15812832.339,941535.239,Wind,0.7510327483064569,941535.239,0.11818600365600002,0.11724446841700002,Gas_SC→Wind,118186003.65600002,1315.3846153846155
121,Michigan City,IN,41.7208,-86.9086,1950,Coal,680,1658109000.0,16260738.308,1705426.85,Wind,0.8782948499936347,1705426.85,0.11989143050600001,0.11818600365600002,Coal→Wind,119891430.50600001,1307.6923076923078
454,Newton,IL,38.9361,-88.2781,1977,Coal,1234,2860079000.0,28793934.068,3019906.626,Wind,1.0008984540339363,3019906.626,0.12291133713200002,0.11989143050600001,Coal→Wind,122911337.13200001,2373.0769230769233
1341,Victoria Port Power LLC,TX,28.695805,-96.945409,2019,Gas_SC,100,89423000.0,759650.819,45147.231,Wind,1.073440765256697,45147.231,0.12295648436300002,0.12291133713200002,Gas_SC→Wind,122956484.36300002,192.30769230769232
493,Welsh,TX,33.05522,-94.839993,1977,Coal,1674,3587706000.0,38601790.456,4048551.427,Wind,1.2421914737194129,4048551.427,0.12700503579000003,0.12295648436300002,Coal→Wind,127005035.79000002,3219.2307692307695
558,Clover,VA,36.869,-78.704,1995,Coal,848,1360680000.0,13959582.122,1432252.161,Wind,1.5636134738751484,1432252.161,0.128437287951,0.12700503579000003,Coal→Wind,128437287.95100002,1630.7692307692307
1335,Salem Harbor Station NGCC,MA,42.525486,-70.878239,2018,Gas_CC,796,865595000.0,6190364.34,367883.891,Wind,2.194547044120992,367883.891,0.12880517184200002,0.128437287951,Gas_CC→Wind,128805171.84200002,1530.7692307692307
227,Hawthorn,MO,39.1306,-94.4778,1969,Coal,1045,2381292000.0,22713664.04,2263843.506,Wind,2.6147728013219784,2263843.506,0.13106901534800003,0.12880517184200002,Coal→Wind,131069015.34800002,2009.6153846153845
424,Mt Storm,WV,39.2008,-79.2636,1965,Coal,1680,5067481000.0,50102368.115,5140495.682,Wind,2.9886535351675914,5140495.682,0.13620951103000004,0.13106901534800003,Coal→Wind,136209511.03000003,3230.7692307692305
514,Winyah,SC,33.33184,-79.357236,1975,Coal,1260,2631016000.0,26210305.23,2689178.031,Wind,3.11016675157206,2689178.031,0.13889868906100003,0.13620951103000004,Coal→Wind,138898689.06100002,2423.0769230769233
19,H Wilson Sundt Generating Station,AZ,32.16,-110.9047,1958,Gas_SC,736,1016524000.0,10599106.418,629887.725,Solar,3.410129797575637,629887.725,0.139528576786,0.13889868906100003,Gas_SC→Solar,139528576.786,2299.9999999999995
431,South Oak Creek,WI,42.8457,-87.8294,1959,Coal,1258,3381674000.0,33900439.978,3553613.478,Wind,3.837567985682113,3553613.478,0.143082190264,0.139528576786,Coal→Wind,143082190.264,2419.2307692307695
619,Ladysmith,VA,38.0722,-77.5133,2001,Gas_SC,890,1184227000.0,11435831.524,682849.364,Wind,4.1479398359020685,682849.364,0.143765039628,0.143082190264,Gas_SC→Wind,143765039.628,1711.5384615384614
114,Marion,IL,37.619747,-88.953114,1963,Coal,422,1000046000.0,12859348.206,1356548.317,Wind,4.292237829744607,1356548.317,0.145121587945,0.143765039628,Coal→Wind,145121587.945,811.5384615384615
529,R D Green,KY,37.6461,-87.5,1979,Coal,586,1302573000.0,13717138.673,1407376.869,Wind,4.872869473185055,1407376.869,0.146528964814,0.145121587945,Coal→Wind,146528964.81399998,1126.9230769230771
416,Chesterfield,VA,37.3822,-77.3833,1952,Coal,1797,3645796000.0,30464363.285,2020768.003,Wind,4.892859265841445,2020768.003,0.14854973281699999,0.146528964814,Coal→Wind,148549732.81699997,3455.769230769231
100,Yates,GA,33.4622,-84.8986,1950,Gas_SC,1484,2428382000.0,25020975.687,1486953.61,Wind,5.028230329066558,1486953.61,0.150036686427,0.14854973281699999,Gas_SC→Wind,150036686.427,2853.846153846154
1079,Green Power 2,TX,29.378097,-94.932773,2003,Gas_CC,861,1322500000.0,48285090.776,2869502.616,Wind,5.201660672154684,2869502.616,0.152906189043,0.150036686427,Gas_CC→Wind,152906189.04299998,1655.7692307692307
86,Big Bend,FL,27.7944,-82.4036,1969,Coal,2076,3335206000.0,40258076.805,2852606.378,Wind,5.38721342366739,2852606.378,0.15575879542099996,0.152906189043,Coal→Wind,155758795.42099997,3992.307692307693
223,Jack Watson,MS,30.4392,-89.0286,1957,Gas_SC,1212,2392307000.0,23890945.719,1416769.574,Wind,5.738357582334648,1416769.574,0.15717556499499996,0.15575879542099996,Gas_SC→Wind,157175564.99499997,2330.769230769231
963,ANP Blackstone Energy Project,MA,42.059876,-71.515811,2001,Gas_CC,578,951288000.0,10517931.658,625063.477,Wind,6.598216425990664,625063.477,0.15780062847199997,0.15717556499499996,Gas_CC→Wind,157800628.47199997,1111.5384615384617
1238,San Jacinto County Peaking Facility,TX,30.4193,-95.0118,2001,Gas_SC,170,239685000.0,2826051.008,167945.994,Wind,6.726506321698923,167945.994,0.15796857446599996,0.15780062847199997,Gas_SC→Wind,157968574.46599996,326.92307692307696
358,Manchester Street,RI,41.8167,-71.4042,1995,Gas_CC,515,1107067000.0,13565120.175,804654.425,Wind,7.859673369188299,804654.425,0.15877322889099998,0.15796857446599996,Gas_CC→Wind,158773228.89099997,990.3846153846155
569,Richard M Flynn,NY,40.8158,-73.064,1994,Gas_CC,170,384941000.0,4680842.066,278476.368,Wind,8.03903230145356,278476.368,0.15905170525899998,0.15877322889099998,Gas_CC→Wind,159051705.25899997,326.92307692307696
274,Maddox,NM,32.714224,-103.301469,1963,Gas_SC,210,524387000.0,5440333.754,323309.838,Wind,8.090220333987176,323309.838,0.15937501509699997,0.15905170525899998,Gas_SC→Wind,159375015.09699997,403.8461538461538
111,Baldwin Energy Complex,IL,38.205,-89.8544,1970,Coal,1893,4473276000.0,42583477.514,4466151.61,Wind,8.616413203846259,4466151.61,0.163841166707,0.15937501509699997,Coal→Wind,163841166.707,3640.3846153846152
893,Millennium Power,MA,42.112291,-72.015113,2001,Gas_CC,427,686521000.0,7559875.478,449275.269,Wind,8.853118877194609,449275.269,0.16429044197599998,0.163841166707,Gas_CC→Wind,164290441.97599998,821.1538461538462
1317,Exelon West Medway II LLC,MA,42.137218,-71.4447,2019,Gas_SC,200,208911000.0,1940048.243,115862.331,Wind,9.204633509895245,115862.331,0.16440630430699998,0.16429044197599998,Gas_SC→Wind,164406304.30699998,384.61538461538464
638,Joseph J Seymour Power Project,NY,40.6631,-74.0,2001,Gas_SC,94,120366000.0,1123142.414,66746.553,Wind,9.224116471499595,66746.553,0.16447305086,0.16440630430699998,Gas_SC→Wind,164473050.85999998,180.76923076923077
534,Louisa,IA,41.3181,-91.0931,1983,Coal,811,2046614000.0,19483009.331,2043380.589,Wind,9.236894431496497,2043380.589,0.16651643144899997,0.16447305086,Coal→Wind,166516431.44899997,1559.6153846153848
518,Scherer,GA,33.0606,-83.8075,1982,Coal,3564,6455829000.0,71558364.304,7505037.866,Wind,9.262255991436628,7505037.866,0.17402146931499995,0.16651643144899997,Coal→Wind,174021469.31499997,6853.846153846153
162,Shawnee,KY,37.1517,-88.775,1953,Coal,1750,4089194000.0,44866116.756,4705547.174,Wind,9.491471832232204,4705547.174,0.17872701648899997,0.17402146931499995,Coal→Wind,178727016.48899996,3365.3846153846157
325,W H Sammis,OH,40.5317,-80.6319,1959,Coal,2464,5476431000.0,53871683.463,5650061.447,Wind,9.514599852038367,5650061.447,0.18437707793599997,0.17872701648899997,Coal→Wind,184377077.93599996,4738.461538461539
133,Walter Scott Jr Energy Center,IA,41.18,-95.8408,1954,Coal,1777,5450692000.0,52232489.325,5478142.3,Wind,10.015737111712573,5478142.3,0.18985522023599996,0.18437707793599997,Coal→Wind,189855220.23599997,3417.307692307693
510,Merom,IN,39.0694,-87.5108,1982,Coal,1080,2808884000.0,29308006.55,3007001.638,Wind,10.07588338268191,3007001.638,0.19286222187399998,0.18985522023599996,Coal→Wind,192862221.87399998,2076.923076923077
452,White Bluff,AR,34.4228,-92.1406,1980,Coal,1800,4195667000.0,46014977.17,4824080.41,Wind,10.6261087917714,4824080.41,0.19768630228399997,0.19286222187399998,Coal→Wind,197686302.28399998,3461.5384615384614
252,North Omaha,NE,41.32909,-95.94466,1954,Coal,642,1947607000.0,20227757.291,2105599.714,Wind,10.746484788673039,2105599.714,0.19979190199799995,0.19768630228399997,Coal→Wind,199791901.99799997,1234.6153846153845
1281,Cheyenne Prairie Generating Station,WY,41.123611,-104.72,2014,Gas_SC,220,284687000.0,2791108.734,165867.066,Wind,10.807397371868468,165867.066,0.19995776906399998,0.19979190199799995,Gas_SC→Wind,199957769.06399998,423.0769230769231
161,Paradise,KY,37.2608,-86.9783,1963,Coal,3718,7584661000.0,52114080.138,3316502.109,Wind,11.233886487018205,3316502.109,0.20327427117299998,0.19995776906399998,Coal→Wind,203274271.17299998,7150.000000000001
126,F B Culley,IN,37.9111,-87.3275,1955,Coal,414,1020047000.0,12318607.888,1258642.022,Wind,11.6122685247233,1258642.022,0.204532913195,0.20327427117299998,Coal→Wind,204532913.195,796.1538461538462
962,ANP Bellingham Energy Project,MA,42.110577,-71.453468,2002,Gas_CC,578,971792000.0,10925397.196,649280.37,Wind,11.931854214508677,649280.37,0.205182193565,0.204532913195,Gas_CC→Wind,205182193.565,1111.5384615384617
138,Muscatine Plant #1,IA,41.3917,-91.0569,1958,Coal,293,811937000.0,9568391.947,1003529.785,Wind,11.991902335848717,1003529.785,0.20618572335,0.205182193565,Coal→Wind,206185723.35,563.4615384615386
506,Harrington,TX,35.29816,-101.747187,1976,Coal,1080,3689626000.0,35342404.537,3685235.861,Wind,12.090582795342172,3685235.861,0.209870959211,0.20618572335,Coal→Wind,209870959.211,2076.923076923077
543,Major Oak Power,TX,31.091925,-96.69503,1990,Coal,948,2702959000.0,28259329.438,3076585.624,Wind,12.269108684332284,3076585.624,0.212947544835,0.209870959211,Coal→Wind,212947544.835,1823.076923076923
277,Cunningham,NM,32.7131,-103.3533,1957,Gas_SC,517,1345768000.0,14318869.367,850966.878,Wind,12.919401255381713,850966.878,0.213798511713,0.212947544835,Gas_SC→Wind,213798511.713,994.2307692307693
508,John Twitty Energy Center,MO,37.151706,-93.38804,1976,Coal,603,1828216000.0,17677672.701,1796233.656,Wind,13.575613212361134,1796233.656,0.215594745369,0.213798511713,Coal→Wind,215594745.369,1159.6153846153845
9,Platte,NE,40.854765,-98.348222,1982,Coal,109,409993000.0,4842587.007,507889.874,Wind,13.647264264387191,507889.874,0.216102635243,0.215594745369,Coal→Wind,216102635.243,209.61538461538464
10,Whelan Energy Center,NE,40.580872,-98.312437,1981,Coal,324,1163179000.0,11683032.735,1225316.813,Wind,13.971016335304988,1225316.813,0.217327952056,0.216102635243,Coal→Wind,217327952.056,623.0769230769231
765,Bethpage Power Plant,NY,40.7469,-73.4994,1989,Gas_CC,238,539271000.0,4442748.961,264031.917,Wind,14.285672425680158,264031.917,0.217591983973,0.217327952056,Gas_CC→Wind,217591983.973,457.6923076923077
35,AES Huntington Beach LLC,CA,33.6439,-117.9792,1958,Gas_SC,1021,1322790000.0,9458494.236,562099.998,Solar,15.456204405406796,562099.998,0.21815408397099997,0.217591983973,Gas_SC→Solar,218154083.971,3190.6249999999995
42,El Centro Hybrid,CA,32.802222,-115.54,1952,Gas_CC,435,660521000.0,5363384.605,318738.575,Wind,15.606811844149172,318738.575,0.21847282254599998,0.21815408397099997,Gas_CC→Wind,218472822.54599997,836.5384615384615
1192,Sheboygan Falls,WI,43.751826,-87.878056,2005,Gas_SC,346,604879000.0,6387969.782000001,379628.711,Wind,15.89538517442707,379628.711,0.21885245125699998,0.21847282254599998,Gas_SC→Wind,218852451.25699997,665.3846153846154
459,Belle River,MI,42.7756,-82.495,1981,Coal,1659,4950838000.0,49747806.267,5018291.802,Wind,16.563098324283445,5018291.802,0.22387074305899995,0.21885245125699998,Coal→Wind,223870743.05899996,3190.3846153846157
492,Flint Creek,AR,36.2561,-94.5241,1978,Coal,558,1992327000.0,20074444.36,2105410.454,Wind,17.171108247092924,2105410.454,0.22597615351299996,0.22387074305899995,Coal→Wind,225976153.51299995,1073.076923076923
471,Jeffrey Energy Center,KS,39.286453,-96.117231,1978,Coal,2160,7742614000.0,77712558.28,8145164.31,Wind,17.39870539093768,8145164.31,0.23412131782299994,0.22597615351299996,Coal→Wind,234121317.82299995,4153.846153846154
440,Genoa,WI,43.5589,-91.2325,1969,Coal,345,1006246000.0,10542454.298,1105690.912,Wind,17.85382391381506,1105690.912,0.23522700873499996,0.23412131782299994,Coal→Wind,235227008.73499995,663.4615384615385
822,C R Wing Cogen Plant,TX,32.273178,-101.422386,1987,Gas_CC,229,643828000.0,6149831.097,365478.925,Wind,18.768258655873133,365478.925,0.23559248765999996,0.23522700873499996,Gas_CC→Wind,235592487.65999997,440.3846153846154
44,Haynes,CA,33.764741,-118.09913,1962,Gas_SC,2882,3802589000.0,28051436.0,1636605.754,Solar,20.045420554859774,1636605.754,0.23722909341399998,0.23559248765999996,Gas_SC→Solar,237229093.41399997,9006.25
234,Sioux,MO,38.915479,-90.290247,1967,Coal,1098,3014662000.0,30181257.813,3165411.165,Wind,20.119135105738213,3165411.165,0.24039450457899997,0.23722909341399998,Coal→Wind,240394504.57899997,2111.5384615384614
485,Big Stone,SD,45.303652,-96.510067,1975,Coal,451,1744633000.0,19793030.226,2075891.345,Wind,20.387787674276083,2075891.345,0.24247039592399997,0.24039450457899997,Coal→Wind,242470395.92399997,867.3076923076923
273,Rio Grande,NM,31.8047,-106.5472,1957,Gas_SC,397,928728000.0,9949978.056,591310.323,Wind,20.615926557278584,591310.323,0.243061706247,0.24247039592399997,Gas_SC→Wind,243061706.24699998,763.4615384615385
123,Edwardsport,IN,38.8067,-87.2472,1944,Coal,947,2897761000.0,23563498.544,2994571.452,Wind,21.088474774140924,2994571.452,0.24605627769899996,0.243061706247,Coal→Wind,246056277.69899997,1821.1538461538462
1251,Greenland Energy Center,FL,30.159131,-81.518415,2011,Gas_SC,610,599962000.0,6191672.347,368157.123,Wind,21.16660101884414,368157.123,0.24642443482199997,0.24605627769899996,Gas_SC→Wind,246424434.82199997,1173.076923076923
207,Erickson Station,MI,42.692222,-84.657222,1973,Coal,154,616427000.0,7461886.34,782601.455,Wind,21.247724422858457,782601.455,0.24720703627699997,0.24642443482199997,Coal→Wind,247207036.27699998,296.1538461538462
148,Lawrence Energy Center,KS,39.0072,-95.269167,1952,Coal,604,2137047000.0,21159756.632,2181852.158,Wind,21.576863712331864,2181852.158,0.24938888843499998,0.24720703627699997,Coal→Wind,249388888.43499997,1161.5384615384617
813,Nassau Energy Corp,NY,40.7264,-73.5892,1991,Gas_CC,55,141677000.0,1775502.244,105527.713,Wind,21.66567814151806,105527.713,0.24949441614799997,0.24938888843499998,Gas_CC→Wind,249494416.14799997,105.76923076923077
32,Limestone,TX,31.4219,-96.2525,1985,Coal,1849,6332172000.0,63944990.991,6702640.393999999,Wind,21.77249155333467,6702640.393999999,0.256197056542,0.24949441614799997,Coal→Wind,256197056.54199997,3555.769230769231
146,La Cygne,KS,38.3481,-94.6456,1973,Coal,1598,6650553000.0,65925746.963,6912975.648,Wind,23.02845435842561,6912975.648,0.26311003218999995,0.256197056542,Coal→Wind,263110032.18999997,3073.076923076923
517,Ottumwa,IA,41.0961,-92.555833,1981,Coal,725,2751569000.0,28662182.975,3005151.0130000003,Wind,23.074559399455737,3005151.0130000003,0.266115183203,0.26311003218999995,Coal→Wind,266115183.20299998,1394.2307692307693
1199,Miramar Energy Facility,CA,32.8769,-117.166389,2005,Gas_SC,106,91829000.0,815270.616,48449.834,Solar,23.185743202462888,48449.834,0.26616363303699997,0.266115183203,Gas_SC→Solar,266163633.03699997,331.24999999999994
119,AES Petersburg,IN,38.5281,-87.2525,1967,Coal,2150,6925548000.0,70137795.295,7196134.229,Wind,23.23293783833738,7196134.229,0.273359767266,0.26616363303699997,Coal→Wind,273359767.266,4134.615384615385
348,Shawville,PA,41.06755,-78.366228,1954,Gas_SC,632,1481276000.0,15157043.114,900764.211,Wind,23.58253625050965,900764.211,0.274260531477,0.273359767266,Gas_SC→Wind,274260531.477,1215.3846153846155
639,Brentwood,NY,40.787062,-73.293412,2001,Gas_SC,47,92521000.0,870958.567,51758.055,Wind,23.673415852247057,51758.055,0.274312289532,0.274260531477,Gas_SC→Wind,274312289.532,90.38461538461539
96,S O Purdom,FL,30.162304,-84.200673,1963,Gas_CC,350,663452000.0,6650960.348,395280.832,Wind,23.69307483355287,395280.832,0.274707570364,0.274312289532,Gas_CC→Wind,274707570.364,673.0769230769231
293,Greenidge Generation LLC,NY,42.6789,-76.9483,1950,Gas_SC,162,392792000.0,3849053.684,228303.061,Wind,23.697196557875106,228303.061,0.27493587342500003,0.274707570364,Gas_SC→Wind,274935873.425,311.53846153846155
149,Chanute 2,KS,37.6953,-95.4586,1965,Gas_SC,64,243288000.0,3269468.305,193589.122,Wind,23.741492792594016,193589.122,0.275129462547,0.27493587342500003,Gas_SC→Wind,275129462.547,123.07692307692308
21,Cross,SC,33.371506,-80.113235,1984,Coal,2389,6832826000.0,71046981.476,7289416.468,Wind,23.874502960015146,7289416.468,0.282418879015,0.275129462547,Coal→Wind,282418879.015,4594.2307692307695
681,Pouch,NY,40.6182,-74.06849,2001,Gas_SC,47,70294000.0,656805.624,39045.315,Wind,24.21109043596503,39045.315,0.28245792433,0.282418879015,Gas_SC→Wind,282457924.33,90.38461538461539
481,Sherburne County,MN,45.3808,-93.8931,1976,Coal,2468,9614564000.0,96765805.27,10148791.521,Wind,24.359388471958283,10148791.521,0.292606715851,0.28245792433,Coal→Wind,292606715.851,4746.153846153847
4,E C Gaston,AL,33.244211,-86.458056,1960,Gas_SC,2033,4159470000.0,44005747.7,3832358.702,Wind,25.29249296089241,3832358.702,0.29643907455300006,0.292606715851,Gas_SC→Wind,296439074.55300003,3909.6153846153848
487,Boardman,OR,45.693182,-119.808819,1980,Coal,642,1747200000.0,17715313.534,1857983.613,Wind,25.330698980077194,1857983.613,0.298297058166,0.29643907455300006,Coal→Wind,298297058.166,1234.6153846153845
728,Ebensburg Power,PA,40.455,-78.7472,1990,Coal,57,338299000.0,4743554.563,517889.946,Wind,25.638910303907238,517889.946,0.298814948112,0.298297058166,Coal→Wind,298814948.112,109.61538461538461
1260,Coolidge Generation Station,AZ,32.917399,-111.503327,2011,Gas_SC,720,586213000.0,5214119.697,309870.42,Solar,25.73859313070214,309870.42,0.299124818532,0.298814948112,Gas_SC→Solar,299124818.532,2249.9999999999995
12,Holcomb,KS,37.9308,-100.9725,1983,Coal,348,1590954000.0,15249576.28,1599375.823,Wind,25.853833609861464,1599375.823,0.30072419435500003,0.299124818532,Coal→Wind,300724194.355,669.2307692307692
491,A B Brown,IN,37.9053,-87.715,1979,Coal,706,2369786000.0,25549087.069,2609644.344,Wind,25.895937375508105,2609644.344,0.303333838699,0.30072419435500003,Coal→Wind,303333838.699,1357.6923076923076
423,Mitchell (WV),WV,39.8297,-80.8153,1971,Coal,1632,3956208000.0,39052565.323,4000630.396,Wind,26.14297290561383,4000630.396,0.307334469095,0.303333838699,Coal→Wind,307334469.095,3138.4615384615386
363,Urquhart,SC,33.435,-81.9111,1953,Gas_CC,755,1363832000.0,15099214.228,899655.8539999999,Wind,26.25048461750816,899655.8539999999,0.308234124949,0.307334469095,Gas_CC→Wind,308234124.949,1451.923076923077
388,W A Parish,TX,29.4828,-95.6311,1958,Coal,4005,11731786000.0,116339094.918,11373985.015,Wind,26.44895675125837,11373985.015,0.31960810996399996,0.308234124949,Coal→Wind,319608109.964,7701.923076923077
392,Jones,TX,33.5239,-101.7392,1971,Gas_SC,858,2817409000.0,28763007.782,1709344.851,Wind,26.492140321275272,1709344.851,0.321317454815,0.31960810996399996,Gas_SC→Wind,321317454.815,1650.0
480,Lewis & Clark,MT,47.6785,-104.15665,1958,Coal,68,256912000.0,3179862.54,345979.82,Wind,26.772376913328106,345979.82,0.32166343463499997,0.321317454815,Coal→Wind,321663434.635,130.76923076923077
1340,Victoria City Power LLC,TX,28.7853,-97.0093,2020,Gas_SC,100,100374000.0,841447.719,50007.763,Wind,26.789349953587724,50007.763,0.321713442398,0.32166343463499997,Gas_SC→Wind,321713442.398,192.30769230769232
631,H L Culbreath Bayside Power Station,FL,27.9072,-82.4231,1965,Gas_CC,2785,5013603000.0,53789560.455,3196640.9220000003,Wind,26.884472249079174,3196640.9220000003,0.32491008332,0.321713442398,Gas_CC→Wind,324910083.32,5355.7692307692305
384,Sabine,TX,30.0242,-93.878,1962,Gas_SC,2049,4956860000.0,50392669.797,2994758.426,Wind,27.003177291229505,2994758.426,0.327904841746,0.32491008332,Gas_SC→Wind,327904841.746,3940.3846153846157
635,Pirkey,TX,32.4607,-94.4852,1985,Coal,721,2379413000.0,22761955.815,2478093.857,Wind,27.894990762474134,2478093.857,0.33038293560299997,0.327904841746,Coal→Wind,330382935.603,1386.5384615384617
445,John P Madgett,WI,44.303583,-91.912647,1979,Coal,387,1566399000.0,17609570.054,1846887.813,Wind,28.078746679247775,1846887.813,0.332229823416,0.33038293560299997,Coal→Wind,332229823.416,744.2307692307693
135,Burlington (IA),IA,40.7412,-91.116667,1968,Coal,288,1224617000.0,12458284.273,1305468.737,Wind,28.28830145425591,1305468.737,0.333535292153,0.332229823416,Coal→Wind,333535292.153,553.8461538461539
1137,Dean,MI,42.7725,-82.4953,2002,Gas_SC,356,738897000.0,8601439.405,511160.287,Wind,28.332738358013593,511160.287,0.33404645244,0.333535292153,Gas_SC→Wind,334046452.44,684.6153846153846
784,Westwood Generation LLC,PA,40.6191,-76.45,1987,Coal,36,214724000.0,3723178.783,440344.765,Wind,28.56818061301665,440344.765,0.33448679720499996,0.33404645244,Coal→Wind,334486797.205,69.23076923076924
971,Ennis Power Company LLC,TX,32.32,-96.675,2002,Gas_CC,418,859613000.0,7014038.985,416834.635,Wind,28.80213504697833,416834.635,0.33490363184,0.33448679720499996,Gas_CC→Wind,334903631.84,803.8461538461539
570,Almond Power Plant,CA,37.5744,-120.985,1996,Gas_SC,223,266714000.0,2568416.243,152638.392,Solar,29.252421138237278,152638.392,0.335056270232,0.33490363184,Gas_SC→Solar,335056270.232,696.875
210,Clay Boswell,MN,47.2611,-93.6528,1958,Coal,1072,4629537000.0,47968429.253,5023355.5940000005,Wind,29.68559758578097,5023355.5940000005,0.340079625826,0.335056270232,Coal→Wind,340079625.826,2061.5384615384614
97,Bowen,GA,34.1256,-84.9222,1971,Coal,3538,8768072000.0,84573288.441,8677220.883,Wind,29.708762283617652,8677220.883,0.348756846709,0.340079625826,Coal→Wind,348756846.709,6803.846153846154
442,Naughton,WY,41.7581,-110.5983,1963,Coal,832,2905299000.0,30338463.637,3056807.435,Wind,29.94202398089765,3056807.435,0.351813654144,0.348756846709,Coal→Wind,351813654.144,1600.0000000000002
486,Wyodak,WY,44.290128,-105.381482,1978,Coal,402,2010496000.0,22292803.882,2338068.07,Wind,30.105019294558282,2338068.07,0.354151722214,0.351813654144,Coal→Wind,354151722.214,773.0769230769231
470,Iatan,MO,39.4472,-94.98,1980,Coal,1725,7571663000.0,65703095.582,6890941.699,Wind,30.302680113627797,6890941.699,0.361042663913,0.354151722214,Coal→Wind,361042663.913,3317.3076923076924
198,J H Campbell,MI,42.910296,-86.20074,1962,Coal,1577,7290821000.0,70803324.577,7425853.869,Wind,30.51552551133633,7425853.869,0.368468517782,0.361042663913,Coal→Wind,368468517.782,3032.692307692308
216,Riverside (MN),MN,45.0203,-93.2753,1964,Gas_CC,822,2228764000.0,15669622.189,931222.803,Wind,30.77586445342011,931222.803,0.36939974058499997,0.368468517782,Gas_CC→Wind,369399740.585,1580.769230769231
525,Antelope Valley,ND,47.370542,-101.83566,1984,Coal,954,6074541000.0,63158217.582,6876033.321,Wind,30.79706226132373,6876033.321,0.376275773906,0.36939974058499997,Coal→Wind,376275773.90599996,1834.6153846153845
865,Brandywine Power Facility,MD,38.6681,-76.8678,1996,Gas_CC,287,621627000.0,4892636.1850000005,290958.975,Wind,30.808873371820145,290958.975,0.37656673288099995,0.376275773906,Gas_CC→Wind,376566732.881,551.923076923077
926,Hawk Road Facility,GA,33.358472,-84.991391,2001,Gas_SC,495,643567000.0,7035119.319,418089.721,Wind,31.27566380057055,418089.721,0.376984822602,0.37656673288099995,Gas_SC→Wind,376984822.602,951.923076923077
691,Coyote,ND,47.221447,-101.815722,1981,Coal,450,2540150000.0,26724753.022,2909520.876,Wind,31.661503516524903,2909520.876,0.379894343478,0.376984822602,Coal→Wind,379894343.478,865.3846153846154
438,Weston,WI,44.8606,-89.6553,1954,Coal,1161,4569811000.0,38439205.681,4025257.937,Wind,31.789793363963852,4025257.937,0.383919601415,0.379894343478,Coal→Wind,383919601.41499996,2232.692307692308
314,Leland Olds,ND,47.280769,-101.321213,1966,Coal,656,3386956000.0,34761578.759,3784483.071,Wind,31.81882262646033,3784483.071,0.38770408448599997,0.383919601415,Coal→Wind,387704084.48599994,1261.5384615384617
11,Escalante,NM,35.4159,-108.082,1984,Coal,257,637931000.0,6378643.973,668993.557,Wind,33.54979233019625,668993.557,0.3883730780429999,0.38770408448599997,Coal→Wind,388373078.0429999,494.2307692307693
201,Monroe (MI),MI,41.8906,-83.3464,1969,Coal,3288,14295504000.0,136084002.376,14276708.615,Wind,33.77692862574253,14276708.615,0.40264978665799994,0.3883730780429999,Coal→Wind,402649786.65799993,6323.076923076924
547,J K Spruce,TX,29.309722,-98.3203,1992,Coal,1444,5671932000.0,61814937.049,6342205.970000001,Wind,33.82847832823227,6342205.970000001,0.40899199262799996,0.40264978665799994,Coal→Wind,408991992.62799996,2776.923076923077
489,Gibson,IN,38.372222,-87.765833,1975,Coal,3335,12883913000.0,121401225.622,12455766.038,Wind,33.87075771144746,12455766.038,0.4214477586659999,0.40899199262799996,Coal→Wind,421447758.66599995,6413.461538461539
831,Kennedy International Airport Cogen,NY,40.6417,-73.7778,1994,Gas_CC,171,431255000.0,4316863.858,256622.174,Wind,34.00347147204275,256622.174,0.42170438083999995,0.4214477586659999,Gas_CC→Wind,421704380.84,328.84615384615387
122,Cayuga,IN,39.9242,-87.4244,1970,Coal,1182,4762761000.0,44187386.433,4526193.386,Wind,34.1175888362749,4526193.386,0.42623057422599997,0.42170438083999995,Coal→Wind,426230574.22599995,2273.076923076923
51,Martin Drake,CO,38.824444,-104.833333,1962,Gas_SC,257,449750000.0,5251736.758,504985.454,Solar,34.24600295064852,504985.454,0.42673555967999993,0.42623057422599997,Gas_SC→Solar,426735559.67999995,803.125
476,Gerald Gentleman,NE,41.0808,-101.1408,1979,Coal,1362,7412380000.0,69650462.925,7304937.575,Wind,34.26206618253672,7304937.575,0.43404049725499994,0.42673555967999993,Coal→Wind,434040497.25499994,2619.2307692307695
783,Eagle Point Power Generation,NJ,39.8746,-75.1592,1990,Gas_CC,251,551910000.0,4437364.26,263724.553,Wind,34.28890455531619,263724.553,0.43430422180799994,0.43404049725499994,Gas_CC→Wind,434304221.8079999,482.6923076923077
505,Brame Energy Center,LA,31.395,-92.716667,1975,Coal,1706,5368708000.0,56392476.86,5593480.331,Wind,34.335254237325415,5593480.331,0.4398977021389999,0.434304221808,Coal→Wind,439897702.13899994,3280.769230769231
475,Colstrip,MT,45.8831,-106.614,1975,Coal,2362,8885187000.0,86999147.495,9121047.328,Wind,34.5088154793458,9121047.328,0.44901874946699993,0.4398977021389999,Coal→Wind,449018749.46699995,4542.307692307692
441,Dave Johnston,WY,42.8378,-105.7769,1959,Coal,921,4779630000.0,51464143.522,5397569.887,Wind,34.54320772429236,5397569.887,0.45441631935399995,0.44901874946699993,Coal→Wind,454416319.354,1771.1538461538462
500,Coleto Creek,TX,28.7128,-97.214167,1980,Coal,622,2705523000.0,28661161.895,3005980.887,Wind,35.09450409497947,3005980.887,0.457422300241,0.45441631935399995,Coal→Wind,457422300.241,1196.1538461538462
588,St Francis Energy Facility,MO,36.5852,-90.1779,1999,Gas_CC,506,985606000.0,7230221.97,429682.715,Wind,35.36313572547683,429682.715,0.457851982956,0.457422300241,Gas_CC→Wind,457851982.956,973.0769230769231
102,E D Edwards,IL,40.5958,-89.6631,1960,Coal,779,3338667000.0,32727715.523,3432477.373,Wind,35.41865610649171,3432477.373,0.461284460329,0.457851982956,Coal→Wind,461284460.329,1498.076923076923
455,East Bend,KY,38.9036,-84.8514,1981,Coal,772,2492997000.0,26608833.796,2730062.755,Wind,35.83515762816163,2730062.755,0.464014523084,0.461284460329,Coal→Wind,464014523.084,1484.6153846153848
315,Milton R Young,ND,47.065854,-101.213093,1970,Coal,734,5172462000.0,51248532.513,5579430.04,Wind,35.971916333585064,5579430.04,0.469593953124,0.464014523084,Coal→Wind,469593953.124,1411.5384615384617
673,Columbia (WI),WI,43.4864,-89.4203,1975,Coal,1112,5644215000.0,59242619.219,6212741.745,Wind,36.18087312388544,6212741.745,0.475806694869,0.469593953124,Coal→Wind,475806694.869,2138.4615384615386
583,Neil Simpson II,WY,44.2856,-105.3833,1995,Coal,130,786000000.0,9468885.876,960076.625,Wind,36.25837614942141,960076.625,0.47676677149400004,0.475806694869,Coal→Wind,476766771.494,250.00000000000003
419,Transalta Centralia Generation,WA,46.755938,-122.859764,1972,Coal,1778,5470187000.0,60929479.257,6390281.626,Wind,36.63229768374267,6390281.626,0.48315705312,0.47676677149400004,Coal→Wind,483157053.12,3419.2307692307695
484,Nebraska City,NE,40.6214,-95.7764,1979,Coal,1389,8317716000.0,83716848.543,8770945.502,Wind,36.69742764001645,8770945.502,0.491927998622,0.48315705312,Coal→Wind,491927998.622,2671.153846153846
899,Midlothian Energy Facility,TX,32.4302,-97.0537,2000,Gas_CC,1734,4080310000.0,30079046.604,1787556.582,Wind,36.84434682437474,1787556.582,0.493715555204,0.491927998622,Gas_CC→Wind,493715555.204,3334.6153846153848
1130,Bayswater Peaking Facility LLC,NY,40.610654,-73.762218,2002,Gas_SC,60,121135000.0,1267992.191,80206.897,Wind,36.872574539255254,80206.897,0.493795762101,0.493715555204,Gas_SC→Wind,493795762.101,115.38461538461539
686,Jim Bridger,WY,41.7378,-108.7875,1974,Coal,2441,11336603000.0,117039764.935,12275116.354,Wind,36.87403280330424,12275116.354,0.506070878455,0.493795762101,Coal→Wind,506070878.455,4694.2307692307695
458,Coal Creek,ND,47.377743,-101.157058,1979,Coal,1216,8841523000.0,87657916.149,9543316.525,Wind,37.3851726726824,9543316.525,0.5156141949799999,0.506070878455,Coal→Wind,515614194.97999996,2338.4615384615386
1033,Armstrong,PA,40.638021,-79.351725,2002,Gas_SC,688,1193104000.0,11962091.217,711238.865,Wind,37.67782015654589,711238.865,0.516325433845,0.5156141949799999,Gas_SC→Wind,516325433.84499997,1323.0769230769233
504,San Miguel,TX,28.7044,-98.4775,1982,Coal,410,2610918000.0,29608943.004,3223528.661,Wind,37.981262923559235,3223528.661,0.519548962506,0.516325433845,Coal→Wind,519548962.506,788.4615384615385
494,Martin Lake,TX,32.2606,-94.5706,1977,Coal,3179,14044368000.0,135840242.896,14788925.215,Wind,38.252557887552136,14788925.215,0.534337887721,0.519548962506,Coal→Wind,534337887.72099996,6113.461538461538
855,Yuma Cogeneration Associates,AZ,32.728822,-114.654053,1994,Gas_CC,62,113945000.0,1041395.097,61884.789,Wind,38.90941723211734,61884.789,0.5343997725099999,0.534337887721,Gas_CC→Wind,534399772.50999993,119.23076923076923
446,Thomas C Ferguson,TX,30.558,-98.3705,1974,Gas_CC,1020,2336710000.0,23833676.627,1416400.308,Wind,38.979205867693494,1416400.308,0.535816172818,0.5343997725099999,Gas_CC→Wind,535816172.81799996,1961.5384615384617
1300,W.A. Parish Carbon Capture Plant,TX,29.475278,-95.634167,2013,Gas_SC,102,154859000.0,1955909.002,116237.519,Wind,39.33941199827389,116237.519,0.5359324103369999,0.535816172818,Gas_SC→Wind,535932410.33699995,196.15384615384616
509,Laramie River Station,WY,42.108889,-104.8825,1981,Coal,1710,8652304000.0,97551039.731,10231153.943,Wind,39.35132970658531,10231153.943,0.54616356428,0.5359324103369999,Coal→Wind,546163564.28,3288.4615384615386
1320,Alpine Power Plant,MI,45.063748,-84.825348,2016,Gas_SC,452,812703000.0,8352632.0,492823.2,Wind,39.69996389067266,492823.2,0.54665638748,0.54616356428,Gas_SC→Wind,546656387.48,869.2307692307693
241,Thomas Hill,MO,39.5522,-92.6381,1966,Coal,1181,7266410000.0,70350121.873,7377929.471,Wind,40.15140200686543,7377929.471,0.554034316951,0.54665638748,Coal→Wind,554034316.951,2271.153846153846
357,Hunlock Power Station,PA,41.200556,-76.07,1959,Gas_CC,145,269228000.0,2075792.719,123361.755,Wind,40.164502257405005,123361.755,0.554157678706,0.554034316951,Gas_CC→Wind,554157678.706,278.84615384615387
501,Fayette Power Project,TX,29.9172,-96.7506,1979,Coal,1690,9411477000.0,97702623.278,10247053.41,Wind,40.313361581455645,10247053.41,0.564404732116,0.554157678706,Coal→Wind,564404732.1159999,3250.0
1304,Ector County Energy Center,TX,32.069167,-102.585556,2015,Gas_SC,358,700927000.0,7569973.618,449879.925,Wind,40.82555604612806,449879.925,0.5648546120409998,0.564404732116,Gas_SC→Wind,564854612.0409999,688.4615384615385
110,Joppa Steam,IL,37.2094,-88.858889,1953,Coal,1098,4492161000.0,44699839.569,4446866.1,Wind,41.24556562095465,4446866.1,0.569301478141,0.5648546120409998,Coal→Wind,569301478.1409999,2111.5384615384614
1194,Pinelawn Power LLC,NY,40.736611,-73.388424,2005,Gas_CC,82,143942000.0,1132882.995,66999.775,Wind,42.34909810760762,66999.775,0.5693684779159999,0.569301478141,Gas_CC→Wind,569368477.9159999,157.6923076923077
115,Clifty Creek,IN,38.7378,-85.4206,1955,Coal,1302,4881738000.0,48939578.429,5021194.772,Wind,42.577300748945206,5021194.772,0.5743896726879999,0.5693684779159999,Coal→Wind,574389672.6879998,2503.846153846154
276,San Juan,NM,36.8006,-108.4386,1973,Coal,1848,5352045000.0,59622703.411,6249613.377,Wind,43.48387408429247,6249613.377,0.5806392860649998,0.5743896726879999,Coal→Wind,580639286.0649998,3553.8461538461543
240,New Madrid,MO,36.5147,-89.5617,1972,Coal,1300,6524903000.0,59087591.284,6197073.609999999,Wind,43.73013642488517,6197073.609999999,0.5868363596749998,0.5806392860649998,Coal→Wind,586836359.6749998,2500.0
536,Rawhide,CO,40.860905,-105.021207,1984,Gas_SC,798,2221328000.0,20670571.479,2088151.445,Wind,43.97037927555086,2088151.445,0.5889245111199999,0.5868363596749998,Gas_SC→Wind,588924511.1199999,1534.6153846153845
679,Anclote,FL,28.184444,-82.788611,1974,Gas_SC,1112,2373107000.0,25707131.313,1527741.288,Wind,44.008118402390224,1527741.288,0.5904522524079999,0.5889245111199999,Gas_SC→Wind,590452252.4079999,2138.4615384615386
556,Cope,SC,33.3644,-81.03,1996,Gas_SC,417,1028009000.0,9646353.337,693924.287,Wind,44.94930584065649,693924.287,0.5911461766949998,0.5904522524079999,Gas_SC→Wind,591146176.6949998,801.923076923077
213,High Bridge,MN,44.9314,-93.1117,1956,Gas_CC,920,2758478000.0,20309789.155,1206982.576,Wind,45.00160919983729,1206982.576,0.5923531592709997,0.5911461766949998,Gas_CC→Wind,592353159.2709998,1769.2307692307693
540,D B Wilson,KY,37.4497,-87.0806,1984,Coal,509,2511569000.0,25905336.594,2657884.525,Wind,45.02567378811227,2657884.525,0.5950110437959998,0.5923531592709997,Coal→Wind,595011043.7959998,978.8461538461539
350,Keystone,PA,40.6604,-79.3411,1967,Coal,1880,7931612000.0,77364299.749,7937574.553,Wind,45.082261689652796,7937574.553,0.6029486183489997,0.5950110437959998,Coal→Wind,602948618.3489997,3615.3846153846157
1082,Wygen 1,WY,44.2858,-105.3833,2003,Coal,90,770923000.0,8761068.827,918861.708,Wind,45.8418353264149,918861.708,0.6038674800569996,0.6029486183489997,Coal→Wind,603867480.0569997,173.0769230769231
678,Belews Creek,NC,36.2811,-80.0603,1974,Coal,2490,5751348000.0,51475866.161,4846203.945,Wind,45.97620784185912,4846203.945,0.6087136840019998,0.6038674800569996,Coal→Wind,608713684.0019997,4788.461538461539
472,Trimble County,KY,38.5847,-85.4117,1990,Coal,2594,9717610000.0,84222695.172,8478734.484,Wind,46.070415177605426,8478734.484,0.6171924184859997,0.6087136840019998,Coal→Wind,617192418.4859997,4988.461538461538
693,North Valmy,NV,40.881317,-117.151605,1981,Coal,566,1085346000.0,10399050.569,1090649.724,Solar,46.091429392969516,1090649.724,0.6182830682099997,0.6171924184859997,Coal→Solar,618283068.2099997,1768.7499999999998
1141,Los Esteros Critical Energy Center,CA,37.425,-121.9319,2003,Gas_CC,306,302573000.0,2390644.581,142075.801,Solar,46.3201920302984,142075.801,0.6184251440109997,0.6182830682099997,Gas_CC→Solar,618425144.0109997,956.2499999999999
864,Johnson County,TX,32.3994,-97.4078,1996,Gas_CC,282,940117000.0,7417756.133,440824.707,Wind,46.47394297153332,440824.707,0.6188659687179997,0.6184251440109997,Gas_CC→Wind,618865968.7179997,542.3076923076923
372,Cumberland (TN),TN,36.3903,-87.6539,1973,Coal,2600,10186573000.0,101328432.745,10382601.489,Wind,46.63123179204206,10382601.489,0.6292485702069996,0.6188659687179997,Coal→Wind,629248570.2069997,5000.0
365,Williams,SC,33.0158,-79.9297,1972,Coal,711,2923951000.0,26361645.203,2704237.285,Wind,46.66621320258765,2704237.285,0.6319528074919997,0.6292485702069996,Coal→Wind,631952807.4919996,1367.3076923076924
664,West Campus Cogeneration Facility,WI,43.075071,-89.4251,2005,Gas_CC,169,448698000.0,4688450.289,278670.628,Wind,46.6952066699961,278670.628,0.6322314781199997,0.6319528074919997,Gas_CC→Wind,632231478.1199996,325.00000000000006
1211,Wygen 2,WY,44.2919,-105.3811,2008,Coal,95,783825000.0,8916959.037,935205.921,Wind,46.85991993610637,935205.921,0.6331666840409996,0.6322314781199997,Coal→Wind,633166684.0409997,182.6923076923077
1212,Mustang Station Unit 4,TX,32.974554,-102.743607,2006,Gas_SC,510,1314077000.0,13702583.831,814324.963,Wind,46.88893911754744,814324.963,0.6339810090039997,0.6331666840409996,Gas_SC→Wind,633981009.0039997,980.7692307692308
1243,Sandy Creek Energy Station,TX,31.474378,-96.957149,2013,Coal,1008,4884613000.0,47161984.870000005,4943073.232,Wind,47.26950984699043,4943073.232,0.6389240822359997,0.6339810090039997,Coal→Wind,638924082.2359997,1938.4615384615386
22,Seminole (FL),FL,29.733056,-81.632778,1984,Coal,2278,7093448000.0,68315035.552,7009117.937,Wind,47.40600624630409,7009117.937,0.6459332001729997,0.6389240822359997,Coal→Wind,645933200.1729997,4380.769230769231
568,Redding Power,CA,40.507292,-122.423281,1989,Gas_CC,180,340140000.0,2737669.894,162700.347,Wind,47.6288056183377,162700.347,0.6460959005199998,0.6459332001729997,Gas_CC→Wind,646095900.5199997,346.1538461538462
1117,Blue Spruce Energy Center,CO,39.747875,-104.681404,2003,Gas_SC,396,521191000.0,6192582.07,368052.31,Wind,48.207746089438004,368052.31,0.6464639528299997,0.6460959005199998,Gas_SC→Wind,646463952.8299997,761.5384615384615
871,LSP-Cottage Grove LP,MN,44.7956,-92.9119,1997,Gas_CC,283,721512000.0,5574905.348999999,331309.643,Wind,48.29683381230059,331309.643,0.6467952624729997,0.6464639528299997,Gas_CC→Wind,646795262.4729997,544.2307692307693
502,Oak Grove (TX),TX,31.1803,-96.4866,2010,Coal,3394,14156221000.0,131696051.869,14334643.816,Wind,48.380049588990786,14334643.816,0.6611299062889997,0.6467952624729997,Coal→Wind,661129906.2889997,6526.923076923077
985,Red Oak Power LLC,NJ,40.448674,-74.348879,2002,Gas_CC,820,1871654000.0,20034977.415,1190652.614,Wind,48.54621300464418,1190652.614,0.6623205589029997,0.6611299062889997,Gas_CC→Wind,662320558.9029996,1576.923076923077
535,Warrick,IN,37.915,-87.3328,1960,Coal,821,5239879000.0,57585408.857,5908255.332,Wind,48.599930895057504,5908255.332,0.6682288142349997,0.6623205589029997,Coal→Wind,668228814.2349997,1578.846153846154
1191,Faribault Energy Park,MN,44.3356,-93.290556,2005,Gas_CC,334,730686000.0,5139678.28,305444.77,Wind,48.84013265177663,305444.77,0.6685342590049996,0.6682288142349997,Gas_CC→Wind,668534259.0049996,642.3076923076924
713,Bayou Cogen Plant,TX,29.6225,-95.0458,1984,Gas_SC,620,2322614000.0,32623627.833,1890563.488,Wind,49.504010538801744,1890563.488,0.6704248224929997,0.6685342590049996,Gas_SC→Wind,670424822.4929997,1192.3076923076924
345,Conemaugh,PA,40.3842,-79.0611,1970,Coal,1962,8186225000.0,76568322.164,7850456.132999999,Wind,50.03560081586253,7850456.132999999,0.6782752786259997,0.6704248224929997,Coal→Wind,678275278.6259997,3773.0769230769233
1075,McClain Energy Facility,OK,35.29774,-97.58985,2001,Gas_CC,550,2027271000.0,20765777.089,1234080.628,Wind,50.34622115299226,1234080.628,0.6795093592539997,0.6782752786259997,Gas_CC→Wind,679509359.2539997,1057.6923076923078
144,Riverton,KS,37.072616,-94.698704,1950,Gas_CC,397,1521111000.0,10841966.64,644324.479,Wind,50.68654285892729,644324.479,0.6801536837329997,0.6795093592539997,Gas_CC→Wind,680153683.7329997,763.4615384615385
90,Northside Generating Station,FL,30.4172,-81.5525,1966,Coal,1405,5080842000.0,55671482.453,4623721.522,Wind,50.784232181212936,4623721.522,0.6847774052549996,0.6801536837329997,Coal→Wind,684777405.2549996,2701.923076923077
1182,Elm Road Generating Station,WI,42.8492,-87.8336,2010,Coal,1402,8195897000.0,73817406.681,7739753.19,Wind,51.19982371283155,7739753.19,0.6925171584449997,0.6847774052549996,Coal→Wind,692517158.4449997,2696.153846153846
13,Cholla,AZ,34.9394,-110.3033,1962,Coal,1127,3529723000.0,40707844.837,4176620.563,Solar,51.214646355120124,4176620.563,0.6966937790079997,0.6925171584449997,Coal→Solar,696693779.0079997,3521.8749999999995
537,Sikeston Power Station,MO,36.8791,-89.6209,1981,Coal,261,1783184000.0,16880136.51,1770392.745,Wind,51.65480171856559,1770392.745,0.6984641717529997,0.6966937790079997,Coal→Wind,698464171.7529997,501.9230769230769
1220,Plum Point Energy Station,AR,35.6644,-89.9489,2010,Coal,720,3579835000.0,35408538.771,3713368.926,Wind,51.7225639949065,3713368.926,0.7021775406789996,0.6984641717529997,Coal→Wind,702177540.6789997,1384.6153846153848
1237,Wygen III,WY,44.2919,-105.3806,2010,Coal,116,933026000.0,9668215.844,1014000.898,Wind,51.72585393096438,1014000.898,0.7031915415769997,0.7021775406789996,Coal→Wind,703191541.5769997,223.0769230769231
302,Asheville,NC,35.4731,-82.5417,1964,Gas_CC,1421,3057631000.0,22039315.643,1319492.146,Wind,51.926232066533714,1319492.146,0.7045110337229997,0.7031915415769997,Gas_CC→Wind,704511033.7229997,2732.6923076923076
876,Androscoggin Energy Center,ME,44.506315,-70.242312,1999,Gas_SC,162,374378000.0,4668678.569,277735.255,Wind,52.152078563682466,277735.255,0.7047887689779997,0.7045110337229997,Gas_SC→Wind,704788768.9779997,311.53846153846155
1253,Cedar Bayou 4,TX,29.751645,-94.92312,2009,Gas_CC,534,1142069000.0,12884676.997,765719.9619999999,Wind,52.425310864436916,765719.9619999999,0.7055544889399997,0.7047887689779997,Gas_CC→Wind,705554488.9399997,1026.923076923077
316,Cardinal,OH,40.2522,-80.6486,1967,Coal,1880,9760784000.0,98432593.129,10088892.151,Wind,52.4763392367978,10088892.151,0.7156433810909997,0.7055544889399997,Coal→Wind,715643381.0909997,3615.3846153846157
844,Ferndale Generating Station,WA,48.828996,-122.685114,1994,Gas_CC,283,755266000.0,9434462.148,560670.863,Wind,52.50739761192905,560670.863,0.7162040519539997,0.7156433810909997,Gas_CC→Wind,716204051.9539998,544.2307692307693
124,Noblesville,IN,40.0969,-85.9714,1950,Gas_CC,283,1199041000.0,12602113.486,748959.963,Wind,52.57422160204881,748959.963,0.7169530119169998,0.7162040519539997,Gas_CC→Wind,716953011.9169998,544.2307692307693
463,Martin,FL,27.0536,-80.5628,1980,Gas_CC,6069,11444544000.0,78574021.87,4670052.302,Wind,52.675990180545284,4670052.302,0.7216230642189999,0.7169530119169998,Gas_CC→Wind,721623064.2189999,11671.153846153846
951,Springdale 1 & 2,PA,40.546667,-79.768333,1999,Gas_SC,86,170621000.0,1629611.879,96846.165,Wind,53.00946687006736,96846.165,0.7217199103839999,0.7216230642189999,Gas_SC→Wind,721719910.3839998,165.38461538461542
592,Tiger Bay,FL,27.746369,-81.849446,1997,Gas_CC,277,517793000.0,5725426.534,340251.62,Wind,53.18941182799157,340251.62,0.7220601620039998,0.7217199103839999,Gas_CC→Wind,722060162.0039998,532.6923076923077
732,Hopewell Cogeneration,VA,37.291667,-77.281111,1990,Gas_CC,399,1501401000.0,17264209.884,1025984.208,Wind,53.58020048474757,1025984.208,0.7230861462119997,0.7220601620039998,Gas_CC→Wind,723086146.2119998,767.3076923076923
917,Manchief Electric Generating Station,CO,40.217143,-103.68504,2000,Gas_SC,300,470307000.0,4941013.271,293636.626,Wind,53.757214252288556,293636.626,0.7233797828379999,0.7230861462119997,Gas_SC→Wind,723379782.8379998,576.9230769230769
872,LSP-Whitewater LP,WI,42.855463,-88.72992,1997,Gas_CC,283,907411000.0,7202000.848999999,428152.137,Wind,53.885017462497366,428152.137,0.7238079349749997,0.7233797828379999,Gas_CC→Wind,723807934.9749998,544.2307692307693
158,Mill Creek (KY),KY,38.0525,-85.9103,1972,Coal,1715,7340568000.0,68286753.78299999,6995650.739,Wind,53.88881501025914,6995650.739,0.7308035857139997,0.7238079349749997,Coal→Wind,730803585.7139997,3298.0769230769233
456,W H Zimmer,OH,38.8675,-84.2289,1991,Coal,1425,6078823000.0,54657422.842,5591345.667,Wind,54.080358366167886,5591345.667,0.7363949313809998,0.7308035857139997,Coal→Wind,736394931.3809998,2740.3846153846157
666,Beatrice,NE,40.330184,-96.808153,2005,Gas_CC,245,732250000.0,6372835.377,378725.002,Wind,54.52328646416573,378725.002,0.7367736563829997,0.7363949313809998,Gas_CC→Wind,736773656.3829998,471.1538461538462
451,Pleasants Power Station,WV,39.366667,-81.294444,1979,Coal,1368,5439737000.0,51133697.24,5246313.091,Wind,54.584079272695895,5246313.091,0.7420199694739997,0.7367736563829997,Coal→Wind,742019969.4739997,2630.769230769231
1111,West Valley Generation Project,UT,40.6667,-112.0317,2001,Gas_SC,215,330479000.0,3349995.483,199087.061,Wind,54.739614686683765,199087.061,0.7422190565349998,0.7420199694739997,Gas_SC→Wind,742219056.5349997,413.46153846153845
232,Labadie,MO,38.562244,-90.837686,1970,Coal,2388,17359426000.0,163826168.915,17182089.668,Wind,54.90604663314651,17182089.668,0.7594011462029997,0.7422190565349998,Coal→Wind,759401146.2029997,4592.307692307692
1236,Niland Gas Turbine Plant,CA,33.238842,-115.504456,2008,Gas_SC,120,123628000.0,1066096.057,63357.516,Solar,54.94177197081637,63357.516,0.7594645037189998,0.7594011462029997,Gas_SC→Solar,759464503.7189997,375.0
312,Marshall (NC),NC,35.5975,-80.9658,1965,Coal,2118,6545010000.0,59710933.33499999,6104876.479,Wind,55.71827437348537,6104876.479,0.7655693801979997,0.7594645037189998,Coal→Wind,765569380.1979997,4073.0769230769233
873,Sweeny Cogen Facility,TX,29.0728,-95.745,1997,Gas_SC,572,3243291000.0,55995276.912,3327820.999,Wind,56.165344685074764,3327820.999,0.7688972011969997,0.7655693801979997,Gas_SC→Wind,768897201.1969997,1100.0
977,Jack County,TX,33.101,-97.9574,2006,Gas_CC,1280,3449553000.0,24172733.752,1436549.3739999998,Wind,56.72366746018152,1436549.3739999998,0.7703337505709996,0.7688972011969997,Gas_CC→Wind,770333750.5709996,2461.5384615384614
1158,Prairie State Generating Station,IL,38.279167,-89.666944,2012,Coal,1766,12152389000.0,126592426.127,12988380.74,Wind,57.218244082900235,12988380.74,0.7833221313109996,0.7703337505709996,Coal→Wind,783322131.3109996,3396.1538461538466
1241,Dry Fork Station,WY,44.388889,-105.460833,2011,Coal,483,3531084000.0,34473079.203,3615537.429,Wind,57.34109646552228,3615537.429,0.7869376687399997,0.7833221313109996,Coal→Wind,786937668.7399997,928.8461538461539
495,Rush Island,MO,38.131248,-90.263157,1976,Coal,1242,7865413000.0,71684445.991,7518268.246,Wind,57.41873476682991,7518268.246,0.7944559369859997,0.7869376687399997,Coal→Wind,794455936.9859997,2388.4615384615386
1214,Quail Run Energy Center,TX,31.8414,-102.315,2002,Gas_CC,548,1683678000.0,14628847.316,869366.746,Wind,57.478735339379035,869366.746,0.7953253037319997,0.7944559369859997,Gas_CC→Wind,795325303.7319998,1053.8461538461538
420,John E Amos,WV,38.4731,-81.8233,1971,Coal,2932,11396439000.0,109028027.615,11181736.999,Wind,58.128817182742694,11181736.999,0.8065070407309997,0.7953253037319997,Coal→Wind,806507040.7309997,5638.461538461539
499,Coronado,AZ,34.5789,-109.2708,1979,Coal,820,3000622000.0,32998176.892,3460853.88,Solar,58.64615118474545,3460853.88,0.8099678946109997,0.8065070407309997,Coal→Solar,809967894.6109997,2562.5
280,East River,NY,40.7281,-73.9742,1951,Gas_SC,716,2593206000.0,36564742.325,2173868.175,Wind,58.718061553939286,2173868.175,0.8121417627859997,0.8099678946109997,Gas_SC→Wind,812141762.7859997,1376.923076923077
1287,Lonesome Creek Station,ND,47.796667,-103.57861,2013,Gas_SC,300,821494000.0,7924271.921,470934.657,Wind,58.936098041303744,470934.657,0.8126126974429996,0.8121417627859997,Gas_SC→Wind,812612697.4429996,576.9230769230769
294,Bethlehem Energy Center,NY,42.594196,-73.763752,1952,Gas_CC,1292,3346011000.0,34172719.047,2030841.502,Wind,58.98860187577562,2030841.502,0.8146435389449995,0.8126126974429996,Gas_CC→Wind,814643538.9449996,2484.6153846153848
310,James E. Rogers Energy Complex,NC,35.22,-81.7594,1940,Coal,2540,5789040000.0,50317830.194,4597599.933,Wind,59.05075854269821,4597599.933,0.8192411388779995,0.8146435389449995,Coal→Wind,819241138.8779995,4884.615384615386
1242,Deer Creek Station,SD,44.290833,-96.526667,2012,Gas_CC,324,781776000.0,6080891.311,361376.841,Wind,59.59367593254701,361376.841,0.8196025157189996,0.8192411388779995,Gas_CC→Wind,819602515.7189995,623.0769230769231
327,Kyger Creek,OH,38.9144,-82.1289,1955,Coal,1085,5271043000.0,51540009.535,5287990.864,Wind,59.85704677893321,5287990.864,0.8248905065829994,0.8196025157189996,Coal→Wind,824890506.5829995,2086.5384615384614
156,Ghent,KY,38.7497,-85.035,1974,Coal,2224,10911256000.0,102797458.607,10547018.842,Wind,60.23566261822085,10547018.842,0.8354375254249995,0.8248905065829994,Coal→Wind,835437525.4249995,4276.923076923077
221,Chevron Oil,MS,30.34,-88.4919,1967,Gas_SC,169,600125000.0,6774642.308,402605.776,Wind,61.098368793760805,402605.776,0.8358401312009995,0.8354375254249995,Gas_SC→Wind,835840131.2009995,325.00000000000006
1230,Black Mountain Generating Station,AZ,35.0361,-114.1594,2008,Gas_SC,120,180993000.0,1687855.524,100307.529,Wind,61.22802847986464,100307.529,0.8359404387299996,0.8358401312009995,Gas_SC→Wind,835940438.7299995,230.76923076923077
689,"Gavin Power, LLC",OH,38.9347,-82.1158,1974,Coal,2600,14344976000.0,146937430.286,15074332.081,Wind,61.422517318717496,15074332.081,0.8510147708109995,0.8359404387299996,Coal→Wind,851014770.8109995,5000.0
520,Mountaineer,WV,38.9794,-81.9344,1980,Coal,1300,5764921000.0,53620440.307,5491899.428,Wind,62.11570064905548,5491899.428,0.8565066702389995,0.8510147708109995,Coal→Wind,856506670.2389995,2500.0
49,Comanche (CO),CO,38.2081,-104.5747,1973,Coal,1634,4648786000.0,47269634.09,4883250.386,Solar,62.3684393232532,4883250.386,0.8613899206249995,0.8565066702389995,Coal→Solar,861389920.6249995,5106.249999999999
994,Whiting Clean Energy,IN,41.6739,-87.4775,2002,Gas_CC,575,2259294000.0,26051463.417,1548203.317,Wind,63.090283877659125,1548203.317,0.8629381239419995,0.8613899206249995,Gas_CC→Wind,862938123.9419996,1105.769230769231
1057,Athens Generating Plant,NY,42.2728,-73.8492,2003,Gas_CC,1218,2004534000.0,14098037.034,837827.477,Wind,63.30594552739324,837827.477,0.8637759514189995,0.8629381239419995,Gas_CC→Wind,863775951.4189996,2342.3076923076924
461,H L Spurlock,KY,38.7,-83.8181,1977,Coal,1607,8104889000.0,73851755.807,7577184.401000001,Wind,63.9948370163112,7577184.401000001,0.8713531358199996,0.8637759514189995,Coal→Wind,871353135.8199996,3090.3846153846152
933,Lost Pines 1 Power Project,TX,30.1478,-97.2714,2001,Gas_CC,608,1940683000.0,21070905.502,1252212.01,Wind,64.6263926971076,1252212.01,0.8726053478299995,0.8713531358199996,Gas_CC→Wind,872605347.8299996,1169.2307692307693
634,Sand Hill,TX,30.2098,-97.6129,2001,Gas_CC,694,1653851000.0,12772728.073,759015.837,Wind,64.72614362363664,759015.837,0.8733643636669995,0.8726053478299995,Gas_CC→Wind,873364363.6669996,1334.6153846153845
272,Four Corners,NM,36.69,-108.4814,1963,Coal,2269,8243761000.0,80177568.04,8226212.118,Wind,65.4580472232156,8226212.118,0.8815905757849997,0.8733643636669995,Coal→Wind,881590575.7849996,4363.461538461538
843,Sumas Power Plant,WA,48.9905,-122.2733,1993,Gas_CC,124,335873000.0,4194252.959,249258.094,Wind,65.80696387674327,249258.094,0.8818398338789996,0.8815905757849997,Gas_CC→Wind,881839833.8789996,238.46153846153845
663,Sylvarena,MS,31.982076,-89.412714,2003,Gas_SC,141,239332000.0,2170681.193,128997.608,Wind,65.84444969907565,128997.608,0.8819688314869997,0.8818398338789996,Gas_SC→Wind,881968831.4869996,271.15384615384613
318,Miami Fort,OH,39.1128,-84.8036,1949,Coal,1441,7310885000.0,68113794.29,6988482.331,Wind,66.29203617254481,6988482.331,0.8889573138179996,0.8819688314869997,Coal→Wind,888957313.8179996,2771.153846153846
1309,Cove Point LNG Terminal,MD,38.385456,-76.409796,1978,Gas_SC,224,1458257000.0,18978570.575,1012755.91,Wind,66.74303167480693,1012755.91,0.8899700697279995,0.8889573138179996,Gas_SC→Wind,889970069.7279996,430.7692307692308
1022,Wise County Power LLC,TX,33.0583,-97.9103,2004,Gas_CC,821,2545713000.0,18212781.737,1082361.37,Wind,66.78178109303384,1082361.37,0.8910524310979996,0.8899700697279995,Gas_CC→Wind,891052431.0979996,1578.846153846154
513,Pawnee,CO,40.2217,-103.6803,1981,Coal,552,3337217000.0,36728409.412,3851491.118,Wind,67.01260227085794,3851491.118,0.8949039222159996,0.8910524310979996,Coal→Wind,894903922.2159996,1061.5384615384617
1000,Jackson Generating Station,MI,42.2488,-84.3767,2002,Gas_CC,649,1874495000.0,14706656.312,873996.483,Wind,68.0363246686029,873996.483,0.8957779186989997,0.8949039222159996,Gas_CC→Wind,895777918.6989996,1248.076923076923
421,FirstEnergy Fort Martin Power Station,WV,39.710833,-79.9275,1967,Coal,1152,5568901000.0,50443729.948,5175523.081,Wind,68.10500192801794,5175523.081,0.9009534417799996,0.8957779186989997,Coal→Wind,900953441.7799996,2215.3846153846157
64,Bridgeport Station,CT,41.1706,-73.1844,1961,Gas_CC,1156,3720970000.0,23911423.42,1423097.917,Wind,68.54141884110395,1423097.917,0.9023765396969997,0.9009534417799996,Gas_CC→Wind,902376539.6969997,2223.0769230769233
692,Springerville,AZ,34.3186,-109.1639,1985,Coal,2176,8527353000.0,83732537.387,8777652.853,Solar,69.31167669758143,8777652.853,0.9111541925499997,0.9023765396969997,Coal→Solar,911154192.5499997,6800.0
1012,Westbrook Energy Center Power Plant,ME,43.6575,-70.375,2001,Gas_CC,563,1133481000.0,6961177.045,413690.835,Wind,69.61481484143494,413690.835,0.9115678833849997,0.9111541925499997,Gas_CC→Wind,911567883.3849998,1082.6923076923076
1219,Spindle Hill Energy Center,CO,40.092192,-104.887844,2007,Gas_SC,420,442192000.0,4690835.572,278890.855,Solar,69.66186173339902,278890.855,0.9118467742399998,0.9115678833849997,Gas_SC→Solar,911846774.2399998,1312.5
450,James H Miller Jr,AL,33.6319,-87.0597,1978,Coal,2820,17594945000.0,179699736.425,18846905.225,Wind,69.7709486793531,18846905.225,0.9306936794649998,0.9118467742399998,Coal→Wind,930693679.4649998,5423.076923076923
888,Mustang Station,TX,32.9728,-102.7417,1999,Gas_CC,520,1940590000.0,15329314.265,910999.778,Wind,71.28024415202059,910999.778,0.9316046792429998,0.9306936794649998,Gas_CC→Wind,931604679.2429998,1000.0000000000001
943,Dogwood Energy Facility,MO,38.7931,-94.3006,2001,Gas_CC,630,2210150000.0,16091225.231,956276.316,Wind,71.41638652273792,956276.316,0.9325609555589998,0.9316046792429998,Gas_CC→Wind,932560955.5589998,1211.5384615384617
572,San Jacinto Steam Electric Station,TX,29.694838,-95.040622,1995,Gas_SC,176,932261000.0,12785306.369,759890.8809999999,Wind,71.90463023069661,759890.8809999999,0.9333208464399998,0.9325609555589998,Gas_SC→Wind,933320846.4399998,338.46153846153845
82,Crystal River,FL,28.9656,-82.6977,1966,Coal,5299,15609828000.0,116870276.679,8557198.43,Wind,72.09954460625185,8557198.43,0.9418780448699998,0.9333208464399998,Coal→Wind,941878044.8699998,10190.384615384615
623,Lagoon Creek,TN,35.6578,-89.3964,2001,Gas_SC,1619,3862041000.0,25338618.622,1506225.597,Wind,73.16350372764732,1506225.597,0.9433842704669998,0.9418780448699998,Gas_SC→Wind,943384270.4669998,3113.4615384615386
1010,Decatur Energy Center,AL,34.6292,-87.0214,2002,Gas_CC,900,1553502000.0,11008537.459,654223.054,Wind,73.94406417793626,654223.054,0.9440384935209998,0.9433842704669998,Gas_CC→Wind,944038493.5209998,1730.7692307692307
1235,John W Turk Jr Power Plant,AR,33.649722,-93.811944,2012,Coal,609,3751582000.0,32814037.894,3441534.109,Wind,74.16057157383837,3441534.109,0.9474800276299997,0.9440384935209998,Coal→Wind,947480027.6299998,1171.1538461538462
270,PSEG Sewaren Generating Station,NJ,40.5558,-74.2469,1948,Gas_CC,1174,3787163000.0,24978556.542,1485966.328,Wind,74.18243849160517,1485966.328,0.9489659939579997,0.9474800276299997,Gas_CC→Wind,948965993.9579997,2257.6923076923076
796,Optim Energy Altura Cogen LLC,TX,29.8161,-95.10773,1985,Gas_CC,638,3400434000.0,38558836.591,2291515.129,Wind,74.38893207889176,2291515.129,0.9512575090869997,0.9489659939579997,Gas_CC→Wind,951257509.0869997,1226.923076923077
422,FirstEnergy Harrison Power Station,WV,39.384167,-80.3325,1972,Coal,2052,11779753000.0,104654602.334,10737557.678,Wind,74.39141121680653,10737557.678,0.9619950667649996,0.9512575090869997,Coal→Wind,961995066.7649996,3946.153846153846
383,Lewis Creek,TX,30.4356,-95.5214,1970,Gas_SC,542,2362997000.0,23027716.052,1368501.96,Wind,74.97959540834856,1368501.96,0.9633635687249996,0.9619950667649996,Gas_SC→Wind,963363568.7249997,1042.3076923076924
567,Hines Energy Complex,FL,27.788215,-81.869983,1999,Gas_CC,3296,7497927000.0,82539135.494,4905994.901000001,Wind,75.11200362094418,4905994.901000001,0.9682695636259997,0.9633635687249996,Gas_CC→Wind,968269563.6259997,6338.461538461539
851,Pratt & Whitney,CT,41.748327,-72.636693,1992,Gas_SC,25,85790000.0,985538.778,58569.66,Wind,75.52278787095756,58569.66,0.9683281332859996,0.9682695636259997,Gas_SC→Wind,968328133.2859997,48.07692307692308
883,Tiverton Power Plant,RI,41.6422,-71.1706,2000,Gas_CC,544,1634259000.0,11355303.976,674833.269,Wind,75.97169985327571,674833.269,0.9690029665549997,0.9683281332859996,Gas_CC→Wind,969002966.5549997,1046.1538461538462
887,Black Hawk Station,TX,35.6957,-101.36,1999,Gas_SC,369,1874490000.0,17991850.827,1064517.741,Wind,76.49164699773695,1064517.741,0.9700674842959998,0.9690029665549997,Gas_SC→Wind,970067484.2959998,709.6153846153848
566,State Line Combined Cycle,MO,37.0659,-94.614,1995,Gas_CC,690,2964912000.0,19529633.906,1160668.171,Wind,77.0222911930827,1160668.171,0.9712281524669998,0.9700674842959998,Gas_CC→Wind,971228152.4669998,1326.923076923077
938,Granite Ridge,NH,42.9042,-71.4261,2003,Gas_CC,790,2120035000.0,22565329.077,1341025.934,Wind,77.68953839579954,1341025.934,0.9725691784009998,0.9712281524669998,Gas_CC→Wind,972569178.4009998,1519.2307692307695
579,Midulla Generating Station,FL,27.641667,-81.9625,2002,Gas_CC,1408,2970151000.0,31501150.87,1872084.595,Wind,78.0609016528715,1872084.595,0.9744412629959999,0.9725691784009998,Gas_CC→Wind,974441262.9959998,2707.6923076923076
705,Colver Green Energy,PA,40.55,-78.8,1995,Coal,118,558903000.0,6389007.942,238324.927,Wind,78.40192835460128,238324.927,0.9746795879229999,0.9744412629959999,Coal→Wind,974679587.9229999,226.9230769230769
1285,Antelope Station,TX,33.865,-101.843333,2011,Gas_SC,162,778290000.0,6930909.28,411895.363,Wind,78.48377497701688,411895.363,0.9750914832859999,0.9746795879229999,Gas_SC→Wind,975091483.2859999,311.53846153846155
62,Stanton Energy Center,FL,28.4822,-81.1678,1987,Coal,1260,5925807000.0,54802139.683,4917903.897,Wind,79.12072844801081,4917903.897,0.9800093871829999,0.9750914832859999,Coal→Wind,980009387.1829998,2423.0769230769233
1089,Kiamichi Energy Facility,OK,34.6831,-95.9349,2003,Gas_CC,1366,5360668000.0,41298343.444,2454302.362,Wind,79.15047811942479,2454302.362,0.9824636895449999,0.9800093871829999,Gas_CC→Wind,982463689.5449998,2626.923076923077
1288,Lodi Energy Center,CA,38.088056,-121.3875,2012,Gas_CC,288,484453000.0,5065499.259,301036.417,Wind,79.47694307338128,301036.417,0.9827647259619999,0.9824636895449999,Gas_CC→Wind,982764725.9619999,553.8461538461539
881,Cherokee County Cogen,SC,35.0727,-81.613,1998,Gas_CC,101,238778000.0,2776713.647,165015.424,Wind,79.76570618036189,165015.424,0.9829297413859999,0.9827647259619999,Gas_CC→Wind,982929741.3859999,194.23076923076923
927,Hays Energy Project,TX,29.7806,-97.9894,2002,Gas_CC,986,2482393000.0,18268292.329,1085662.021,Wind,79.92921737130966,1085662.021,0.984015403407,0.9829297413859999,Gas_CC→Wind,984015403.407,1896.1538461538464
1058,Effingham County Power Project,GA,32.277252,-81.284411,2003,Gas_CC,595,1905950000.0,20766046.055,1234096.351,Wind,79.9611241419132,1234096.351,0.9852494997579999,0.984015403407,Gas_CC→Wind,985249499.7579999,1144.2307692307693
