,name,state,lat,lon,commissioning_year,primary_fuel,capacity,generation,fuel_consumption,emissions,rep_fuel,metric,em_red,cum_red,cum_red_prev,ori_rep,cum_emission
391,Wilkes,TX,32.848163,-94.547986,1964,Gas_SC,882,751984000.0,7860591.172,467167.276,Gas,-198.55904070201217,210564.62179177173,0.00021056462179177174,0.0,Gas_Gas,467167.276
385,Cedar Bayou,TX,29.75,-94.9256,1970,Gas_SC,2295,2006819000.0,20382213.632,1211289.521,Gas,-198.42962395868426,526494.2568514243,0.000737058878643196,0.00021056462179177174,Gas_Gas,1678456.797
3,Greene County,AL,32.6017,-87.7811,1965,Gas_SC,1288,1153839000.0,11641749.925,696954.552,Gas,-192.26441378483406,303225.2307259198,0.0010402841093691158,0.000737058878643196,Gas_Gas,2375411.349
460,Greenwood (MI),MI,43.1056,-82.6964,1979,Gas_SC,1070,1025811000.0,10833548.402,642438.498,Gas,-186.27782253105102,292396.7081268154,0.0013326808174959313,0.001040284109369116,Gas_Gas,3017849.847
291,Port Jefferson,NY,40.949696,-73.078507,1948,Gas_SC,590,600008000.0,6140145.224,369870.655,Gas,-177.80722904543725,165127.4086727236,0.0014978082261686552,0.0013326808174959313,Gas_Gas,3387720.5020000003
205,J B Sims,MI,43.0706,-86.235,1983,Coal,80,38619000.0,356919.835,36621.025,Gas,-176.79036297380605,23442.901658456074,0.0015212511278271112,0.0014978082261686552,Coal_Gas,3424341.5270000002
128,Whitewater Valley,IN,39.8028,-84.8953,1955,Coal,93,40843000.0,461185.104,47316.611,Gas,-176.06665734985293,33379.58281080094,0.0015546307106379122,0.0015212511278271112,Coal_Gas,3471658.1380000003
171,Little Gypsy,LA,30.005067,-90.461694,1961,Gas_SC,1249,1713462000.0,18307564.102,1087990.954,Gas,-172.25123555554612,503299.12932694936,0.0020579298399648616,0.0015546307106379122,Gas_Gas,4559649.092
809,Carr Street Generating Station,NY,43.06132,-76.08239,1993,Gas_CC,121,73459000.0,937994.117,55745.064,Gas,-170.72544594374932,30678.341336376514,0.002088608181301238,0.0020579298399648616,Gas_Gas,4615394.156
512,Dansby,TX,30.7217,-96.4608,1978,Gas_SC,203,184525000.0,2087481.998,124061.837,Gas,-170.663220326697,61095.59733562772,0.0021497037786368657,0.002088608181301238,Gas_Gas,4739455.993000001
279,Arthur Kill Generating Station,NY,40.591564,-74.200035,1959,Gas_SC,895,937632000.0,10129449.587,601846.01,Gas,-169.10388403885966,281893.9101274369,0.0024315976887643027,0.0021497037786368657,Gas_Gas,5341302.0030000005
166,Cooper,KY,36.9981,-84.5919,1965,Coal,343,176455000.0,1722022.663,176678.565,Gas,-167.79735767501157,116466.08528193031,0.002548063774046233,0.0024315976887643027,Coal_Gas,5517980.568000001
333,Mustang,OK,35.46988,-97.67498,1950,Gas_SC,995,1161180000.0,10664970.871,629325.727,Gas,-165.80425930574668,233091.40550710843,0.002781155179553341,0.002548063774046233,Gas_Gas,6147306.295000001
551,Hay Road,DE,39.7436,-75.5072,1989,Gas_CC,1193,1209513000.0,14348604.639,852744.125,Gas,-163.64824527705915,440016.9312041788,0.00322117211075752,0.002781155179553341,Gas_Gas,7000050.420000001
35,AES Huntington Beach LLC,CA,33.6439,-117.9792,1958,Gas_SC,1021,1322790000.0,9458494.236,562099.998,Gas,-160.8562064057764,110718.81840029801,0.0033318909291578176,0.0032211721107575195,Gas_Gas,7562150.4180000005
44,Haynes,CA,33.764741,-118.09913,1962,Gas_SC,2882,3802589000.0,28051436.0,1636605.754,Gas,-158.3614601420142,339032.361131252,0.0036709232902890697,0.0033318909291578176,Gas_Gas,9198756.172
17,Yucca,AZ,32.7214,-114.7106,1959,Gas_SC,421,425651000.0,4890130.695,290612.052,Gas,-157.56577276029063,145365.37605159343,0.003816288666340663,0.0036709232902890697,Gas_Gas,9489368.224
331,Horseshoe Lake,OK,35.50866,-97.17969,1958,Gas_SC,973,1100144000.0,11918441.24,708294.052,Gas,-156.79038873670237,332887.30077755766,0.004149175967118221,0.003816288666340663,Gas_Gas,10197662.275999999
782,Frontier,OK,35.439722,-97.625,1989,Gas_CC,131,224609000.0,1829087.25,90563.621,Gas,-148.74250219337813,13919.349899742621,0.004163095317017963,0.004149175967118221,Gas_Gas,10288225.896999998
95,Arvah B Hopkins,FL,30.4522,-84.4,1970,Gas_CC,1107,1412279000.0,11056639.06,657115.279,Gas,-148.5007591268828,175197.3926054192,0.004338292709623382,0.004163095317017963,Gas_Gas,10945341.175999997
447,Barney M Davis,TX,27.6064,-97.3117,1974,Gas_CC,1081,1335596000.0,10299947.489,612109.759,Gas,-148.45085742822502,156358.73431078735,0.0044946514439341695,0.004338292709623382,Gas_Gas,11557450.934999997
404,Sim Gideon,TX,30.1456,-97.2708,1965,Gas_SC,623,680051000.0,6856742.529,407490.218,Gas,-147.7559865575845,175433.56307521457,0.004670085007009384,0.0044946514439341695,Gas_Gas,11964941.152999997
149,Chanute 2,KS,37.6953,-95.4586,1965,Gas_SC,64,243288000.0,3269468.305,193589.122,Gas,-146.65228774696544,110570.93738834411,0.0047806559443977275,0.004670085007009384,Gas_Gas,12158530.274999997
308,G G Allen,NC,35.1897,-81.0122,1957,Coal,1148,638355000.0,5705477.373,585379.488,Gas,-145.11591892926958,367550.934031972,0.005148206878429699,0.0047806559443977275,Coal_Gas,12743909.762999997
863,Milford Power LP,MA,42.129361,-71.511496,1993,Gas_CC,248,207225000.0,1756061.57,104361.763,Gas,-143.85553684780032,33649.50712979518,0.005181856385559494,0.005148206878429699,Gas_Gas,12848271.525999997
224,Baxter Wilson,MS,32.2831,-90.9306,1967,Gas_SC,1327,1577580000.0,15533548.14,923362.417,Gas,-143.2767375037772,385038.1770882242,0.0055668945626477185,0.005181856385559494,Gas_Gas,13771633.942999996
854,NAEA Lakewood LLC,NJ,40.0613,-74.1686,1994,Gas_CC,235,165175000.0,1943860.847,115518.244,Gas,-140.86930970289146,59154.885991260315,0.005626049448638979,0.0055668945626477185,Gas_Gas,13887152.186999997
136,Ames Electric Services Power Plant,IA,42.0258,-93.6089,1968,Gas_SC,108,263519000.0,3554398.289,210709.305,Gas,-140.50546661610895,120787.61140771864,0.005746837060046698,0.005626049448638979,Gas_Gas,14097861.491999997
321,Conesville,OH,40.1842,-81.8811,1957,Coal,2172,1177468000.0,11834871.111,1213470.392,Gas,-140.36982897894038,811678.0479537781,0.006558515108000476,0.005746837060046698,Coal_Gas,15311331.883999996
407,O W Sommers,TX,29.308056,-98.3242,1972,Gas_SC,892,979976000.0,10762585.211,639604.099,Gas,-138.82629451659162,305202.7784129095,0.0068637178864133855,0.006558515108000476,Gas_Gas,15950935.982999995
718,Greenleaf 2 Power Plant,CA,39.1365,-121.6397,1989,Gas_SC,49,63901000.0,647270.177,38468.761,Gas,-130.87880431980108,16663.554763484335,0.00688038144117687,0.0068637178864133855,Gas_Gas,15989404.743999995
363,Urquhart,SC,33.435,-81.9111,1953,Gas_CC,755,1363832000.0,15099214.228,899655.8539999999,Gas,-130.39018170842994,434269.7406064751,0.007314651181783345,0.00688038144117687,Gas_Gas,16889060.597999994
116,Harding Street,IN,39.711319,-86.196867,1941,Gas_SC,1176,1737404000.0,17931821.542,1065762.083,Gas,-127.71845139226521,472900.4292520578,0.007787551611035403,0.007314651181783345,Gas_Gas,17954822.680999994
168,R S Nelson,LA,30.2844,-93.2911,1959,Gas_SC,1594,1017215000.0,11279371.814,1182981.035,Gas,-127.18367268886787,835872.4942592089,0.008623424105294611,0.007787551611035403,Gas_Gas,19137803.715999994
378,Nueces Bay,TX,27.819412,-97.419203,1949,Gas_CC,941,1252086000.0,9111852.548,541505.7170000001,Gas,-123.93038788668541,114251.1598592049,0.008737675265153816,0.008623424105294611,Gas_Gas,19679309.432999995
106,Powerton,IL,40.5408,-89.6786,1972,Coal,1784,1043563000.0,12096674.75,1286625.38,Gas,-120.72779079638336,930526.0007133377,0.009668201265867152,0.008737675265153816,Coal_Gas,20965934.812999994
682,Gerald Andrus,MS,33.35,-91.1167,1975,Gas_SC,781,1038230000.0,11519664.597,684678.854,Gas,-120.6561962740212,330399.27667041746,0.00999860054253757,0.009668201265867152,Gas_Gas,21650613.666999992
351,New Castle Plant,PA,40.937939,-80.369007,1939,Gas_SC,424,595298000.0,6338136.165,376668.958,Gas,-116.92428062197868,173532.92472688528,0.010172133467264454,0.00999860054253757,Gas_Gas,22027282.624999993
710,Castleton Energy Center,NY,42.5375,-73.7433,1992,Gas_CC,72,81970000.0,739155.058,43928.712,Gas,-114.80775003806967,15957.745110480446,0.010188091212374935,0.010172133467264454,Gas_Gas,22071211.336999994
370,Allen,TN,35.074087,-90.14868,1959,Gas_CC,2764,3815383000.0,24638356.599,1464222.803,Gas,-114.07795016924713,162283.6598520705,0.010350374872227005,0.010188091212374935,Gas_Gas,23535434.139999993
740,Masspower,MA,42.1575,-72.5225,1993,Gas_CC,260,256404000.0,2995553.975,178018.8,Gas,-111.8772145431326,90524.9876986657,0.01044089985992567,0.010350374872227005,Gas_Gas,23713452.939999994
379,Victoria,TX,28.7883,-97.01,1955,Gas_CC,712,966155000.0,7497727.98,445582.317,Gas,-111.51998531591288,115897.19420942094,0.010556797054135092,0.01044089985992567,Gas_Gas,24159035.256999996
155,E W Brown,KY,37.78831,-84.71257,1957,Gas_SC,1748,1458548000.0,15795745.82,1516834.619,Gas,-109.93603312849982,1019128.1676790903,0.011575925221814182,0.010556797054135092,Gas_Gas,25675869.875999995
334,Seminole,OK,34.96645,-96.7258,1971,Gas_SC,1724,2667360000.0,28228357.389,1677574.715,Gas,-109.43816086637227,767380.2750533259,0.012343305496867508,0.011575925221814182,Gas_Gas,27353444.590999994
19,H Wilson Sundt Generating Station,AZ,32.16,-110.9047,1958,Gas_SC,736,1016524000.0,10599106.418,629887.725,Gas,-108.0016348218348,283014.9770873249,0.012626320473954832,0.012343305496867508,Gas_Gas,27983332.315999996
838,Ocean State Power II,RI,42.0099,-71.6701,1991,Gas_CC,252,421685000.0,5073498.176,301591.385,Gas,-103.6708316653388,157698.04386535255,0.012784018517820185,0.012626320473954832,Gas_Gas,28284923.700999998
744,Las Vegas Generating Station,NV,36.2319,-115.1222,1994,Gas_CC,354,270089000.0,2819195.911,167537.117,Gas,-103.13358546139054,75373.51475255036,0.012859392032572735,0.012784018517820185,Gas_Gas,28452460.817999996
352,Brunner Island,PA,40.096111,-76.6962,1961,Gas_SC,1621,2060637000.0,19918795.885,1342783.238,Gas,-102.893964276324,639623.4319939135,0.013499015464566649,0.012859392032572735,Gas_Gas,29795244.055999994
371,Bull Run,TN,36.0211,-84.1567,1967,Coal,950,739769000.0,7270929.042,745998.767,Gas,-102.22501000062171,493564.2884725754,0.013992579753039225,0.013499015464566649,Coal_Gas,30541242.822999995
134,George Neal North,IA,42.299794,-96.361707,1964,Coal,1080,942043000.0,9719747.225,1019408.05,Gas,-97.97433481377512,697950.7660973079,0.014690530519136531,0.013992579753039225,Coal_Gas,31560650.872999996
810,Ocean State Power,RI,42.009722,-71.668909,1990,Gas_CC,252,442546000.0,5175091.072000001,307762.369,Gas,-96.96769214465448,156750.54134245066,0.014847281060478982,0.014690530519136531,Gas_Gas,31868413.241999995
8,Lowman Energy Center,AL,31.488019,-87.910747,1969,Coal,538,394730000.0,4043808.636,414894.287,Gas,-92.71394246326325,280198.91356703604,0.015127479974046018,0.014847281060478982,Coal_Gas,32283307.528999995
631,H L Culbreath Bayside Power Station,FL,27.9072,-82.4231,1965,Gas_CC,2785,5013603000.0,53789560.455,3196640.9220000003,Gas,-89.69403502308292,1485828.1428101026,0.016613308116856122,0.015127479974046018,Gas_Gas,35479948.451
42,El Centro Hybrid,CA,32.802222,-115.54,1952,Gas_CC,435,660521000.0,5363384.605,318738.575,Gas,-89.517936772859,93346.22388578329,0.016706654340741905,0.016613308116856122,Gas_Gas,35798687.026
107,Waukegan,IL,42.3833,-87.8133,1952,Coal,914,747412000.0,7877858.9,832780.45,Gas,-88.78456348407883,577737.918527149,0.017284392259269053,0.016706654340741905,Coal_Gas,36631467.476
185,Morgantown Generating Plant,MD,38.3592,-76.9767,1970,Coal,1548,1259835000.0,12531503.731,1284643.79,Gas,-88.30056511702541,854745.009089205,0.01813913726835826,0.017284392259269053,Coal_Gas,37916111.266
100,Yates,GA,33.4622,-84.8986,1950,Gas_SC,1484,2428382000.0,25020975.687,1486953.61,Gas,-86.41569423492982,658306.635288456,0.018797443903646713,0.01813913726835826,Gas_Gas,39403064.876
629,Encogen,WA,48.746,-122.486,1993,Gas_CC,175,258757000.0,3304024.002,196358.765,Gas,-84.24460926146162,108062.02863997304,0.01890550593228669,0.018797443903646713,Gas_Gas,39599423.641
73,Brandon Shores,MD,39.18,-76.5389,1984,Coal,1370,1148597000.0,12187110.157,1250397.931,Gas,-82.63949812300474,858457.3593713373,0.019763963291658027,0.01890550593228669,Coal_Gas,40849821.572000004
84,Crist,FL,30.5661,-87.2244,1945,Coal,1226,1308078000.0,14486362.104,1263481.962,Gas,-82.62101690838325,817121.0198637433,0.02058108431152177,0.019763963291658027,Coal_Gas,42113303.534
103,Grand Tower Energy Center LLC,IL,37.6577,-89.511161,1951,Gas_CC,639,1171248000.0,11380872.664,676329.532,Gas,-81.89328659835488,276659.664641015,0.020857743976162784,0.02058108431152177,Gas_Gas,42789633.066
93,C D McIntosh Jr,FL,28.0801,-81.9229,1970,Gas_CC,1409,2031202000.0,21820771.667,1583518.393,Gas,-79.41919718629511,890402.8154969391,0.021748146791659723,0.020857743976162784,Gas_Gas,44373151.459
86,Big Bend,FL,27.7944,-82.4036,1969,Coal,2076,3335206000.0,40258076.805,2852606.378,Gas,-78.80619499405131,1714520.0464674032,0.02346266683812713,0.021748146791659723,Coal_Gas,47225757.837
96,S O Purdom,FL,30.162304,-84.200673,1963,Gas_CC,350,663452000.0,6650960.348,395280.832,Gas,-77.37538868769276,168888.32346290682,0.023631555161590035,0.02346266683812713,Gas_Gas,47621038.669
759,Paris Energy Center,TX,33.6968,-95.5577,1989,Gas_CC,264,408641000.0,3474746.948,206500.832,Gas,-76.17261355685721,67058.54969305647,0.023698613711283092,0.023631555161590035,Gas_Gas,47827539.501
575,George Neal South,IA,42.3006,-96.3617,1979,Coal,695,759395000.0,7135139.05,748335.0499999999,Gas,-75.62152202099794,489203.5091793741,0.024187817220462465,0.023698613711283092,Coal_Gas,48575874.551
129,Lansing,IA,43.3359,-91.1675,1948,Coal,339,405557000.0,4329877.575,453574.457,Gas,-74.97722414993673,315184.5409476286,0.02450300176141009,0.024187817220462465,Coal_Gas,49029449.008
376,Kingston,TN,35.8992,-84.5194,1954,Coal,1700,1746724000.0,18878690.876,1958476.24,Gas,-74.5532589106045,1362434.283563143,0.025865436044973236,0.02450300176141009,Coal_Gas,50987925.248
679,Anclote,FL,28.184444,-82.788611,1974,Gas_SC,1112,2373107000.0,25707131.313,1527741.288,Gas,-73.5251972143621,717956.0333667551,0.02658339207833999,0.025865436044973236,Gas_Gas,52515666.536000006
197,Dan E Karn,MI,43.644996,-83.840074,1959,Gas_SC,1945,1828950000.0,20504908.273,2109575.665,Gas,-72.48804549405939,1485475.3857199368,0.028068867464059927,0.02658339207833999,Gas_Gas,54625242.201000005
160,Elmer Smith,KY,37.7942,-87.0608,1964,Coal,445,501812000.0,4914382.851,504216.512,Gas,-72.0822108179505,332981.09859554,0.028401848562655468,0.028068867464059927,Coal_Gas,55129458.71300001
6,Dolet Hills,LA,32.030556,-93.569167,1986,Coal,720,793116000.0,7632777.63,830981.316,Gas,-70.42646962292882,560343.0169204808,0.028962191579575948,0.028401848562655468,Coal_Gas,55960440.02900001
694,Cheswick Power Plant,PA,40.5383,-79.7906,1970,Coal,637,645388000.0,6543784.6620000005,665475.228,Gas,-69.93348025391685,445246.7739449403,0.029407438353520887,0.028962191579575948,Coal_Gas,56625915.25700001
335,Northeastern,OK,36.4317,-95.7008,1961,Coal,1949,3054286000.0,34998029.009,2688246.005,Gas,-69.87452698622035,1646019.1832710365,0.031053457536791923,0.029407438353520887,Coal_Gas,59314161.26200001
305,Roxboro,NC,36.4833,-79.0731,1966,Coal,2573,2310556000.0,55418825.502,5681613.894,Gas,-67.56491193445505,4893173.17944125,0.03594663071623317,0.03105345753679192,Coal_Gas,64995775.15600001
203,St Clair,MI,42.7642,-82.4719,1953,Coal,1923,1885094000.0,19903603.932,2087492.367,Gas,-67.43350706930867,1444233.8351269737,0.03739086455136015,0.03594663071623317,Coal_Gas,67083267.52300001
273,Rio Grande,NM,31.8047,-106.5472,1957,Gas_SC,397,928728000.0,9949978.056,591310.323,Gas,-67.19858764393031,274396.5723916101,0.03766526112375175,0.03739086455136015,Gas_Gas,67674577.84600002
469,Nearman Creek,KS,39.1681,-94.6975,1981,Coal,671,1208375000.0,13611277.482,1423278.426,Gas,-67.08579413502427,1010939.5567170526,0.03867620068046881,0.03766526112375175,Coal_Gas,69097856.27200001
87,Deerhaven Generating Station,FL,29.7592,-82.3878,1972,Coal,469,750718000.0,8258550.147,622402.804,Gas,-66.99069857153658,366232.1522814891,0.03904243283275029,0.03867620068046881,Coal_Gas,69720259.07600002
364,Wateree,SC,33.8264,-80.6228,1970,Coal,770,914984000.0,8639431.337000001,886406.4909999999,Gas,-66.58733933969343,574182.6631551767,0.03961661549590546,0.03904243283275029,Coal_Gas,70606665.56700002
1079,Green Power 2,TX,29.378097,-94.932773,2003,Gas_CC,861,1322500000.0,48285090.776,2869502.616,Gas,-65.50877915252516,2418220.394316584,0.04203483589022205,0.03961661549590546,Gas_Gas,73476168.18300001
223,Jack Watson,MS,30.4392,-89.0286,1957,Gas_SC,1212,2392307000.0,23890945.719,1416769.574,Gas,-65.06394107306808,600432.622840236,0.042635268513062284,0.04203483589022205,Gas_Gas,74892937.75700001
717,Foster Wheeler Mt Carmel Cogen,PA,40.811189,-76.452951,1990,Coal,47,41791000.0,774489.808,91160.458,Gas,-63.408485966896905,76899.93979480406,0.04271216845285709,0.042635268513062284,Coal_Gas,74984098.21500002
268,PSEG Linden Generating Station,NJ,40.6217,-74.2072,1957,Gas_CC,2118,3409922000.0,24664883.538,1465896.209,Gas,-63.04331006644873,302314.22342180926,0.043014482676278894,0.04271216845285709,Gas_Gas,76449994.42400002
582,Rathdrum,ID,47.80427,-116.867312,1994,Gas_SC,166,164655000.0,1539881.405,91511.305,Gas,-61.482297619520274,35325.38877218687,0.043049808065051084,0.043014482676278894,Gas_Gas,76541505.72900003
332,Muskogee,OK,35.76135,-95.28732,1956,Gas_SC,1889,2887174000.0,31639775.147,2623045.207,Gas,-61.36308413335076,1637842.7139137278,0.04468765077896482,0.043049808065051084,Gas_Gas,79164550.93600003
813,Nassau Energy Corp,NY,40.7264,-73.5892,1991,Gas_CC,55,141677000.0,1775502.244,105527.713,Gas,-58.87183356832372,57182.676083976316,0.044744833455048795,0.04468765077896482,Gas_Gas,79270078.64900003
217,Hoot Lake,MN,46.290641,-96.043252,1914,Coal,137,213468000.0,2501980.075,262407.725,Gas,-58.58389224951104,189565.14405609417,0.04493439859910489,0.044744833455048795,Coal_Gas,79532486.37400003
290,Northport,NY,40.923565,-73.342323,1967,Gas_SC,1564,3136361000.0,31779700.968,1892666.569,Gas,-57.18874517659693,822432.9507911378,0.04575683154989602,0.04493439859910489,Gas_Gas,81425152.94300003
277,Cunningham,NM,32.7131,-103.3533,1957,Gas_SC,517,1345768000.0,14318869.367,850966.878,Gas,-57.0819404883139,391744.8190885086,0.046148576368984534,0.04575683154989602,Gas_Gas,82276119.82100004
287,E F Barrett,NY,40.616689,-73.647881,1956,Gas_SC,684,1469493000.0,15812832.339,941535.239,Gas,-56.75268511170604,440093.97942478023,0.046588670348409314,0.046148576368984534,Gas_Gas,83217655.06000003
274,Maddox,NM,32.714224,-103.301469,1963,Gas_SC,210,524387000.0,5440333.754,323309.838,Gas,-56.48221516128708,144371.06266396862,0.04673304141107328,0.046588670348409314,Gas_Gas,83540964.89800003
227,Hawthorn,MO,39.1306,-94.4778,1969,Coal,1045,2381292000.0,22713664.04,2263843.506,Gas,-55.68179047346613,1451265.2494881323,0.048184306660561414,0.04673304141107328,Coal_Gas,85804808.40400003
851,Pratt & Whitney,CT,41.748327,-72.636693,1992,Gas_SC,25,85790000.0,985538.778,58569.66,Gas,-55.435693116135575,29295.17848905841,0.04821360183905047,0.048184306660561414,Gas_Gas,85863378.06400003
479,R M Schahfer,IN,41.2164,-87.0261,1976,Coal,2200,3160356000.0,36912136.116,3810973.865,Gas,-54.907361624090626,2732552.3323039594,0.05094615417135443,0.04821360183905047,Coal_Gas,89674351.92900002
105,Kincaid Generation LLC,IL,39.590556,-89.496389,1967,Coal,1318,1624422000.0,16187689.842,1697765.107,Gas,-54.122479942840066,1143456.774968682,0.05208961094632311,0.05094615417135443,Coal_Gas,91372117.03600001
280,East River,NY,40.7281,-73.9742,1951,Gas_SC,716,2593206000.0,36564742.325,2173868.175,Gas,-53.820685672586464,1288977.6154818414,0.05337858856180495,0.05208961094632311,Gas_Gas,93545985.21100001
244,Lon Wright,NE,41.4281,-96.4623,1957,Coal,211,327347000.0,3305806.129,340384.907,Gas,-53.566499041355975,228682.9172673715,0.05360727147907232,0.05337858856180495,Coal_Gas,93886370.11800002
483,Sooner,OK,36.45307,-97.05279,1979,Coal,2088,2562602000.0,26416800.709,2765181.454,Gas,-53.32273474197954,1890734.0257577577,0.055498005504830084,0.05360727147907232,Coal_Gas,96651551.57200001
234,Sioux,MO,38.915479,-90.290247,1967,Coal,1098,3014662000.0,30181257.813,3165411.165,Gas,-51.62467214578103,2136705.4069776405,0.057634710911807725,0.055498005504830084,Coal_Gas,99816962.73700002
843,Sumas Power Plant,WA,48.9905,-122.2733,1993,Gas_CC,124,335873000.0,4194252.959,249258.094,Gas,-51.36529549275289,134646.7415285641,0.05776935765333629,0.057634710911807725,Gas_Gas,100066220.83100002
215,Allen S King,MN,45.03,-92.7786,1958,Coal,598,894925000.0,8883284.94,931679.661,Gas,-51.166649310272895,626300.6498544188,0.058395658303190705,0.05776935765333629,Coal_Gas,100997900.49200001
373,Gallatin (TN),TN,36.3156,-86.4006,1956,Coal,1914,2765308000.0,27983225.26,2853724.553,Gas,-50.9430560999875,1910106.9062106435,0.060305765209401355,0.058395658303190705,Coal_Gas,103851625.04500002
713,Bayou Cogen Plant,TX,29.6225,-95.0458,1984,Gas_SC,620,2322614000.0,32623627.833,1890563.488,Gas,-50.127152114067634,1098008.1715289182,0.061403773380930275,0.060305765209401355,Gas_Gas,105742188.53300002
255,Fort Churchill,NV,39.1281,-119.1322,1968,Gas_SC,230,660444000.0,7254595.796,431131.175,Gas,-47.86781913753525,205765.09891872815,0.061609538479849006,0.061403773380930275,Gas_Gas,106173319.70800002
138,Muscatine Plant #1,IA,41.3917,-91.0569,1958,Coal,293,811937000.0,9568391.947,1003529.785,Gas,-47.59764915871839,726469.1171535216,0.06233600759700252,0.061609538479849,Coal_Gas,107176849.49300002
348,Shawville,PA,41.06755,-78.366228,1954,Gas_SC,632,1481276000.0,15157043.114,900764.211,Gas,-47.513220806312646,395302.1889158233,0.06273130978591834,0.06233600759700252,Gas_Gas,108077613.70400001
394,Plant X,TX,34.1661,-102.4114,1952,Gas_SC,434,976440000.0,10435557.995,620181.384,Gas,-47.01074085790857,286986.66752321,0.06301829645344156,0.06273130978591834,Gas_Gas,108697795.08800001
580,Interstate,IL,39.8233,-89.5891,1997,Gas_SC,138,28619000.0,357420.039,21265.749,Gas,-46.76226434778886,11499.967599351468,0.06302979642104091,0.06301829645344156,Gas_Gas,108719060.83700001
860,Grays Ferry Cogeneration,PA,39.942219,-75.188069,1997,Gas_SC,192,865346000.0,12846683.748,638441.926,Gas,-46.37679465253265,343156.2810813933,0.06337295270212231,0.06302979642104091,Gas_Gas,109357502.76300001
508,John Twitty Energy Center,MO,37.151706,-93.38804,1976,Coal,603,1828216000.0,17677672.701,1796233.656,Gas,-45.98568784623266,1172383.8426183984,0.0645453365447407,0.06337295270212231,Coal_Gas,111153736.41900001
26,GREC,OK,36.190278,-95.2894,1981,Gas_CC,1734,2615424000.0,17736827.73,1099988.09,Gas,-45.03970509948458,207515.98915756028,0.06475285253389826,0.0645453365447407,Gas_Gas,112253724.50900002
51,Martin Drake,CO,38.824444,-104.833333,1962,Gas_SC,257,449750000.0,5251736.758,504985.454,Gas,-44.37793640050251,351515.37520822964,0.0651043679091065,0.06475285253389826,Gas_Gas,112758709.96300001
113,Dallman,IL,39.754803,-89.602389,1968,Coal,617,916183000.0,9252006.177,946787.427,Gas,-43.9542230596623,634154.4593564635,0.06573852236846296,0.0651043679091065,Coal_Gas,113705497.39000002
732,Hopewell Cogeneration,VA,37.291667,-77.281111,1990,Gas_CC,399,1501401000.0,17264209.884,1025984.208,Gas,-42.479082609685015,513654.8477597713,0.06625217721622273,0.06573852236846296,Gas_Gas,114731481.59800002
844,Ferndale Generating Station,WA,48.828996,-122.685114,1994,Gas_CC,283,755266000.0,9434462.148,560670.863,Gas,-42.313481094190706,302948.2781667699,0.0665551254943895,0.06625217721622273,Gas_Gas,115292152.46100003
873,Sweeny Cogen Facility,TX,29.0728,-95.745,1997,Gas_SC,572,3243291000.0,55995276.912,3327820.999,Gas,-40.65651595088681,2221099.208417143,0.06877622470280664,0.0665551254943895,Gas_Gas,118619973.46000002
433,Edgewater,WI,43.715142,-87.705863,1951,Coal,833,1189922000.0,12373316.499,1297712.24,Gas,-40.31084976106607,891670.165300587,0.06966789486810723,0.06877622470280664,Coal_Gas,119917685.70000002
313,R M Heskett,ND,46.8669,-100.8836,1954,Coal,203,459560000.0,5172104.727,561996.822,Gas,-40.00405746989626,405179.2357642113,0.07007307410387144,0.06966789486810723,Coal_Gas,120479682.52200001
162,Shawnee,KY,37.1517,-88.775,1953,Coal,1750,4089194000.0,44866116.756,4705547.174,Gas,-39.67789507103677,3310174.3549342193,0.07338324845880564,0.07007307410387144,Coal_Gas,125185229.69600001
529,R D Green,KY,37.6461,-87.5,1979,Coal,586,1302573000.0,13717138.673,1407376.869,Gas,-39.27666771389913,962894.4211022062,0.07434614287990786,0.07338324845880564,Coal_Gas,126592606.56500001
446,Thomas C Ferguson,TX,30.558,-98.3705,1974,Gas_CC,1020,2336710000.0,23833676.627,1416400.308,Gas,-39.18684919701587,619034.9543290321,0.0749651778342369,0.07434614287990786,Gas_Gas,128009006.87300001
514,Winyah,SC,33.33184,-79.357236,1975,Coal,1260,2631016000.0,26210305.23,2689178.031,Gas,-38.09587868401364,1791385.406603316,0.07675656324084021,0.0749651778342369,Coal_Gas,130698184.90400001
221,Chevron Oil,MS,30.34,-88.4919,1967,Gas_SC,169,600125000.0,6774642.308,402605.776,Gas,-36.851767766140725,197822.60527201512,0.07695438584611222,0.07675656324084021,Gas_Gas,131100790.68
9,Platte,NE,40.854765,-98.348222,1982,Coal,109,409993000.0,4842587.007,507889.874,Gas,-36.54108449254659,367986.2430626474,0.07732237208917486,0.07695438584611222,Coal_Gas,131608680.554
126,F B Culley,IN,37.9111,-87.3275,1955,Coal,414,1020047000.0,12318607.888,1258642.022,Gas,-36.43699478308994,910567.1060215476,0.07823293919519642,0.07732237208917486,Coal_Gas,132867322.576
881,Cherokee County Cogen,SC,35.0727,-81.613,1998,Gas_CC,101,238778000.0,2776713.647,165015.424,Gas,-36.37009206487467,83536.20560368794,0.07831647540080011,0.07823293919519642,Gas_Gas,133032338.0
498,Rockport,IN,37.9256,-87.0372,1984,Coal,2600,4358302000.0,41905763.266,4383521.255,Gas,-35.70130909744661,2896319.5844311714,0.08121279498523128,0.07831647540080011,Coal_Gas,137415859.255
114,Marion,IL,37.619747,-88.953114,1963,Coal,422,1000046000.0,12859348.206,1356548.317,Gas,-35.650403491223365,1015298.4261375323,0.08222809341136882,0.08121279498523128,Coal_Gas,138772407.572
505,Brame Energy Center,LA,31.395,-92.716667,1975,Coal,1706,5368708000.0,56392476.86,5593480.331,Gas,-34.73177466310453,3761493.5833179364,0.08598958699468676,0.08222809341136882,Coal_Gas,144365887.903
471,Jeffrey Energy Center,KS,39.286453,-96.117231,1978,Coal,2160,7742614000.0,77712558.28,8145164.31,Gas,-34.14361055521557,5503119.661563613,0.09149270665625037,0.08598958699468676,Coal_Gas,152511052.213
250,Sheldon,NE,40.5589,-96.7847,1961,Coal,227,563013000.0,5786358.566,606873.678,Gas,-34.094056547546366,414754.39068306604,0.09190746104693344,0.09149270665625037,Coal_Gas,153117925.891
384,Sabine,TX,30.0242,-93.878,1962,Gas_SC,2049,4956860000.0,50392669.797,2994758.426,Gas,-33.489420489171025,1303308.298685325,0.09321076934561877,0.09190746104693344,Gas_Gas,156112684.317
148,Lawrence Energy Center,KS,39.0072,-95.269167,1952,Coal,604,2137047000.0,21159756.632,2181852.158,Gas,-33.47786416541958,1452618.6472235317,0.0946633879928423,0.09321076934561877,Coal_Gas,158294536.475
530,Independence Steam Electric Station,AR,35.678442,-91.408761,1983,Coal,1800,3136187000.0,35188269.116000004,3688666.339,Gas,-31.601000276697082,2618492.0955409096,0.09728188008838322,0.0946633879928423,Coal_Gas,161983202.81399998
21,Cross,SC,33.371506,-80.113235,1984,Coal,2389,6832826000.0,71046981.476,7289416.468,Gas,-31.459498438552775,4957822.594535949,0.10223970268291915,0.09728188008838322,Coal_Gas,169272619.28199998
898,Taft Cogeneration Facility,LA,29.9888,-90.4599,2002,Gas_CC,892,3652995000.0,42945276.377,2552160.82,Gas,-31.404331714840918,1305634.0151618824,0.10354533669808105,0.10223970268291915,Gas_Gas,171824780.10199997
346,Homer City Generating Station,PA,40.512825,-79.196107,1969,Coal,2012,3413527000.0,33998054.615,3488198.994,Gas,-31.248044281668687,2323386.8591521163,0.10586872355723317,0.10354533669808105,Coal_Gas,175312979.09599996
518,Scherer,GA,33.0606,-83.8075,1982,Coal,3564,6455829000.0,71558364.304,7505037.866,Gas,-30.610479545131394,5302088.260005122,0.11117081181723829,0.10586872355723317,Coal_Gas,182818016.96199995
124,Noblesville,IN,40.0969,-85.9714,1950,Gas_CC,283,1199041000.0,12602113.486,748959.963,Gas,-30.206559729707976,339806.17368468444,0.11151061799092297,0.11117081181723829,Gas_Gas,183566976.92499995
4,E C Gaston,AL,33.244211,-86.458056,1960,Gas_SC,2033,4159470000.0,44005747.7,3832358.702,Gas,-29.79878428695498,2413005.3087103833,0.11392362329963335,0.11151061799092297,Gas_Gas,187399335.62699994
534,Louisa,IA,41.3181,-91.0931,1983,Coal,811,2046614000.0,19483009.331,2043380.589,Gas,-29.681127416177706,1345005.9100976312,0.11526862920973098,0.11392362329963335,Coal_Gas,189442716.21599993
252,North Omaha,NE,41.32909,-95.94466,1954,Coal,642,1947607000.0,20227757.291,2105599.714,Gas,-29.626496419820224,1441009.6089518545,0.11670963881868283,0.11526862920973098,Coal_Gas,191548315.92999992
241,Thomas Hill,MO,39.5522,-92.6381,1966,Coal,1181,7266410000.0,70350121.873,7377929.471,Gas,-29.461461883371477,4898381.910725829,0.12160802072940867,0.11670963881868283,Coal_Gas,198926245.4009999
294,Bethlehem Energy Center,NY,42.594196,-73.763752,1952,Gas_CC,1292,3346011000.0,34172719.047,2030841.502,Gas,-29.439769284184358,889068.1350002659,0.12249708886440892,0.12160802072940867,Gas_Gas,200957086.9029999
455,East Bend,KY,38.9036,-84.8514,1981,Coal,772,2492997000.0,26608833.796,2730062.755,Gas,-29.268926170244765,1879366.93283736,0.1243764557972463,0.12249708886440892,Coal_Gas,203687149.6579999
146,La Cygne,KS,38.3481,-94.6456,1973,Coal,1598,6650553000.0,65925746.963,6912975.648,Gas,-29.236630355834983,4643579.554795231,0.12902003535204154,0.1243764557972463,Coal_Gas,210600125.3059999
20,Oklaunion,TX,34.0825,-99.1753,1986,Coal,720,1209201000.0,12914358.63,1354458.972,Gas,-29.178397423924665,941838.2432727348,0.12996187359531428,0.12902003535204154,Coal_Gas,211954584.2779999
517,Ottumwa,IA,41.0961,-92.555833,1981,Coal,725,2751569000.0,28662182.975,3005151.0130000003,Gas,-28.82808465770498,2066221.58280324,0.1320280951781175,0.12996187359531428,Coal_Gas,214959735.29099992
293,Greenidge Generation LLC,NY,42.6789,-76.9483,1950,Gas_SC,162,392792000.0,3849053.684,228303.061,Gas,-28.369218727952433,94268.99943518158,0.1321223641775527,0.1320280951781175,Gas_Gas,215188038.3519999
480,Lewis & Clark,MT,47.6785,-104.15665,1958,Coal,68,256912000.0,3179862.54,345979.82,Gas,-27.698743525605906,258312.66072806824,0.13238067683828075,0.1321223641775527,Coal_Gas,215534018.1719999
358,Manchester Street,RI,41.8167,-71.4042,1995,Gas_CC,515,1107067000.0,13565120.175,804654.425,Gas,-27.270538871545874,426885.3094518758,0.13280756214773262,0.13238067683828075,Gas_Gas,216338672.5969999
784,Westwood Generation LLC,PA,40.6191,-76.45,1987,Coal,36,214724000.0,3723178.783,440344.765,Gas,-27.1099594997611,367073.59390831774,0.13317463574164096,0.13280756214773262,Coal_Gas,216779017.3619999
1309,Cove Point LNG Terminal,MD,38.385456,-76.409796,1978,Gas_SC,224,1458257000.0,18978570.575,1012755.91,Gas,-26.969363945171317,515148.7578295704,0.13368978449947053,0.13317463574164096,Gas_Gas,217791773.2719999
800,Salinas River Cogeneration,CA,35.9515,-120.8679,1991,Gas_SC,38,260005000.0,3338059.135,198378.541,Gas,-26.84516675055154,109655.94436574928,0.1337994404438363,0.13368978449947053,Gas_Gas,217990151.8129999
837,Birchwood Power,VA,38.2667,-77.3147,1996,Coal,258,99801000.0,1058633.744,108615.784,Gas,-26.687315190853713,74560.27019566987,0.13387400071403194,0.1337994404438363,Coal_Gas,218098767.5969999
393,Nichols,TX,35.283357,-101.746423,1960,Gas_SC,473,1351105000.0,14264860.448,847745.3369999999,Gas,-25.96682050233509,386702.1111946526,0.13426070282522662,0.13387400071403194,Gas_Gas,218946512.93399993
507,Tolk,TX,34.186494,-102.56999,1982,Coal,1134,2029709000.0,21336678.285,2222219.412,Gas,-25.912293129506907,1529613.2971487148,0.1357903161223753,0.13426070282522662,Coal_Gas,221168732.34599993
568,Redding Power,CA,40.507292,-122.423281,1989,Gas_CC,180,340140000.0,2737669.894,162700.347,Gas,-24.88449967483073,46632.94822238403,0.1358369490705977,0.1357903161223753,Gas_Gas,221331432.69299993
827,Indeck Olean Energy Center,NY,42.085944,-78.45425,1994,Gas_CC,90,87172000.0,748123.9500000001,44458.975,Gas,-24.230935676379477,14712.907832826659,0.13585166197843054,0.1358369490705977,Gas_Gas,221375891.66799992
133,Walter Scott Jr Energy Center,IA,41.18,-95.8408,1954,Coal,1777,5450692000.0,52232489.325,5478142.3,Gas,-24.20400883163732,3618179.8081496996,0.13946984178658023,0.13585166197843054,Coal_Gas,226854033.96799994
537,Sikeston Power Station,MO,36.8791,-89.6209,1981,Coal,261,1783184000.0,16880136.51,1770392.745,Gas,-24.116081980676014,1161909.3898466388,0.1406317511764269,0.13946984178658023,Coal_Gas,228624426.71299994
135,Burlington (IA),IA,40.7412,-91.116667,1968,Coal,288,1224617000.0,12458284.273,1305468.737,Gas,-23.833132314156934,887587.5419366504,0.14151933871836353,0.1406317511764269,Coal_Gas,229929895.44999993
569,Richard M Flynn,NY,40.8158,-73.064,1994,Gas_CC,170,384941000.0,4680842.066,278476.368,Gas,-23.75522720198669,147121.33609297857,0.1416664600544565,0.14151933871836353,Gas_Gas,230208371.81799993
510,Merom,IN,39.0694,-87.5108,1982,Coal,1080,2808884000.0,29308006.55,3007001.638,Gas,-23.69416448386706,2048514.3699689978,0.14371497442442552,0.1416664600544565,Coal_Gas,233215373.45599994
693,North Valmy,NV,40.881317,-117.151605,1981,Coal,566,1085346000.0,10399050.569,1090649.724,Gas,-23.427994978322893,720292.5563816945,0.14443526698080722,0.14371497442442552,Coal_Gas,234306023.17999995
416,Chesterfield,VA,37.3822,-77.3833,1952,Coal,1797,3645796000.0,30464363.285,2020768.003,Gas,-23.053421498529897,776697.7431251332,0.14521196472393236,0.14443526698080722,Coal_Gas,236326791.18299994
423,Mitchell (WV),WV,39.8297,-80.8153,1971,Coal,1632,3956208000.0,39052565.323,4000630.396,Gas,-22.90698247402462,2650636.9474694114,0.14786260167140178,0.14521196472393236,Coal_Gas,240327421.57899994
232,Labadie,MO,38.562244,-90.837686,1970,Coal,2388,17359426000.0,163826168.915,17182089.668,Gas,-22.76892595648991,11258459.927033003,0.15912106159843478,0.14786260167140178,Coal_Gas,257509511.24699995
12,Holcomb,KS,37.9308,-100.9725,1983,Coal,348,1590954000.0,15249576.28,1599375.823,Gas,-22.55210174252085,1056487.916976471,0.16017754951541127,0.15912106159843478,Coal_Gas,259108887.06999996
276,San Juan,NM,36.8006,-108.4386,1973,Coal,1848,5352045000.0,59622703.411,6249613.377,Gas,-21.931169766446924,4423312.6146940505,0.16460086213010533,0.16017754951541127,Coal_Gas,265358500.44699997
597,Essex,MO,36.868206,-89.840173,1999,Gas_SC,229,91668000.0,1062467.131,63140.718,Gas,-21.818161715980395,31860.461896200093,0.16463272259200154,0.16460086213010533,Gas_Gas,265421641.16499996
10,Whelan Energy Center,NE,40.580872,-98.312437,1981,Coal,324,1163179000.0,11683032.735,1225316.813,Gas,-21.656440945857483,828400.3643531236,0.16546112295635465,0.16463272259200154,Coal_Gas,266646957.97799996
240,New Madrid,MO,36.5147,-89.5617,1972,Coal,1300,6524903000.0,59087591.284,6197073.609999999,Gas,-20.890940717674294,3970553.593282581,0.16943167654963723,0.16546112295635465,Coal_Gas,272844031.58799994
90,Northside Generating Station,FL,30.4172,-81.5525,1966,Coal,1405,5080842000.0,55671482.453,4623721.522,Gas,-20.87652478280503,2889964.4968337156,0.17232164104647094,0.16943167654963723,Coal_Gas,277467753.10999995
454,Newton,IL,38.9361,-88.2781,1977,Coal,1234,2860079000.0,28793934.068,3019906.626,Gas,-20.824050707421154,2043949.873402584,0.17436559091987353,0.17232164104647094,Coal_Gas,280487659.73599994
572,San Jacinto Steam Electric Station,TX,29.694838,-95.040622,1995,Gas_SC,176,932261000.0,12785306.369,759890.8809999999,Gas,-19.98507072399652,441771.5499838917,0.17480736246985742,0.17436559091987353,Gas_Gas,281247550.6169999
452,White Bluff,AR,34.4228,-92.1406,1980,Coal,1800,4195667000.0,46014977.17,4824080.41,Gas,-19.960244336791856,3392375.362586924,0.17819973783244433,0.17480736246985742,Coal_Gas,286071631.02699995
493,Welsh,TX,33.05522,-94.839993,1977,Coal,1674,3587706000.0,38601790.456,4048551.427,Gas,-19.7750999565559,2824303.461459795,0.18102404129390412,0.17819973783244433,Coal_Gas,290120182.45399994
121,Michigan City,IN,41.7208,-86.9086,1950,Coal,680,1658109000.0,16260738.308,1705426.85,Gas,-19.769562242222918,1139623.361672388,0.18216366465557654,0.18102404129390412,Coal_Gas,291825609.30399996
210,Clay Boswell,MN,47.2611,-93.6528,1958,Coal,1072,4629537000.0,47968429.253,5023355.5940000005,Gas,-19.564645833946333,3443599.266797296,0.18560726392237384,0.18216366465557654,Coal_Gas,296848964.89799994
491,A B Brown,IN,37.9053,-87.715,1979,Coal,706,2369786000.0,25549087.069,2609644.344,Gas,-19.418105786773296,1800992.3281253264,0.18740825625049917,0.18560726392237384,Coal_Gas,299458609.2419999
728,Ebensburg Power,PA,40.455,-78.7472,1990,Coal,57,338299000.0,4743554.563,517889.946,Gas,-19.221747512838604,402450.75937370287,0.18781070700987285,0.18740825625049917,Coal_Gas,299976499.1879999
419,Transalta Centralia Generation,WA,46.755938,-122.859764,1972,Coal,1778,5470187000.0,60929479.257,6390281.626,Gas,-19.089855018355333,4523666.773535924,0.19233437378340879,0.18781070700987285,Coal_Gas,306366780.8139999
481,Sherburne County,MN,45.3808,-93.8931,1976,Coal,2468,9614564000.0,96765805.27,10148791.521,Gas,-18.318413393677528,6867973.5229377,0.19920234730634648,0.19233437378340876,Coal_Gas,316515572.3349999
495,Rush Island,MO,38.131248,-90.263157,1976,Coal,1242,7865413000.0,71684445.991,7518268.246,Gas,-18.146905365864875,4834320.3797636125,0.2040366676861101,0.19920234730634648,Coal_Gas,324033840.5809999
11,Escalante,NM,35.4159,-108.082,1984,Coal,257,637931000.0,6378643.973,668993.557,Gas,-18.04775447383472,451309.686330266,0.20448797737244034,0.2040366676861101,Coal_Gas,324702834.1379999
357,Hunlock Power Station,PA,41.200556,-76.07,1959,Gas_CC,145,269228000.0,2075792.719,123361.755,Gas,-17.310075982018475,31491.955393661454,0.20451946932783402,0.20448797737244034,Gas_Gas,324826195.8929999
783,Eagle Point Power Generation,NJ,39.8746,-75.1592,1990,Gas_CC,251,551910000.0,4437364.26,263724.553,Gas,-17.062416152278,75393.98894004227,0.20459486331677404,0.20451946932783402,Gas_Gas,325089920.44599986
540,D B Wilson,KY,37.4497,-87.0806,1984,Coal,509,2511569000.0,25905336.594,2657884.525,Gas,-16.849803847110145,1800851.3013847293,0.20639571461815875,0.20459486331677404,Coal_Gas,327747804.97099984
207,Erickson Station,MI,42.692222,-84.657222,1973,Coal,154,616427000.0,7461886.34,782601.455,Gas,-16.092263738364824,572255.4844399674,0.20696797010259874,0.20639571461815875,Coal_Gas,328530406.4259998
691,Coyote,ND,47.221447,-101.815722,1981,Coal,450,2540150000.0,26724753.022,2909520.876,Gas,-15.478128896217811,2042734.8378834564,0.20901070494048216,0.20696797010259874,Coal_Gas,331439927.3019998
470,Iatan,MO,39.4472,-94.98,1980,Coal,1725,7571663000.0,65703095.582,6890941.699,Gas,-15.41438315441014,4307231.377277415,0.21331793631775958,0.20901070494048216,Coal_Gas,338330869.0009998
111,Baldwin Energy Complex,IL,38.205,-89.8544,1970,Coal,1893,4473276000.0,42583477.514,4466151.61,Gas,-15.302980308291186,2939716.879199921,0.2162576531969595,0.21331793631775958,Coal_Gas,342797020.6109998
424,Mt Storm,WV,39.2008,-79.2636,1965,Coal,1680,5067481000.0,50102368.115,5140495.682,Gas,-15.179278161080532,3411297.8869009465,0.21966895108386045,0.2162576531969595,Coal_Gas,347937516.2929998
119,AES Petersburg,IN,38.5281,-87.2525,1967,Coal,2150,6925548000.0,70137795.295,7196134.229,Gas,-14.351850471793188,4832900.438591578,0.22450185152245203,0.21966895108386045,Coal_Gas,355133650.5219998
314,Leland Olds,ND,47.280769,-101.321213,1966,Coal,656,3386956000.0,34761578.759,3784483.071,Gas,-14.0316651853315,2628737.8699232694,0.2271305893923753,0.22450185152245203,Coal_Gas,358918133.59299976
49,Comanche (CO),CO,38.2081,-104.5747,1973,Coal,1634,4648786000.0,47269634.09,4883250.386,Gas,-13.506970146939034,3296925.641795266,0.23042751503417055,0.2271305893923753,Coal_Gas,363801383.97899973
13,Cholla,AZ,34.9394,-110.3033,1962,Coal,1127,3529723000.0,40707844.837,4176620.563,Gas,-13.03935637924198,2972158.3797356887,0.23339967341390624,0.23042751503417055,Coal_Gas,367978004.54199976
440,Genoa,WI,43.5589,-91.2325,1969,Coal,345,1006246000.0,10542454.298,1105690.912,Gas,-12.765018143882802,762325.3691341772,0.23416199878304042,0.23339967341390624,Coal_Gas,369083695.45399976
484,Nebraska City,NE,40.6214,-95.7764,1979,Coal,1389,8317716000.0,83716848.543,8770945.502,Gas,-12.763570091431268,5932656.3860743325,0.24009465516911477,0.23416199878304042,Coal_Gas,377854640.95599973
525,Antelope Valley,ND,47.370542,-101.83566,1984,Coal,954,6074541000.0,63158217.582,6876033.321,Gas,-12.702982363678101,4803192.218401135,0.2448978473875159,0.24009465516911477,Coal_Gas,384730674.2769997
485,Big Stone,SD,45.303652,-96.510067,1975,Coal,451,1744633000.0,19793030.226,2075891.345,Gas,-12.156881423667713,1480562.9092629845,0.2463784102967789,0.2448978473875159,Coal_Gas,386806565.62199974
876,Androscoggin Energy Center,ME,44.506315,-70.242312,1999,Gas_SC,162,374378000.0,4668678.569,277735.255,Gas,-11.720408298304653,149984.67988514638,0.24652839497666404,0.2463784102967789,Gas_Gas,387084300.87699974
431,South Oak Creek,WI,42.8457,-87.8294,1959,Coal,1258,3381674000.0,33900439.978,3553613.478,Gas,-11.695988392129928,2399670.6759364507,0.2489280656526005,0.24652839497666404,Coal_Gas,390637914.3549997
325,W H Sammis,OH,40.5317,-80.6319,1959,Coal,2464,5476431000.0,53871683.463,5650061.447,Gas,-11.133503592284335,3781315.9282280286,0.2527093815808285,0.2489280656526005,Coal_Gas,396287975.80199975
445,John P Madgett,WI,44.303583,-91.912647,1979,Coal,387,1566399000.0,17609570.054,1846887.813,Gas,-11.037108187328217,1312378.9126123395,0.2540217604934409,0.2527093815808285,Coal_Gas,398134863.6149998
372,Cumberland (TN),TN,36.3903,-87.6539,1973,Coal,2600,10186573000.0,101328432.745,10382601.489,Gas,-10.937497408055924,6906594.460810738,0.2609283549542516,0.2540217604934409,Coal_Gas,408517465.1039998
97,Bowen,GA,34.1256,-84.9222,1971,Coal,3538,8768072000.0,84573288.441,8677220.883,Gas,-10.794630234200838,5685254.900360942,0.2666136098546126,0.2609283549542516,Coal_Gas,417194685.9869998
487,Boardman,OR,45.693182,-119.808819,1980,Coal,642,1747200000.0,17715313.534,1857983.613,Gas,-10.791723014860468,1261779.2290867565,0.2678753890836993,0.2666136098546126,Coal_Gas,419052669.5999998
392,Jones,TX,33.5239,-101.7392,1971,Gas_SC,858,2817409000.0,28763007.782,1709344.851,Gas,-9.832261850543578,747948.5614643845,0.2686233376451637,0.2678753890836993,Gas_Gas,420762014.4509998
535,Warrick,IN,37.915,-87.3328,1960,Coal,821,5239879000.0,57585408.857,5908255.332,Gas,-9.685304605144433,4120229.444308298,0.272743567089472,0.2686233376451637,Coal_Gas,426670269.7829998
115,Clifty Creek,IN,38.7378,-85.4206,1955,Coal,1302,4881738000.0,48939578.429,5021194.772,Gas,-9.29778266777475,3355378.8398137195,0.2760989459292857,0.272743567089472,Coal_Gas,431691464.5549998
459,Belle River,MI,42.7756,-82.495,1981,Coal,1659,4950838000.0,49747806.267,5018291.802,Gas,-8.763792209863087,3328896.5870021326,0.2794278425162879,0.2760989459292857,Coal_Gas,436709756.3569998
475,Colstrip,MT,45.8831,-106.614,1975,Coal,2362,8885187000.0,86999147.495,9121047.328,Gas,-8.614752732853303,6089117.702720147,0.285516960219008,0.2794278425162879,Coal_Gas,445830803.6849998
543,Major Oak Power,TX,31.091925,-96.69503,1990,Coal,948,2702959000.0,28259329.438,3076585.624,Gas,-8.58784679075285,2154243.5879779323,0.28767120380698596,0.285516960219008,Coal_Gas,448907389.30899984
678,Belews Creek,NC,36.2811,-80.0603,1974,Coal,2490,5751348000.0,51475866.161,4846203.945,Gas,-8.26584252068995,2883647.3452915153,0.29055485115227747,0.28767120380698596,Coal_Gas,453753593.2539998
796,Optim Energy Altura Cogen LLC,TX,29.8161,-95.10773,1985,Gas_CC,638,3400434000.0,38558836.591,2291515.129,Gas,-7.649885982611075,1131170.7734553309,0.2916860219257328,0.29055485115227747,Gas_Gas,456045108.38299984
822,C R Wing Cogen Plant,TX,32.273178,-101.422386,1987,Gas_CC,229,643828000.0,6149831.097,365478.925,Gas,-7.292724175292063,145782.79628771995,0.2918318047220205,0.2916860219257328,Gas_Gas,456410587.30799985
22,Seminole (FL),FL,29.733056,-81.632778,1984,Coal,2278,7093448000.0,68315035.552,7009117.937,Gas,-7.145841042520122,4588590.925403944,0.29642039564742445,0.2918318047220205,Coal_Gas,463419705.2449998
158,Mill Creek (KY),KY,38.0525,-85.9103,1972,Coal,1715,7340568000.0,68286753.78299999,6995650.739,Gas,-6.2930507227269885,4490797.9333605375,0.300911193580785,0.29642039564742445,Coal_Gas,470415355.98399985
310,James E. Rogers Energy Complex,NC,35.22,-81.7594,1940,Coal,2540,5789040000.0,50317830.194,4597599.933,Gas,-6.130309116516272,2622181.5340478923,0.30353337511483286,0.300911193580785,Coal_Gas,475012955.9169999
536,Rawhide,CO,40.860905,-105.021207,1984,Gas_SC,798,2221328000.0,20670571.479,2088151.445,Gas,-5.97359148671424,1330158.3751114714,0.3048635334899443,0.30353337511483286,Gas_Gas,477101107.36199987
315,Milton R Young,ND,47.065854,-101.213093,1970,Coal,734,5172462000.0,51248532.513,5579430.04,Gas,-5.886723545326342,3814409.137971232,0.30867794262791554,0.3048635334899443,Coal_Gas,482680537.4019999
499,Coronado,AZ,34.5789,-109.2708,1979,Coal,820,3000622000.0,32998176.892,3460853.88,Gas,-5.720763777561536,2436939.050062658,0.31111488167797824,0.30867794262791554,Coal_Gas,486141391.2819999
458,Coal Creek,ND,47.377743,-101.157058,1979,Coal,1216,8841523000.0,87657916.149,9543316.525,Gas,-5.616722143123368,6526286.549570872,0.31764116822754906,0.31111488167797824,Coal_Gas,495684707.80699986
28,Thomas Fitzhugh,AR,35.462382,-93.804926,1963,Gas_CC,185,434792000.0,3751482.31,223336.403,Gas,-5.234812294885864,74970.50528342093,0.3177161387328325,0.31764116822754906,Gas_Gas,495908044.20999986
513,Pawnee,CO,40.2217,-103.6803,1981,Coal,552,3337217000.0,36728409.412,3851491.118,Gas,-5.211483368266638,2712718.564503089,0.32042885729733556,0.3177161387328325,Coal_Gas,499759535.32799983
156,Ghent,KY,38.7497,-85.035,1974,Coal,2224,10911256000.0,102797458.607,10547018.842,Gas,-5.193703213173686,6823725.194335347,0.3272525824916709,0.32042885729733556,Coal_Gas,510306554.16999984
476,Gerald Gentleman,NE,41.0808,-101.1408,1979,Coal,1362,7412380000.0,69650462.925,7304937.575,Gas,-5.018614844693984,4775580.059414579,0.33202816255108547,0.3272525824916709,Coal_Gas,517611491.7449998
388,W A Parish,TX,29.4828,-95.6311,1958,Coal,4005,11731786000.0,116339094.918,11373985.015,Gas,-4.804330526631166,7370698.474059058,0.3393988610251445,0.33202816255108547,Coal_Gas,528985476.7599998
365,Williams,SC,33.0158,-79.9297,1972,Coal,711,2923951000.0,26361645.203,2704237.285,Gas,-4.508116242197566,1706485.221957697,0.3411053462471022,0.3393988610251445,Coal_Gas,531689714.04499984
52,Hayden,CO,40.4856,-107.185,1965,Coal,465,2286358000.0,24115724.321,2474266.67,Gas,-4.274681607334809,1694083.1404698286,0.3427994293875721,0.3411053462471022,Coal_Gas,534163980.71499985
272,Four Corners,NM,36.69,-108.4814,1963,Coal,2269,8243761000.0,80177568.04,8226212.118,Gas,-4.24411610702326,5413158.976898223,0.3482125883644702,0.3427994293875721,Coal_Gas,542390192.8329998
420,John E Amos,WV,38.4731,-81.8233,1971,Coal,2932,11396439000.0,109028027.615,11181736.999,Gas,-3.960449829501385,7292882.321344402,0.3555054706858146,0.3482125883644702,Coal_Gas,553571929.8319998
442,Naughton,WY,41.7581,-110.5983,1963,Coal,832,2905299000.0,30338463.637,3056807.435,Gas,-3.8848305498947737,2065420.072145855,0.3575708907579605,0.3555054706858146,Coal_Gas,556628737.2669997
110,Joppa Steam,IL,37.2094,-88.858889,1953,Coal,1098,4492161000.0,44699839.569,4446866.1,Gas,-3.298184863286898,2913987.1614445397,0.36048487791940503,0.3575708907579605,Coal_Gas,561075603.3669997
53,McWilliams,AL,31.400255,-86.476449,1954,Gas_CC,653,2879239000.0,29887417.483,1776162.766,Gas,-3.014527536881956,793667.9662438284,0.36127854588564884,0.36048487791940503,Gas_Gas,562851766.1329998
509,Laramie River Station,WY,42.108889,-104.8825,1981,Coal,1710,8652304000.0,97551039.731,10231153.943,Gas,-2.981849870080636,7278691.960542301,0.36855723784619115,0.36127854588564884,Coal_Gas,573082920.0759997
457,Craig (CO),CO,40.4627,-107.5912,1979,Coal,1426,7639894000.0,80418011.579,8434235.936,Gas,-2.567623028724916,5827242.863980493,0.37438448071017166,0.36855723784619115,Coal_Gas,581517156.0119997
492,Flint Creek,AR,36.2561,-94.5241,1978,Coal,558,1992327000.0,20074444.36,2105410.454,Gas,-2.169203663320092,1425560.35579217,0.37581004106596383,0.37438448071017166,Coal_Gas,583622566.4659997
486,Wyodak,WY,44.290128,-105.381482,1978,Coal,402,2010496000.0,22292803.882,2338068.07,Gas,-1.8431617335176977,1652018.087719757,0.3774620591536835,0.37581004106596383,Coal_Gas,585960634.5359998
32,Limestone,TX,31.4219,-96.2525,1985,Coal,1849,6332172000.0,63944990.991,6702640.393999999,Gas,-1.6655830900520254,4541886.784743652,0.38200394593842724,0.3774620591536835,Coal_Gas,592663274.9299998
673,Columbia (WI),WI,43.4864,-89.4203,1975,Coal,1112,5644215000.0,59242619.219,6212741.745,Gas,-1.576229918756032,4286742.58820691,0.3862906885266341,0.38200394593842724,Coal_Gas,598876016.6749998
558,Clover,VA,36.869,-78.704,1995,Coal,848,1360680000.0,13959582.122,1432252.161,Gas,-1.4587976419960351,967941.6177862454,0.3872586301444203,0.3862906885266341,Coal_Gas,600308268.8359998
547,J K Spruce,TX,29.309722,-98.3203,1992,Coal,1444,5671932000.0,61814937.049,6342205.970000001,Gas,-1.3584934387053738,4406748.8250493305,0.3916653789694697,0.3872586301444203,Coal_Gas,606650474.8059999
489,Gibson,IN,38.372222,-87.765833,1975,Coal,3335,12883913000.0,121401225.622,12455766.038,Gas,-1.2759779561761981,8059334.368725259,0.3997247133381949,0.3916653789694697,Coal_Gas,619106240.8439999
25,Apache Station,AZ,32.0603,-109.8931,1963,Gas_SC,658,2354923000.0,24173837.737,1683841.084,Gas,-1.1630877789771028,880260.8319520793,0.400604974170147,0.3997247133381949,Gas_Gas,620790081.9279999
451,Pleasants Power Station,WV,39.366667,-81.294444,1979,Coal,1368,5439737000.0,51133697.24,5246313.091,Gas,-1.077637899293131,3390088.8197459504,0.40399506298989296,0.400604974170147,Coal_Gas,626036395.0189998
504,San Miguel,TX,28.7044,-98.4775,1982,Coal,410,2610918000.0,29608943.004,3223528.661,Gas,-0.8246372586562618,2332594.1614361275,0.4063276571513291,0.40399506298989296,Coal_Gas,629259923.6799998
500,Coleto Creek,TX,28.7128,-97.214167,1980,Coal,622,2705523000.0,28661161.895,3005980.887,Gas,-0.6757329096773815,2082763.926504287,0.40841042107783343,0.4063276571513291,Coal_Gas,632265904.5669998
102,E D Edwards,IL,40.5958,-89.6631,1960,Coal,779,3338667000.0,32727715.523,3432477.373,Gas,-0.4017096698115173,2293210.0299216593,0.41070363110775504,0.40841042107783343,Coal_Gas,635698381.9399998
461,H L Spurlock,KY,38.7,-83.8181,1977,Coal,1607,8104889000.0,73851755.807,7577184.401000001,Gas,0.2806345859451891,4811519.134899827,0.4155151502426549,0.41070363110775504,Coal_Gas,643275566.3409998
472,Trimble County,KY,38.5847,-85.4117,1990,Coal,2594,9717610000.0,84222695.172,8478734.484,Gas,0.9278007792401262,5162753.6671735495,0.4206779039098285,0.4155151502426549,Coal_Gas,651754300.8249998
441,Dave Johnston,WY,42.8378,-105.7769,1959,Coal,921,4779630000.0,51464143.522,5397569.887,Gas,1.1031623049455441,3766596.6959038144,0.4244445006057323,0.4206779039098285,Coal_Gas,657151870.7119998
583,Neil Simpson II,WY,44.2856,-105.3833,1995,Coal,130,786000000.0,9468885.876,960076.625,Gas,1.616391383391502,691866.548445622,0.42513636715417796,0.4244445006057323,Coal_Gas,658111947.3369998
122,Cayuga,IN,39.9242,-87.4244,1970,Coal,1182,4762761000.0,44187386.433,4526193.386,Gas,1.8094963031052178,2900976.4745239103,0.4280373436287019,0.42513636715417796,Coal_Gas,662638140.7229998
312,Marshall (NC),NC,35.5975,-80.9658,1965,Coal,2118,6545010000.0,59710933.33499999,6104876.479,Gas,1.8238834643395005,3871495.2663420234,0.4319088388950439,0.4280373436287019,Coal_Gas,668743017.2019998
635,Pirkey,TX,32.4607,-94.4852,1985,Coal,721,2379413000.0,22761955.815,2478093.857,Gas,1.9796289823464885,1666156.7795388263,0.43357499567458274,0.4319088388950439,Coal_Gas,671221111.0589998
172,Nine Mile Point,LA,29.9472,-90.1458,1951,Gas_SC,2788,9734496000.0,81544367.131,4846137.255,Gas,2.6604275786839997,1524394.3575721537,0.43509939003215486,0.43357499567458274,Gas_Gas,676067248.3139998
506,Harrington,TX,35.29816,-101.747187,1976,Coal,1080,3689626000.0,35342404.537,3685235.861,Gas,2.9205019568619957,2426209.3063981887,0.43752559933855306,0.43509939003215486,Coal_Gas,679752484.1749997
686,Jim Bridger,WY,41.7378,-108.7875,1974,Coal,2441,11336603000.0,117039764.935,12275116.354,Gas,2.979428163365726,8406679.765581945,0.445932279104135,0.43752559933855306,Coal_Gas,692027600.5289997
520,Mountaineer,WV,38.9794,-81.9344,1980,Coal,1300,5764921000.0,53620440.307,5491899.428,Gas,3.10723640112098,3524711.2565751383,0.4494569903607102,0.445932279104135,Coal_Gas,697519499.9569997
350,Keystone,PA,40.6604,-79.3411,1967,Coal,1880,7931612000.0,77364299.749,7937574.553,Gas,4.510151224182471,5231037.324349079,0.4546880276850593,0.4494569903607102,Coal_Gas,705457074.5099996
501,Fayette Power Project,TX,29.9172,-96.7506,1979,Coal,1690,9411477000.0,97702623.278,10247053.41,Gas,5.023893835594085,7035535.640712763,0.461723563325772,0.4546880276850593,Coal_Gas,715704127.9199996
198,J H Campbell,MI,42.910296,-86.20074,1962,Coal,1577,7290821000.0,70803324.577,7425853.869,Gas,5.571743445458742,4937976.440813909,0.4666615397665859,0.461723563325772,Coal_Gas,723129981.7889996
450,James H Miller Jr,AL,33.6319,-87.0597,1978,Coal,2820,17594945000.0,179699736.425,18846905.225,Gas,5.606211324540471,12842908.347875228,0.4795044481144612,0.4666615397665859,Coal_Gas,741976887.0139996
692,Springerville,AZ,34.3186,-109.1639,1985,Coal,2176,8527353000.0,83732537.387,8777652.853,Gas,5.71400563717171,5867828.424327983,0.48537227653878917,0.4795044481144612,Coal_Gas,750754539.8669996
201,Monroe (MI),MI,41.8906,-83.3464,1969,Coal,3288,14295504000.0,136084002.376,14276708.615,Gas,6.485313841118462,9398593.828456212,0.4947708703672454,0.48537227653878917,Coal_Gas,765031248.4819996
362,McMeekin,SC,34.0556,-81.2172,1958,Gas_SC,292,1105026000.0,9416088.506,558190.689,Gas,7.020002193567132,181118.0324420125,0.4949519883996874,0.4947708703672454,Gas_Gas,765589439.1709996
736,AES Warrior Run Cogeneration Facility,MD,39.595171,-78.745333,1999,Coal,229,949524000.0,11908738.447,1221680.864,Gas,7.137555097686946,897670.8070913241,0.4958496592067787,0.4949519883996874,Coal_Gas,766811120.0349996
494,Martin Lake,TX,32.2606,-94.5706,1977,Coal,3179,14044368000.0,135840242.896,14788925.215,Gas,7.430708441422792,9996506.61902308,0.5058461658258018,0.4958496592067787,Coal_Gas,781600045.2499996
592,Tiger Bay,FL,27.746369,-81.849446,1997,Gas_CC,277,517793000.0,5725426.534,340251.62,Gas,7.55697971096105,163562.94293979506,0.5060097287687416,0.5058461658258018,Gas_Gas,781940296.8699996
123,Edwardsport,IN,38.8067,-87.2472,1944,Coal,947,2897761000.0,23563498.544,2994571.452,Gas,8.438807605948714,2005756.312500902,0.5080154850812425,0.5060097287687416,Coal_Gas,784934868.3219997
421,FirstEnergy Fort Martin Power Station,WV,39.710833,-79.9275,1967,Coal,1152,5568901000.0,50443729.948,5175523.081,Gas,8.973653520980356,3275223.6363005694,0.5112907087175431,0.5080154850812425,Coal_Gas,790110391.4029996
345,Conemaugh,PA,40.3842,-79.0611,1970,Coal,1962,8186225000.0,76568322.164,7850456.132999999,Gas,9.13812382938072,5057036.242489358,0.5163477449600324,0.5112907087175431,Coal_Gas,797960847.5359997
733,Bear Mountain Limited,CA,35.419181,-118.926643,1995,Gas_SC,46,43642000.0,397448.05,23620.25,Gas,9.182975879129962,8728.107301544316,0.5163564730673339,0.5163477449600324,Gas_Gas,797984467.7859997
62,Stanton Energy Center,FL,28.4822,-81.1678,1987,Coal,1260,5925807000.0,54802139.683,4917903.897,Gas,9.432105612080196,2895815.921024848,0.5192522889883588,0.5163564730673339,Coal_Gas,802902371.6829996
689,"Gavin Power, LLC",OH,38.9347,-82.1158,1974,Coal,2600,14344976000.0,146937430.286,15074332.081,Gas,9.622177994290983,10179335.756406214,0.529431624744765,0.5192522889883588,Coal_Gas,817976703.7639996
316,Cardinal,OH,40.2522,-80.6486,1967,Coal,1880,9760784000.0,98432593.129,10088892.151,Gas,10.182939564469846,6758178.889077929,0.5361898036338428,0.529431624744765,Coal_Gas,828065595.9149996
556,Cope,SC,33.3644,-81.03,1996,Gas_SC,417,1028009000.0,9646353.337,693924.287,Gas,10.80724154385182,343132.46436820657,0.5365329360982111,0.5361898036338428,Gas_Gas,828759520.2019995
897,Dearborn Industrial Generation,MI,42.3026,-83.154,1999,Gas_SC,747,3573856000.0,43465600.9,2132402.875,Gas,10.960314701448958,912881.0030479347,0.5374458171012589,0.5365329360982111,Gas_Gas,830891923.0769995
327,Kyger Creek,OH,38.9144,-82.1289,1955,Coal,1085,5271043000.0,51540009.535,5287990.864,Gas,12.129061537843084,3489330.7538836915,0.5409351478551427,0.5374458171012589,Coal_Gas,836179913.9409995
765,Bethpage Power Plant,NY,40.7469,-73.4994,1989,Gas_CC,238,539271000.0,4442748.961,264031.917,Gas,12.399683001739037,80014.21191913995,0.5410151620670619,0.5409351478551427,Gas_Gas,836443945.8579996
625,Holden,MO,38.7538,-93.9983,2002,Gas_SC,321,240843000.0,2771409.671,164764.537,Gas,13.797190999372456,82580.66999289305,0.5410977427370548,0.5410151620670619,Gas_Gas,836608710.3949995
382,Newman,TX,31.983587,-106.431777,1960,Gas_CC,879,3118790000.0,29565593.574,1757096.285,Gas,14.256291339425239,692858.492815485,0.5417906012298703,0.5410977427370548,Gas_Gas,838365806.6799995
1082,Wygen 1,WY,44.2858,-105.3833,2003,Coal,90,770923000.0,8761068.827,918861.708,Gas,15.54170438469744,655796.4193899098,0.5424463976492603,0.5417906012298703,Coal_Gas,839284668.3879994
422,FirstEnergy Harrison Power Station,WV,39.384167,-80.3325,1972,Coal,2052,11779753000.0,104654602.334,10737557.678,Gas,15.696805395027164,6717903.156471164,0.5491643008057314,0.5424463976492603,Coal_Gas,850022226.0659994
614,John S Rainey,SC,34.347734,-82.774478,2001,Gas_CC,1632,4222107000.0,44888370.774,2667136.603,Gas,17.190707192919913,1226409.3234951966,0.5503907101292266,0.5491643008057314,Gas_Gas,852689362.6689994
438,Weston,WI,44.8606,-89.6553,1954,Coal,1161,4569811000.0,38439205.681,4025257.937,Gas,17.94532606605461,2465882.1632734872,0.5528565922925001,0.5503907101292266,Coal_Gas,856714620.6059995
318,Miami Fort,OH,39.1128,-84.8036,1949,Coal,1441,7310885000.0,68113794.29,6988482.331,Gas,18.392730569183605,4493758.379943697,0.5573503506724438,0.5528565922925001,Coal_Gas,863703102.9369994
994,Whiting Clean Energy,IN,41.6739,-87.4775,2002,Gas_CC,575,2259294000.0,26051463.417,1548203.317,Gas,18.466281582434917,777254.949698668,0.5581276056221425,0.5573503506724438,Gas_Gas,865251306.2539995
607,Bonanza,UT,40.0864,-109.2844,1986,Coal,609,3474383000.0,34851215.795,3575733.558,Gas,18.514884845202538,2390155.2750366037,0.560517760897179,0.5581276056221425,Coal_Gas,868827039.8119994
613,Smarr Energy Center,GA,32.9842,-83.8464,1999,Gas_SC,242,277558000.0,3503189.2800000003,208189.588,Gas,18.683347960833096,113477.30755689558,0.5606312382047359,0.560517760897179,Gas_Gas,869035229.3999995
456,W H Zimmer,OH,38.8675,-84.2289,1991,Coal,1425,6078823000.0,54657422.842,5591345.667,Gas,18.802912796581865,3517043.3995820433,0.564148281604318,0.5606312382047359,Coal_Gas,874626575.0669996
690,Ray D Nixon,CO,38.633451,-104.70577,1980,Coal,281,1384958000.0,12034998.047,1258624.29,Gas,19.089541580523576,786029.2630221396,0.5649343108673401,0.564148281604318,Coal_Gas,875885199.3569995
1211,Wygen 2,WY,44.2919,-105.3811,2008,Coal,95,783825000.0,8916959.037,935205.921,Gas,19.11378123367684,667738.0288177666,0.5656020488961578,0.5649343108673401,Coal_Gas,876820405.2779995
688,Huntington,UT,39.3792,-111.0781,1974,Coal,1037,4963083000.0,47834902.969,4907864.5600000005,Gas,19.19228728892964,3214290.9322955064,0.5688163398284535,0.5656020488961578,Coal_Gas,881728269.8379995
383,Lewis Creek,TX,30.4356,-95.5214,1970,Gas_SC,542,2362997000.0,23027716.052,1368501.96,Gas,19.61760159576367,562166.5830690004,0.5693785064115224,0.5688163398284535,Gas_Gas,883096771.7979995
497,Hunter,UT,39.1747,-111.0289,1978,Coal,1577,8738927000.0,84948794.276,8715742.669,Gas,21.01886288681583,5733721.956947682,0.5751122283684701,0.5693785064115224,Coal_Gas,891812514.4669995
526,Intermountain Power Project,UT,39.509731,-112.58018,1986,Coal,1640,7314550000.0,67177712.5,6892435.775,Gas,22.47054160635561,4396461.200622359,0.5795086895690924,0.5751122283684701,Coal_Gas,898704950.2419995
906,Sabine Cogen,TX,30.0444,-93.771389,2000,Gas_CC,105,114266000.0,1585069.487,94199.018,Gas,22.911297398804923,55207.551578164675,0.5795638971206706,0.5795086895690924,Gas_Gas,898799149.2599995
705,Colver Green Energy,PA,40.55,-78.8,1995,Coal,118,558903000.0,6389007.942,238324.927,Gas,23.306065405043054,47608.112220774085,0.5796115052328913,0.5795638971206706,Coal_Gas,899037474.1869996
869,Brooklyn Navy Yard Cogeneration,NY,40.699357,-73.976392,1996,Gas_CC,322,1616508000.0,18359005.639,1091072.527,Gas,25.315951261126145,539464.7223807067,0.580150969955272,0.5796115052328913,Gas_Gas,900128546.7139995
831,Kennedy International Airport Cogen,NY,40.6417,-73.7778,1994,Gas_CC,171,431255000.0,4316863.858,256622.174,Gas,27.754951240310337,109463.22162791563,0.5802604331769,0.580150969955272,Gas_Gas,900385168.8879995
1158,Prairie State Generating Station,IL,38.279167,-89.666944,2012,Coal,1766,12152389000.0,126592426.127,12988380.74,Gas,29.642857449630608,8841570.073322415,0.5891020032502224,0.5802604331769,Coal_Gas,913373549.6279995
567,Hines Energy Complex,FL,27.788215,-81.869983,1999,Gas_CC,3296,7497927000.0,82539135.494,4905994.901000001,Gas,30.34784658555591,2347445.823812802,0.5914494490740353,0.5891020032502224,Gas_Gas,918279544.5289996
1237,Wygen III,WY,44.2919,-105.3806,2010,Coal,116,933026000.0,9668215.844,1014000.898,Gas,31.69372853639299,695620.5228254134,0.5921450695968606,0.5914494490740353,Coal_Gas,919293545.4269996
903,Kalamazoo River Generating Station,MI,42.281345,-85.494956,1999,Gas_SC,77,78808000.0,959163.599,57002.899000000005,Gas,33.48352433946799,30110.914632191576,0.5921751805114929,0.5921450695968606,Gas_Gas,919350548.3259996
584,McPherson 3,KS,38.38932,-97.61108,1998,Gas_SC,115,10699000.0,124964.692,7571.567,Wind,34.750246047460884,7571.567,0.5921827520784929,0.5921751805114929,Gas_Wind,919358119.8929996
894,Brownsville Peaking Power,TN,35.5438,-89.198,1999,Gas_SC,460,334949000.0,3834429.612,227873.668,Gas,36.050277272227845,113577.61592390283,0.5922963296944168,0.5921827520784929,Gas_Gas,919585993.5609996
339,Anadarko Plant,OK,35.0847,-98.23,1953,Gas_CC,534,563726000.0,5410401.36,175547.163,Wind,36.62763408268256,175547.163,0.5924718768574168,0.5922963296944168,Gas_Wind,919761540.7239996
930,Lake Road Generating Plant,CT,41.872043,-71.895799,2002,Gas_CC,840,3619711000.0,39772251.212,2363498.479,Gas,37.04020962282759,1128329.3130779585,0.5936002061704947,0.5924718768574168,Gas_Gas,922125039.2029996
15,West Phoenix,AZ,33.4417,-112.1583,1948,Gas_CC,1324,2726067000.0,20384204.648,1211403.972,Gas,37.18013918994016,281176.69622091134,0.5938813828667155,0.5936002061704947,Gas_Gas,923336443.1749996
811,Doswell Energy Center,VA,37.820805,-77.446246,1991,Gas_CC,1313,5804767000.0,52120200.275,3097620.62,Gas,37.2636365329786,1116835.6308774462,0.594998218497593,0.5938813828667155,Gas_Gas,926434063.7949996
855,Yuma Cogeneration Associates,AZ,32.728822,-114.654053,1994,Gas_CC,62,113945000.0,1041395.097,61884.789,Gas,39.084470704728474,23002.858754467416,0.5950212213563476,0.594998218497593,Gas_Gas,926495948.5839996
1241,Dry Fork Station,WY,44.388889,-105.460833,2011,Coal,483,3531084000.0,34473079.203,3615537.429,Gas,41.96539367490276,2410610.8259975323,0.5974318321823452,0.5950212213563476,Coal_Gas,930111486.0129997
788,JM Shafer Generating Station,CO,40.0986,-104.7736,1994,Gas_CC,394,789312000.0,6947369.705,412872.974,Gas,42.64117449259471,143532.72979479737,0.5975753649121399,0.5974318321823452,Gas_Gas,930524358.9869996
1220,Plum Point Energy Station,AR,35.6644,-89.9489,2010,Coal,720,3579835000.0,35408538.771,3713368.926,Gas,43.66863344785663,2491806.814801473,0.6000671717269414,0.5975753649121399,Coal_Gas,934237727.9129996
978,Liberty Electric Power Plant,PA,39.8614,-75.3358,2002,Gas_CC,614,2411821000.0,27416463.35,1629330.79,Gas,47.07417583707219,806334.9947767728,0.600873506721718,0.6000671717269414,Gas_Gas,935867058.7029996
1197,TS Power Plant,NV,40.7461,-116.5297,2008,Coal,406,1143626000.0,11928645.191,1249532.799,Gas,47.51864236211076,859288.5025501563,0.6017327952242681,0.600873506721718,Coal_Gas,937116591.5019996
570,Almond Power Plant,CA,37.5744,-120.985,1996,Gas_SC,223,266714000.0,2568416.243,152638.392,Gas,48.244124443951016,61626.455157602555,0.6017944216794259,0.6017327952242681,Gas_Gas,937269229.8939996
88,John R Kelly,FL,29.6461,-82.3208,1958,Gas_CC,237,833568000.0,6915963.718,410986.712,Gas,49.23934600401996,126544.80730117072,0.601920966486727,0.6017944216794259,Gas_Gas,937680216.6059996
82,Crystal River,FL,28.9656,-82.6977,1966,Coal,5299,15609828000.0,116870276.679,8557198.43,Gas,49.58185039517576,3230591.3525436716,0.6051515578392707,0.601920966486727,Coal_Gas,946237415.0359995
225,Moselle,MS,31.528,-89.3004,1970,Gas_CC,509,1882630000.0,15859938.67,942495.124,Gas,52.21993536577615,300077.39318121015,0.6054516352324519,0.6051515578392707,Gas_Gas,947179910.1599995
161,Paradise,KY,37.2608,-86.9783,1963,Coal,3718,7584661000.0,52114080.138,3316502.109,Gas,52.42338266502339,728356.4252226395,0.6061799916576746,0.6054516352324519,Coal_Gas,950496412.2689995
1243,Sandy Creek Energy Station,TX,31.474378,-96.957149,2013,Coal,1008,4884613000.0,47161984.870000005,4943073.232,Gas,52.70969895780499,3276276.251505712,0.6094562679091803,0.6061799916576746,Coal_Gas,955439485.5009995
1182,Elm Road Generating Station,WI,42.8492,-87.8336,2010,Coal,1402,8195897000.0,73817406.681,7739753.19,Gas,53.8862536780716,4943032.882364126,0.6143993007915445,0.6094562679091803,Coal_Gas,963179238.6909995
463,Martin,FL,27.0536,-80.5628,1980,Gas_CC,6069,11444544000.0,78574021.87,4670052.302,Gas,54.82028248066257,764782.5534377252,0.6151640833449822,0.6143993007915445,Gas_Gas,967849290.9929996
1029,Ironwood LLC,PA,40.3509,-76.3658,2001,Gas_CC,777,3300793000.0,35940023.9,2135860.525,Gas,55.26633889019699,1009517.0857886064,0.6161736004307707,0.6151640833449822,Gas_Gas,969985151.5179995
502,Oak Grove (TX),TX,31.1803,-96.4866,2010,Coal,3394,14156221000.0,131696051.869,14334643.816,Gas,56.17921625595501,9504057.151711583,0.6256776575824823,0.6161736004307707,Coal_Gas,984319795.3339995
1137,Dean,MI,42.7725,-82.4953,2002,Gas_SC,356,738897000.0,8601439.405,511160.287,Gas,56.25087611281441,259023.36468982152,0.6259366809471721,0.6256776575824823,Gas_Gas,984830955.6209995
0,Barry,AL,31.0069,-88.0103,1954,Coal,2839,11673453000.0,91895874.8,6846726.2,Gas,58.03251659084378,2863344.873302883,0.6288000258204751,0.6259366809471721,Coal_Gas,991677681.8209995
985,Red Oak Power LLC,NJ,40.448674,-74.348879,2002,Gas_CC,820,1871654000.0,20034977.415,1190652.614,Gas,59.16335042591613,551980.269695537,0.6293520060901706,0.6288000258204751,Gas_Gas,992868334.4349995
1075,McClain Energy Facility,OK,35.29774,-97.58985,2001,Gas_CC,550,2027271000.0,20765777.089,1234080.628,Gas,60.71329623280332,542306.4421139052,0.6298943125322845,0.6293520060901706,Gas_Gas,994102415.0629995
302,Asheville,NC,35.4731,-82.5417,1964,Gas_CC,1421,3057631000.0,22039315.643,1319492.146,Gas,61.05066664916284,276123.89589180716,0.6301704364281763,0.6298943125322845,Gas_Gas,995421907.2089995
1170,Hunterstown Power Plant,PA,39.8725,-77.1672,2003,Gas_CC,898,4282993000.0,46596373.326,2769155.771,Gas,62.061987704488345,1307652.106353861,0.6314780885345301,0.6301704364281763,Gas_Gas,998191062.9799995
562,Woodland,CA,37.652602,-121.020397,1993,Gas_CC,195,409127000.0,3408812.739,202588.743,Gas,62.76231692819417,62980.62087472895,0.631541069155405,0.6314780885345301,Gas_Gas,998393651.7229996
1235,John W Turk Jr Power Plant,AR,33.649722,-93.811944,2012,Coal,609,3751582000.0,32814037.894,3441534.109,Gas,62.78330365248964,2161366.048669177,0.6337024352040741,0.631541069155405,Coal_Gas,1001835185.8319995
1133,Choctaw County,MS,33.2881,-89.4201,2003,Gas_CC,899,3511191000.0,37344958.965,2219356.867,Gas,63.369603625023586,1021218.4358205558,0.6347236536398947,0.6337024352040741,Gas_Gas,1004054542.6989995
933,Lost Pines 1 Power Project,TX,30.1478,-97.2714,2001,Gas_CC,608,1940683000.0,21070905.502,1252212.01,Gas,64.57794845208463,589984.6105117302,0.6353136382504065,0.6347236536398947,Gas_Gas,1005306754.7089995
1058,Effingham County Power Project,GA,32.277252,-81.284411,2003,Gas_CC,595,1905950000.0,20766046.055,1234096.351,Gas,64.71777895404257,583721.0387750422,0.6358973592891816,0.6353136382504065,Gas_Gas,1006540851.0599995
48,Cherokee,CO,39.807275,-104.964548,1957,Gas_CC,1425,4021840000.0,31338454.353,1862330.822,Gas,66.5925243209169,489941.4908429263,0.6363873007800245,0.6358973592891816,Gas_Gas,1008403181.8819995
1238,San Jacinto County Peaking Facility,TX,30.4193,-95.0118,2001,Gas_SC,170,239685000.0,2826051.008,167945.994,Gas,67.39039283493535,86157.27618964872,0.6364734580562142,0.6363873007800245,Gas_Gas,1008571127.8759995
913,RS Cogen,LA,30.221,-93.2992,2002,Gas_CC,493,2780683000.0,25617820.258,1522424.954,Gas,67.95815524785861,573560.8314765169,0.6370470188876908,0.6364734580562142,Gas_Gas,1010093552.8299994
600,Georgetown,IN,39.902556,-86.24405,2000,Gas_SC,340,244902000.0,2882872.681,171322.486,Gas,67.99968720657053,87753.5493990836,0.6371347724370899,0.6370470188876908,Gas_Gas,1010264875.3159994
877,Rio Bravo,NM,35.026,-106.644,2000,Gas_SC,150,131297000.0,1508569.722,89766.982,Gas,68.44423261014312,44963.95601862574,0.6371797363931085,0.6371347724370899,Gas_Gas,1010354642.2979994
1247,Longview Power Plant,WV,39.707893,-79.958974,2011,Coal,807,5487405000.0,46366753.596,4757227.216,Gas,68.51610081580588,2884736.99318209,0.6400644733862906,0.6371797363931085,Coal_Gas,1015111869.5139993
624,Brandy Branch,FL,30.320556,-81.947222,2001,Gas_CC,783,3608274000.0,35947312.271,2136338.607,Gas,69.26423167444075,905072.1365557606,0.6409695455228464,0.6400644733862906,Gas_Gas,1017248208.1209993
1035,Pleasants Energy LLC,WV,39.3325,-81.3642,2002,Gas_SC,344,1712479000.0,17086432.614,1015467.083,Gas,69.92865530600908,431110.6915397395,0.6414006562143861,0.6409695455228464,Gas_Gas,1018263675.2039993
956,Gibson City Energy Center LLC,IL,40.4705,-88.3987,2000,Gas_SC,270,210182000.0,2484262.467,147633.886,Gas,69.98771492172011,75912.6006178724,0.641476568815004,0.6414006562143861,Gas_Gas,1018411309.0899993
612,Rowan,NC,35.7314,-80.6019,2001,Gas_SC,1190,3016686000.0,31680685.36,1882801.645,Gas,73.68983144507428,853405.2289688034,0.6423299740439729,0.641476568815004,Gas_Gas,1020294110.7349993
656,Sumpter,MI,42.167,-83.5318,2002,Gas_SC,340,352070000.0,4396849.717,261295.699,Gas,74.64129008692186,141157.37628689583,0.6424711314202597,0.6423299740439729,Gas_Gas,1020555406.4339993
922,Alliant Energy Neenah,WI,44.1936,-88.5064,2000,Gas_SC,370,421449000.0,4657196.2,274772.3,Gas,76.02978724154221,130959.49013515766,0.6426020909103949,0.6424711314202597,Gas_Gas,1020830178.7339993
579,Midulla Generating Station,FL,27.641667,-81.9625,2002,Gas_CC,1408,2970151000.0,31501150.87,1872084.595,Gas,76.30534089281707,858567.5121907601,0.6434606584225857,0.6426020909103949,Gas_Gas,1022702263.3289993
473,Victor J Daniel Jr,MS,30.5322,-88.5553,1977,Gas_CC,2226,11271082000.0,86375917.652,6399159.56,Gas,78.83474928690703,2553080.9772128845,0.6460137393997987,0.6434606584225857,Gas_Gas,1029101422.8889992
648,Wansley Unit 9,GA,33.4083,-85.0403,2004,Gas_CC,592,2138515000.0,22487977.908,1336428.957,Gas,79.27488435490183,606694.5144266083,0.6466204339142252,0.6460137393997987,Gas_Gas,1030437851.8459992
917,Manchief Electric Generating Station,CO,40.217143,-103.68504,2000,Gas_SC,300,470307000.0,4941013.271,293636.626,Gas,81.0860502653205,133151.79588033093,0.6467535857101055,0.6466204339142252,Gas_Gas,1030731488.4719993
1117,Blue Spruce Energy Center,CO,39.747875,-104.681404,2003,Gas_SC,396,521191000.0,6192582.07,368052.31,Gas,81.64524378284607,190204.1191482788,0.6469437898292538,0.6467535857101055,Gas_Gas,1031099540.7819992
585,Carson Ice-Gen Project,CA,38.445681,-121.462387,1995,Gas_CC,125,243467000.0,2155557.809,128351.739,Gas,82.99392192548719,45272.47346760209,0.6469890623027214,0.6469437898292538,Gas_Gas,1031227892.5209992
963,ANP Blackstone Energy Project,MA,42.059876,-71.515811,2001,Gas_CC,578,951288000.0,10517931.658,625063.477,Gas,83.97178285732362,300451.4829729501,0.6472895137856943,0.6469890623027214,Gas_Gas,1031852955.9979992
893,Millennium Power,MA,42.112291,-72.015113,2001,Gas_CC,427,686521000.0,7559875.478,449275.269,Gas,87.09023591298738,215010.8288394552,0.6475045246145338,0.6472895137856943,Gas_Gas,1032302231.2669992
962,ANP Bellingham Energy Project,MA,42.110577,-71.453468,2002,Gas_CC,578,971792000.0,10925397.196,649280.37,Gas,88.25345837607782,317671.71005733823,0.6478221963245911,0.6475045246145338,Gas_Gas,1032951511.6369992
31,Dynegy Moss Landing Power Plant Hybrid,CA,36.804837,-121.782241,1967,Gas_SC,2802,5487443000.0,38567163.41,2185318.142,Gas,88.38053384074914,312814.9522827149,0.6481350112768738,0.6478221963245911,Gas_Gas,1035136829.7789992
926,Hawk Road Facility,GA,33.358472,-84.991391,2001,Gas_SC,495,643567000.0,7035119.319,418089.721,Gas,89.41061629438255,198482.65441237733,0.6483334939312863,0.6481350112768738,Gas_Gas,1035554919.4999992
833,Stony Brook Cogen Plant,NY,40.916833,-73.129056,1995,Gas_SC,47,350411000.0,3334709.923,198180.252,Gas,91.09916355911048,78608.03681489038,0.6484121019681012,0.6483334939312863,Gas_Gas,1035753099.7519991
1142,Hardin Generator Project,MT,45.7578,-107.6,2006,Coal,115,62035000.0,764993.942,79515.822,Gas,92.60184695133043,58347.35876965542,0.6484704493268708,0.6484121019681012,Coal_Gas,1035832615.5739992
213,High Bridge,MN,44.9314,-93.1117,1956,Gas_CC,920,2758478000.0,20309789.155,1206982.576,Gas,95.13960405274956,265695.5587562751,0.648736144885627,0.6484704493268708,Gas_Gas,1037039598.1499991
887,Black Hawk Station,TX,35.6957,-101.36,1999,Gas_SC,369,1874490000.0,17991850.827,1064517.741,Gas,95.49030361398911,424877.65652109904,0.6491610225421481,0.648736144885627,Gas_Gas,1038104115.8909992
1077,Deer Park Energy Center,TX,29.713414,-95.134508,2003,Gas_CC,1176,7606662000.0,74957014.012,4454592.061,Gas,95.95290140615899,1858938.8837184748,0.6510199614258666,0.6491610225421481,Gas_Gas,1042558707.9519992
875,De Pere Energy Center,WI,44.44861,-88.07204,1999,Gas_SC,192,127959000.0,1335709.702,79382.394,Wind,97.50761075601794,79382.394,0.6510993438198667,0.6510199614258666,Gas_Wind,1042638090.3459992
941,Eastman Cogeneration Facility,TX,32.4481,-94.6903,2001,Gas_CC,467,2560304000.0,24894178.654,1479433.551,Gas,97.77193143375135,605770.2789357756,0.6517051140988025,0.6510993438198667,Gas_Gas,1044117523.8969992
992,Gleason Generating Facility,TN,36.2454,-88.612,2000,Gas_SC,567,470362000.0,4899365.157,291158.105,Gas,99.16722729546106,130654.506999656,0.6518357686058021,0.6517051140988025,Gas_Gas,1044408682.0019993
144,Riverton,KS,37.072616,-94.698704,1950,Gas_CC,397,1521111000.0,10841966.64,644324.479,Wind,100.0049685438799,644324.479,0.652480093084802,0.6518357686058021,Gas_Wind,1045053006.4809992
870,Michigan Power LP,MI,43.9375,-86.425,1995,Gas_CC,138,1084461000.0,9449816.174,561589.46,Wind,100.72117609508535,561589.46,0.6530416825448021,0.652480093084802,Gas_Wind,1045614595.9409993
864,Johnson County,TX,32.3994,-97.4078,1996,Gas_CC,282,940117000.0,7417756.133,440824.707,Wind,101.7790645953816,440824.707,0.6534825072518021,0.6530416825448021,Gas_Wind,1046055420.6479993
908,Rocky Road Power LLC,IL,42.0931,-88.2397,1999,Gas_SC,413,82724000.0,928948.267,55471.30300000001,Wind,102.45892235025038,55471.30300000001,0.6535379785548021,0.6534825072518021,Gas_Wind,1046110891.9509993
1013,Blythe Energy Inc,CA,33.6157,-114.6865,2003,Gas_CC,591,1299373000.0,14184216.271,842948.417,Gas,102.9688498089226,399557.91852329276,0.6539375364733254,0.6535379785548021,Gas_Gas,1046953840.3679993
664,West Campus Cogeneration Facility,WI,43.075071,-89.4251,2005,Gas_CC,169,448698000.0,4688450.289,278670.628,Gas,103.10978908769475,125559.52758041181,0.6540630960009057,0.6539375364733254,Gas_Gas,1047232510.9959993
1212,Mustang Station Unit 4,TX,32.974554,-102.743607,2006,Gas_SC,510,1314077000.0,13702583.831,814324.963,Wind,105.31691255150103,814324.963,0.6548774209639058,0.6540630960009057,Gas_Wind,1048046835.9589994
1055,Renaissance Power Plant,MI,43.1864,-84.8429,2002,Gas_SC,780,1183096000.0,12729140.542,756474.183,Wind,106.46275941780617,756474.183,0.6556338951469057,0.6548774209639058,Gas_Wind,1048803310.1419994
1048,RockGen Energy Center,WI,42.9767,-89.0492,2001,Gas_SC,561,466185000.0,4971121.011,295658.987,Wind,106.84582536079381,295658.987,0.6559295541339057,0.6556338951469057,Gas_Wind,1049098969.1289994
462,Manatee,FL,27.6058,-82.3456,1976,Gas_SC,2949,9844684000.0,74676196.824,4450233.3780000005,Gas,107.17312088191942,1090890.5671938164,0.6570204447010997,0.6559295541339057,Gas_Gas,1053549202.5069994
216,Riverside (MN),MN,45.0203,-93.2753,1964,Gas_CC,822,2228764000.0,15669622.189,931222.803,Wind,107.44921063949204,931222.803,0.6579516675040996,0.6570204447010997,Gas_Wind,1054480425.3099993
602,Henry County,IN,39.9528,-85.5039,2001,Gas_SC,180,291662000.0,2922303.334,173667.662,Wind,107.76906890294269,173667.662,0.6581253351660995,0.6579516675040996,Gas_Wind,1054654092.9719993
651,Evander Andrews Power Complex,ID,43.179176,-115.734315,2001,Gas_SC,269,280995000.0,2986230.084,177466.461,Gas,107.88652235080102,81581.35863180985,0.6582069165247314,0.6581253351660995,Gas_Gas,1054831559.4329993
1192,Sheboygan Falls,WI,43.751826,-87.878056,2005,Gas_SC,346,604879000.0,6387969.782000001,379628.711,Wind,109.38164047155944,379628.711,0.6585865452357313,0.6582069165247314,Gas_Wind,1055211188.1439992
991,University Park South,IL,41.440893,-87.753189,2001,Gas_SC,348,433196000.0,4363611.899999999,257489.4,Wind,109.65643125960261,257489.4,0.6588440346357314,0.6585865452357313,Gas_Wind,1055468677.5439992
1285,Antelope Station,TX,33.865,-101.843333,2011,Gas_SC,162,778290000.0,6930909.28,411895.363,Wind,109.65981629729909,411895.363,0.6592559299987314,0.6588440346357314,Gas_Wind,1055880572.9069992
1130,Bayswater Peaking Facility LLC,NY,40.610654,-73.762218,2002,Gas_SC,60,121135000.0,1267992.191,80206.897,Gas,109.94218339639544,38871.492898963625,0.6592948014916303,0.6592559299987314,Gas_Gas,1055960779.8039992
954,Elwood Energy LLC,IL,41.4388,-88.1236,1999,Gas_SC,1728,411708000.0,4409251.198,262031.211,Wind,110.19624884434837,262031.211,0.6595568327026303,0.6592948014916303,Gas_Wind,1056222811.0149992
1140,Buchanan Generation LLC,VA,37.175278,-81.961388,2002,Gas_SC,88,461314000.0,4357006.208,258931.451,Gas,110.82498476497875,101515.33998777816,0.659658348042618,0.6595568327026303,Gas_Gas,1056481742.4659991
609,Sewell Creek Energy,GA,33.9486,-85.2769,2000,Gas_SC,570,426763000.0,4639901.166999999,275741.619,Gas,111.1856397183736,130115.49062776586,0.6597884635332458,0.659658348042618,Gas_Gas,1056757484.0849991
972,Wheatland Generating Facility,IN,38.6716,-87.2931,2000,Gas_SC,500,162262000.0,2031851.63,120754.458,Wind,111.36460452949976,120754.458,0.6599092179912458,0.6597884635332458,Gas_Wind,1056878238.542999
872,LSP-Whitewater LP,WI,42.855463,-88.72992,1997,Gas_CC,283,907411000.0,7202000.848999999,428152.137,Wind,111.67640262828998,428152.137,0.6603373701282457,0.6599092179912458,Gas_Wind,1057306390.679999
601,Tilton,IL,40.106125,-87.653818,1999,Gas_SC,188,123190000.0,1187466.184,70570.855,Wind,112.42915885818039,70570.855,0.6604079409832457,0.6603373701282457,Gas_Wind,1057376961.534999
1214,Quail Run Energy Center,TX,31.8414,-102.315,2002,Gas_CC,548,1683678000.0,14628847.316,869366.746,Wind,113.44865972600874,869366.746,0.6612773077292458,0.6604079409832457,Gas_Wind,1058246328.2809991
938,Granite Ridge,NH,42.9042,-71.4261,2003,Gas_CC,790,2120035000.0,22565329.077,1341025.934,Gas,113.7513812913529,617597.4993333829,0.6618949052285792,0.6612773077292458,Gas_Gas,1059587354.2149991
666,Beatrice,NE,40.330184,-96.808153,2005,Gas_CC,245,732250000.0,6372835.377,378725.002,Wind,114.53943172004216,378725.002,0.6622736302305792,0.6618949052285792,Gas_Wind,1059966079.216999
430,Port Washington Generating Station,WI,43.3842,-87.8689,1935,Gas_CC,1543,8508804000.0,57597461.083,3422935.237,Wind,114.84548567682577,3422935.237,0.6656965654675792,0.6622736302305792,Gas_Wind,1063389014.453999
866,Gordonsville Energy LP,VA,38.124688,-78.203543,1994,Gas_CC,300,1189547000.0,9992829.717,594369.426,Gas,115.14033082267565,188455.3141233705,0.6658850207817025,0.6656965654675792,Gas_Gas,1063983383.879999
408,V H Braunig,TX,29.2567,-98.3825,1966,Gas_SC,1138,4133757000.0,32127964.626,1909358.638,Gas,115.47266365911864,498779.39954300737,0.6663838001812455,0.6658850207817025,Gas_Gas,1065892742.517999
660,Greater Des Moines,IA,41.5563,-93.5283,2003,Gas_CC,575,457689000.0,4992929.627,296722.743,Gas,115.82420569328171,140543.60594135275,0.6665243437871868,0.6663838001812455,Gas_Gas,1066189465.2609991
1043,Gans,PA,39.7475,-79.838888,2000,Gas_SC,86,207691000.0,2013410.143,119653.753,Gas,117.08717219764365,48782.481995349444,0.6665731262691822,0.6665243437871868,Gas_Gas,1066309119.0139991
951,Springdale 1 & 2,PA,40.546667,-79.768333,1999,Gas_SC,86,170621000.0,1629611.879,96846.165,Gas,117.76359751429924,38624.445570248674,0.6666117507147524,0.6665731262691822,Gas_Gas,1066405965.1789991
888,Mustang Station,TX,32.9728,-102.7417,1999,Gas_CC,520,1940590000.0,15329314.265,910999.778,Wind,118.20749138306974,910999.778,0.6675227504927524,0.6666117507147524,Gas_Wind,1067316964.9569991
982,Lee Energy Facility,IL,41.8287,-89.4054,2001,Gas_SC,688,273592000.0,3387296.152,201305.252,Wind,118.28366895931944,201305.252,0.6677240557447524,0.6675227504927524,Gas_Wind,1067518270.208999
1034,Troy Energy LLC,OH,41.47724,-83.45983,2002,Gas_SC,792,942112000.0,9615268.879,571792.094,Wind,118.42803813661611,571792.094,0.6682958478387524,0.6677240557447524,Gas_Wind,1068090062.302999
1253,Cedar Bayou 4,TX,29.751645,-94.92312,2009,Gas_CC,534,1142069000.0,12884676.997,765719.9619999999,Wind,118.46657394695396,765719.9619999999,0.6690615678007524,0.6682958478387524,Gas_Wind,1068855782.264999
256,Tracy,NV,39.5625,-119.525,1961,Gas_CC,1179,4752087000.0,37371457.612,2220932.507,Gas,119.06290116000187,599357.9293116226,0.6696609257300641,0.6690615678007524,Gas_Gas,1071076714.771999
639,Brentwood,NY,40.787062,-73.293412,2001,Gas_SC,47,92521000.0,870958.567,51758.055,Wind,119.14073952561178,51758.055,0.669712683785064,0.6696609257300641,Gas_Wind,1071128472.826999
909,Madison,OH,39.4522,-84.4647,2000,Gas_SC,688,336247000.0,4064198.31,241521.752,Wind,119.30216093155269,241521.752,0.669954205537064,0.669712683785064,Gas_Wind,1071369994.5789989
1221,Hobbs Generating Station,NM,32.728333,-103.309444,2008,Gas_CC,679,3905790000.0,33968382.615,2018692.626,Wind,119.31886885931952,2018692.626,0.671972898163064,0.669954205537064,Gas_Wind,1073388687.204999
1068,Elgin Energy Center LLC,IL,42.000061,-88.244572,2002,Gas_SC,540,390722000.0,4420334.302,262695.088,Wind,119.53920569332587,262695.088,0.6722355932510641,0.671972898163064,Gas_Wind,1073651382.292999
1287,Lonesome Creek Station,ND,47.796667,-103.57861,2013,Gas_SC,300,821494000.0,7924271.921,470934.657,Wind,120.00968221020199,470934.657,0.672706527908064,0.6722355932510641,Gas_Wind,1074122316.949999
1304,Ector County Energy Center,TX,32.069167,-102.585556,2015,Gas_SC,358,700927000.0,7569973.618,449879.925,Wind,120.44495326592973,449879.925,0.673156407833064,0.672706527908064,Gas_Wind,1074572196.874999
1239,Hardin County Peaking Facility,TX,30.3038,-94.2526,2001,Gas_SC,172,96045000.0,1176841.821,69936.379,Wind,121.1484523521053,69936.379,0.673226344212064,0.673156407833064,Gas_Wind,1074642133.253999
990,"Darby Power, LLC",OH,39.7139,-83.1778,2001,Gas_SC,564,413160000.0,4756106.0,281152.9,Wind,122.04994930568581,281152.9,0.6735074971120639,0.673226344212064,Gas_Wind,1074923286.153999
1119,Chambersburg,PA,39.866944,-77.685833,2001,Gas_SC,86,244839000.0,2372710.203,141002.856,Gas,122.16905530885397,57455.41715331124,0.6735649525292172,0.6735074971120639,Gas_Gas,1075064289.009999
1115,University Park North,IL,41.4425,-87.7514,2002,Gas_SC,720,858680000.0,8143022.589,483947.538,Wind,122.74890105631157,483947.538,0.6740489000672172,0.6735649525292172,Gas_Wind,1075548236.5479991
566,State Line Combined Cycle,MO,37.0659,-94.614,1995,Gas_CC,690,2964912000.0,19529633.906,1160668.171,Wind,123.8348434579822,1160668.171,0.6752095682382172,0.6740489000672172,Gas_Wind,1076708904.7189991
910,Vermillion Energy Facility,IN,39.922328,-87.446358,2000,Gas_SC,688,179339000.0,2135816.564,126927.216,Wind,124.68748875090012,126927.216,0.6753364954542171,0.6752095682382172,Gas_Wind,1076835831.9349992
865,Brandywine Power Facility,MD,38.6681,-76.8678,1996,Gas_CC,287,621627000.0,4892636.1850000005,290958.975,Wind,125.16691169032877,290958.975,0.6756274544292172,0.6753364954542171,Gas_Wind,1077126790.9099991
1089,Kiamichi Energy Facility,OK,34.6831,-95.9349,2003,Gas_CC,1366,5360668000.0,41298343.444,2454302.362,Wind,125.55612416702265,2454302.362,0.6780817567912172,0.6756274544292172,Gas_Wind,1079581093.2719991
984,NRG Rockford I,IL,42.238558,-89.101202,2000,Gas_SC,316,137074000.0,1395210.9740000002,82914.214,Wind,125.57255361470635,82914.214,0.6781646710052172,0.6780817567912172,Gas_Wind,1079664007.485999
871,LSP-Cottage Grove LP,MN,44.7956,-92.9119,1997,Gas_CC,283,721512000.0,5574905.348999999,331309.643,Wind,125.73773855222838,331309.643,0.6784959806482173,0.6781646710052172,Gas_Wind,1079995317.128999
676,Emery Station,IA,43.094,-93.292222,2004,Gas_CC,602,2657240000.0,19742336.388,1173262.183,Wind,126.0063018835291,1173262.183,0.6796692428312172,0.6784959806482173,Gas_Wind,1081168579.311999
971,Ennis Power Company LLC,TX,32.32,-96.675,2002,Gas_CC,418,859613000.0,7014038.985,416834.635,Wind,126.03422356374267,416834.635,0.6800860774662172,0.6796692428312172,Gas_Wind,1081585413.946999
983,Energy Shelby County,IL,39.2794,-88.4772,2000,Gas_SC,480,331805000.0,3069795.5,181122.5,Wind,126.6391886886946,181122.5,0.6802671999662172,0.6800860774662172,Gas_Wind,1081766536.446999
939,Bosque County Peaking,TX,31.8594,-97.3586,2000,Gas_CC,807,3971665000.0,30634795.32,1820587.018,Wind,127.01789621298306,1820587.018,0.6820877869842171,0.6802671999662172,Gas_Wind,1083587123.464999
649,Solway CT,MN,47.544582,-95.129652,2003,Gas_SC,51,56922000.0,523406.292,31105.411,Wind,127.2101670871445,31105.411,0.6821188923952172,0.6820877869842171,Gas_Wind,1083618228.875999
1300,W.A. Parish Carbon Capture Plant,TX,29.475278,-95.634167,2013,Gas_SC,102,154859000.0,1955909.002,116237.519,Wind,127.30174819454983,116237.519,0.6822351299142172,0.6821188923952172,Gas_Wind,1083734466.394999
1303,Lansing BWL REO Town Plant,MI,42.719722,-84.551667,2013,Gas_CC,98,581255000.0,5085480.1,302219.761,Wind,127.32115604247916,302219.761,0.6825373496752173,0.6822351299142172,Gas_Wind,1084036686.155999
878,Mid-Georgia Cogeneration Facility,GA,32.4856,-83.6039,1997,Gas_CC,322,147133000.0,1201021.919,71513.678,Wind,127.42999842257814,71513.678,0.6826088633532172,0.6825373496752173,Gas_Wind,1084108199.833999
1092,Limon Generating Station,CO,39.2038,-103.7005,2002,Gas_SC,154,71243000.0,874973.2860000001,52077.904,Wind,128.17220456797847,52077.904,0.6826609412572173,0.6826088633532172,Gas_Wind,1084160277.737999
1051,Crossroads Energy Center,MS,34.183,-90.5621,2002,Gas_SC,304,123895000.0,1577082.507,93726.843,Wind,128.2903655265259,93726.843,0.6827546681002173,0.6826609412572173,Gas_Wind,1084254004.580999
899,Midlothian Energy Facility,TX,32.4302,-97.0537,2000,Gas_CC,1734,4080310000.0,30079046.604,1787556.582,Wind,128.36102187651454,1787556.582,0.6845422246822174,0.6827546681002173,Gas_Wind,1086041561.162999
815,Texas City Power Plant,TX,29.378697,-94.943829,1987,Gas_CC,450,2498476000.0,18672472.948,1109683.367,Wind,128.36981555953295,1109683.367,0.6856519080492174,0.6845422246822174,Gas_Wind,1087151244.529999
632,Terry Bundy Generating Station,NE,40.909653,-96.613086,2003,Gas_CC,212,161554000.0,1617826.487,96150.778,Wind,128.4955734749245,96150.778,0.6857480588272173,0.6856519080492174,Gas_Wind,1087247395.3079991
896,Zeeland Generating Station,MI,42.8206,-85.9975,2001,Gas_CC,965,4154187000.0,32988972.173,1960485.28,Wind,128.8762578972317,1960485.28,0.6877085441072173,0.6857480588272173,Gas_Wind,1089207880.587999
943,Dogwood Energy Facility,MO,38.7931,-94.3006,2001,Gas_CC,630,2210150000.0,16091225.231,956276.316,Wind,128.90979584081282,956276.316,0.6886648204232173,0.6877085441072173,Gas_Wind,1090164156.903999
1076,Redbud Power Plant,OK,35.6856,-97.2264,2004,Gas_CC,1428,6086733000.0,44912352.005,2669066.3,Wind,130.60241826277715,2669066.3,0.6913338867232173,0.6886648204232173,Gas_Wind,1092833223.203999
845,Sithe Independence Station,NY,43.495,-76.4511,1994,Gas_CC,1084,4214176000.0,29589731.873,1758469.349,Wind,130.898470754043,1758469.349,0.6930923560722172,0.6913338867232173,Gas_Wind,1094591692.552999
1109,Combined Locks Energy Center,WI,44.2717,-88.3011,2002,Gas_CC,66,510036000.0,3742217.103,222398.794,Wind,130.96783821488182,222398.794,0.6933147548662173,0.6930923560722172,Gas_Wind,1094814091.346999
973,Oneta Energy Center,OK,36.0119,-95.6967,2002,Gas_CC,1214,6575696000.0,47218564.498,2806134.957,Wind,131.19470956399883,2806134.957,0.6961208898232173,0.6933147548662173,Gas_Wind,1097620226.303999
975,Greenville Electric Generating Station,OH,40.075783,-84.615136,2000,Gas_SC,236,104257000.0,1006238.3,59385.0,Wind,131.19642124934978,59385.0,0.6961802748232173,0.6961208898232173,Gas_Wind,1097679611.303999
652,Kemper County,MS,32.7976,-88.606,2002,Gas_SC,372,237128000.0,2844636.671,169112.43,Gas,132.01954503902377,88196.24802393567,0.6962684710712412,0.6961802748232173,Gas_Gas,1097848723.733999
1003,Aurora,IL,41.8151,-88.2265,2001,Gas_SC,1080,824938000.0,7770818.632,461804.32,Wind,132.32818967539274,461804.32,0.6967302753912413,0.6962684710712412,Gas_Wind,1098310528.053999
1033,Armstrong,PA,40.638021,-79.351725,2002,Gas_SC,688,1193104000.0,11962091.217,711238.865,Wind,132.88305623370172,711238.865,0.6974415142562413,0.6967302753912413,Gas_Wind,1099021766.918999
1080,Neil Simpson Gas Turbine #2,WY,44.285,-105.3786,2001,Gas_SC,40,15945000.0,168852.662,10034.43,Wind,133.11896000132631,10034.43,0.6974515486862413,0.6974415142562413,Gas_Wind,1099031801.348999
1049,Zion Energy Center,IL,42.4776,-87.895,2002,Gas_SC,990,582706000.0,6015143.555,358080.61600000004,Wind,133.59910662276866,358080.61600000004,0.6978096293022413,0.6974515486862413,Gas_Wind,1099389881.964999
1257,Dave Gates Generating Station,MT,46.104713,-112.876605,2011,Gas_SC,201,186002000.0,2343425.061,139263.304,Wind,134.44092648836468,139263.304,0.6979488926062414,0.6978096293022413,Gas_Wind,1099529145.2689989
64,Bridgeport Station,CT,41.1706,-73.1844,1961,Gas_CC,1156,3720970000.0,23911423.42,1423097.917,Wind,134.44252319242295,1423097.917,0.6993719905232414,0.6979488926062414,Gas_Wind,1100952243.185999
1083,Forney Energy Center,TX,32.7563,-96.4916,2003,Gas_CC,1892,10668173000.0,75053854.56,4460347.393,Wind,134.65945233021742,4460347.393,0.7038323379162414,0.6993719905232414,Gas_Wind,1105412590.5789988
959,Corpus Christi Energy Center,TX,27.8139,-97.4283,2002,Gas_CC,591,2744112000.0,21227036.807,1261492.905,Wind,134.6870876969488,1261492.905,0.7050938308212413,0.7038323379162414,Gas_Wind,1106674083.4839988
980,Handsome Lake Energy LLC,PA,41.2908,-79.8061,2001,Gas_SC,290,130701000.0,1504550.1,88819.6,Wind,134.72606633982903,88819.6,0.7051826504212414,0.7050938308212413,Gas_Wind,1106762903.0839987
874,Dighton Power Plant,MA,41.8312,-71.1239,1999,Gas_CC,200,216922000.0,1689282.333,100391.37,Wind,135.38977797982437,100391.37,0.7052830417912415,0.7051826504212414,Gas_Wind,1106863294.4539986
1022,Wise County Power LLC,TX,33.0583,-97.9103,2004,Gas_CC,821,2545713000.0,18212781.737,1082361.37,Wind,135.39503360671193,1082361.37,0.7063654031612414,0.7052830417912415,Gas_Wind,1107945655.8239985
306,L V Sutton Steam,NC,34.283056,-77.985278,1954,Coal,760,4158880000.0,29036887.88,1725646.213,Wind,135.5825372571589,1725646.213,0.7080910493742415,0.7063654031612414,Coal_Wind,1109671302.0369985
1000,Jackson Generating Station,MI,42.2488,-84.3767,2002,Gas_CC,649,1874495000.0,14706656.312,873996.483,Wind,135.7515323535448,873996.483,0.7089650458572415,0.7080910493742415,Gas_Wind,1110545298.5199986
928,Green Country Energy LLC,OK,35.9833,-95.9346,2002,Gas_CC,903,4330907000.0,30928885.454,1838053.253,Wind,135.81182806801863,1838053.253,0.7108030991102415,0.7089650458572415,Gas_Wind,1112383351.7729986
599,Chouteau,OK,36.222058,-95.277064,2000,Gas_CC,1068,6282371000.0,43467959.588,2583233.637,Wind,135.86719817236065,2583233.637,0.7133863327472415,0.7108030991102415,Gas_Wind,1114966585.4099987
604,Sowega Power,GA,31.3869,-84.08,1999,Gas_SC,98,76468000.0,731632.018,43481.607,Wind,136.20596172206396,43481.607,0.7134298143542415,0.7133863327472415,Gas_Wind,1115010067.0169988
270,PSEG Sewaren Generating Station,NJ,40.5558,-74.2469,1948,Gas_CC,1174,3787163000.0,24978556.542,1485966.328,Wind,136.4331135180412,1485966.328,0.7149157806822415,0.7134298143542415,Gas_Wind,1116496033.3449988
1320,Alpine Power Plant,MI,45.063748,-84.825348,2016,Gas_SC,452,812703000.0,8352632.0,492823.2,Wind,136.46028286573267,492823.2,0.7154086038822415,0.7149157806822415,Gas_Wind,1116988856.544999
189,Kendall Square Station,MA,42.3633,-71.0792,1949,Gas_CC,294,2027427000.0,13292160.9,789389.602,Wind,137.23280855101223,789389.602,0.7161979934842415,0.7154086038822415,Gas_Wind,1117778246.146999
998,Edward L. Addison Generating Plant,GA,32.9111,-84.3064,2000,Gas_SC,700,369666000.0,3899301.86,231913.1,Wind,137.7427780503256,231913.1,0.7164299065842415,0.7161979934842415,Gas_Wind,1118010159.2469988
1135,Allegheny Energy Units 3 4 & 5,PA,40.545278,-79.768611,2003,Gas_CC,556,2953703000.0,27488148.366,1633579.8,Gas,137.96080395831208,625675.3372151449,0.7170555819214567,0.7164299065842415,Gas_Gas,1119643739.0469987
636,McCartney,MO,37.248431,-93.170839,2002,Gas_SC,116,41516000.0,473450.383,28137.892,Wind,137.99734837590694,28137.892,0.7170837198134566,0.7170555819214567,Gas_Wind,1119671876.9389987
39,Mountainview Generating Station,CA,34.0818,-117.2418,1957,Gas_CC,1164,2973461000.0,21384891.706,1270879.594,Gas,138.44845160033597,256233.02600832377,0.7173399528394651,0.7170837198134566,Gas_Gas,1120942756.5329988
964,Odessa-Ector Power Plant,TX,31.8403,-102.3264,2001,Gas_CC,1152,6953503000.0,47080164.321,2797912.954,Wind,138.49973714342207,2797912.954,0.7201378657934651,0.7173399528394651,Gas_Wind,1123740669.4869988
1169,Cass County,NE,40.947913,-95.964026,2003,Gas_SC,344,160325000.0,1755292.227,104314.975,Wind,138.9110847756728,104314.975,0.720242180768465,0.7201378657934651,Gas_Wind,1123844984.4619987
1040,Exelon LaPorte Generating Station,TX,29.7028,-95.0718,2001,Gas_SC,236,94127000.0,1125209.3,66387.1,Wind,138.93808192206464,66387.1,0.7203085678684651,0.720242180768465,Gas_Wind,1123911371.5619986
619,Ladysmith,VA,38.0722,-77.5133,2001,Gas_SC,890,1184227000.0,11435831.524,682849.364,Wind,139.06463594584218,682849.364,0.7209914172324651,0.7203085678684651,Gas_Wind,1124594220.9259987
1118,Spring Creek Energy Center,OK,35.7422,-97.655,2001,Gas_SC,336,64463000.0,822285.711,48867.08,Wind,139.10696001913396,48867.08,0.721040284312465,0.7209914172324651,Gas_Wind,1124643088.0059986
1143,Edgewood Energy LLC,NY,40.7861,-73.2931,2002,Gas_SC,100,91805000.0,864144.7660000001,51354.894,Wind,139.51313252716258,51354.894,0.7210916392064651,0.721040284312465,Gas_Wind,1124694442.8999987
1215,Colorado Bend Energy Center,TX,29.2878,-96.0683,2002,Gas_CC,580,2293136000.0,18406654.52,1093882.665,Wind,139.86957237312396,1093882.665,0.7221855218714651,0.7210916392064651,Gas_Wind,1125788325.5649986
901,Lamar Power Project,TX,33.6308,-95.59,2000,Gas_CC,1112,7187123000.0,49674214.115,2952070.291,Wind,139.94784133663285,2952070.291,0.7251375921624651,0.7221855218714651,Gas_Wind,1128740395.8559985
929,Worthington Generation LLC,IN,39.0708,-87.0128,2000,Gas_SC,240,95129000.0,936982.016,55684.343,Wind,140.10364301111687,55684.343,0.7251932765054652,0.7251375921624651,Gas_Wind,1128796080.1989985
935,Calcasieu,LA,30.1608,-93.345,2000,Gas_SC,358,85015000.0,977380.331,58082.714,Wind,140.70924830254856,58082.714,0.7252513592194652,0.7251932765054652,Gas_Wind,1128854162.9129984
889,Maine Independence Station,ME,44.8242,-68.7094,2000,Gas_CC,548,114875000.0,1379044.941,81954.866,Wind,140.74220208295782,81954.866,0.7253333140854652,0.7252513592194652,Gas_Wind,1128936117.7789984
1299,Charles D. Lamb Energy Center,OK,36.813889,-97.125278,2015,Gas_SC,122,118247000.0,1401776.227,83307.952,Wind,140.80929988225614,83307.952,0.7254166220374653,0.7253333140854652,Gas_Wind,1129019425.7309983
977,Jack County,TX,33.101,-97.9574,2006,Gas_CC,1280,3449553000.0,24172733.752,1436549.3739999998,Wind,141.15566117791107,1436549.3739999998,0.7268531714114652,0.7254166220374653,Gas_Wind,1130455975.1049984
912,Rockingham County CT Station,NC,36.3297,-79.8297,2000,Gas_SC,975,667548000.0,6862918.011,408581.996,Wind,141.39336679128647,408581.996,0.7272617534074652,0.7268531714114652,Gas_Wind,1130864557.1009984
618,Remington,VA,38.5442,-77.7714,2000,Gas_SC,704,720233000.0,7055949.974,419713.811,Wind,142.13696651502056,419713.811,0.7276814672184652,0.7272617534074652,Gas_Wind,1131284270.9119985
169,Coughlin Power Station,LA,30.8439,-92.261111,1961,Gas_CC,920,3841940000.0,27472642.949,1632662.042,Wind,142.1380328033568,1632662.042,0.7293141292604652,0.7276814672184652,Gas_Wind,1132916932.9539986
1073,Fountain Valley Power Facility,CO,38.5569,-104.6875,2001,Gas_SC,228,162596000.0,1789184.101,106332.457,Gas,142.16000921840848,50849.14197781723,0.7293649784024431,0.7293141292604652,Gas_Gas,1133023265.4109986
581,Combustion Turbine Project No 2,CA,38.088138,-121.386944,1996,Gas_SC,50,36125000.0,277134.767,16469.095,Wind,142.37945374625588,16469.095,0.729381447497443,0.7293649784024431,Gas_Wind,1133039734.5059986
7,J K Smith,KY,37.8833,-84.1017,1999,Gas_SC,1663,333852000.0,3852807.891,229094.517,Wind,142.44274846099847,229094.517,0.7296105420144431,0.729381447497443,Gas_Wind,1133268829.0229986
1021,Fore River Generating Station,MA,42.2422,-70.9661,2003,Gas_CC,871,3410507000.0,24815891.781,1475845.104,Wind,142.9701174761164,1475845.104,0.731086387118443,0.7296105420144431,Gas_Wind,1134744674.1269987
932,Guadalupe Generating Station,TX,29.6244,-98.1419,2000,Gas_CC,1086,6232194000.0,48079114.507,2857265.997,Wind,144.28232843569782,2857265.997,0.733943653115443,0.731086387118443,Gas_Wind,1137601940.1239986
1185,Mankato Energy Center,MN,44.1988,-94.003,2006,Gas_CC,740,2908179000.0,20908426.906,1242560.548,Wind,144.47829422691507,1242560.548,0.735186213663443,0.733943653115443,Gas_Wind,1138844500.6719987
920,Kendall County Generation Facility,IL,41.4797,-88.2581,2002,Gas_CC,1256,7782079000.0,56452603.929,3354898.6380000003,Wind,145.56672560364214,3354898.6380000003,0.7385411123014429,0.735186213663443,Gas_Wind,1142199399.3099988
989,Doyle Energy Facility,GA,33.837699,-83.699577,2000,Gas_SC,406,117900000.0,1348435.336,80135.409,Wind,145.75688568369807,80135.409,0.738621247710443,0.7385411123014429,Gas_Wind,1142279534.7189987
758,Linden Cogen Plant,NJ,40.6322,-74.2156,1992,Gas_CC,972,7062279000.0,48924010.625,2908231.739,Wind,146.37569183075547,2908231.739,0.741529479449443,0.738621247710443,Gas_Wind,1145187766.4579988
895,Gregory Power Plant,TX,27.88929,-97.258417,2000,Gas_CC,432,645490000.0,4464191.792,265300.42000000004,Wind,146.53926777604883,265300.42000000004,0.741794779869443,0.741529479449443,Gas_Wind,1145453066.8779988
885,Tenaska Frontier Generation Station,TX,30.5924,-95.9178,2000,Gas_CC,939,3795586000.0,27085063.826,1609632.521,Wind,146.57966488705233,1609632.521,0.743404412390443,0.741794779869443,Gas_Wind,1147062699.3989987
