,name,state,lat,lon,commissioning_year,primary_fuel,capacity,generation,fuel_consumption,emissions
527,Stock Island,FL,24.563333,-81.7342,1965,Oil,129,2103000.0,16961.092999999997,1376.082
402,Silas Ray,TX,25.9131,-97.5214,1952,Gas_CC,168,116528000.0,1470921.537,87410.28
77,Lauderdale,FL,26.0686,-80.1984,1957,Gas_SC,3003,411469000.0,3872543.989,230719.654
78,Port Everglades,FL,26.0856,-80.1253,1960,Gas_CC,3060,6500494000.0,40796329.79,2425341.361
914,Magic Valley Generating Station,TX,26.3403,-98.19,2002,Gas_CC,801,3521852000.0,23012859.884,1367622.259
91,Tom G Smith,FL,26.612767,-80.0677,1961,Gas_SC,143,142000.0,966.052,57.174
76,Fort Myers,FL,26.6967,-81.7831,1958,Gas_CC,3298,9991866000.0,67975741.038,4041413.56
1218,West County Energy Center,FL,26.6986,-80.3747,2009,Gas_CC,4263,20305240000.0,130326163.705,7745813.823
79,Riviera,FL,26.7653,-80.0525,1962,Gas_CC,1915,6701391000.0,41590560.008,2474489.893
463,Martin,FL,27.0536,-80.5628,1980,Gas_CC,6069,11444544000.0,78574021.87,4670052.302
1217,Treasure Coast Energy Center,FL,27.383889,-80.3775,2008,Gas_CC,410,1939531000.0,13851910.346,823197.605
1063,Vandolah Power Station,FL,27.523607,-81.923951,2002,Gas_SC,728,586287000.0,5852124.626,348686.199
377,Laredo,TX,27.5667,-99.5089,1951,Gas_SC,448,78048000.0,700677.91,41638.487
462,Manatee,FL,27.6058,-82.3456,1976,Gas_SC,2949,9844684000.0,74676196.824,4450233.3780000005
447,Barney M Davis,TX,27.6064,-97.3117,1974,Gas_CC,1081,1335596000.0,10299947.489,612109.759
1325,Okeechobee Clean Energy Center,FL,27.634167,-80.791111,2019,Gas_CC,1721,9720678000.0,57924032.765,3442747.613
804,Hardee Power Station,FL,27.6364,-81.9636,1993,Gas_CC,466,12159000.0,157271.376,9346.594
579,Midulla Generating Station,FL,27.641667,-81.9625,2002,Gas_CC,1408,2970151000.0,31501150.87,1872084.595
561,Polk,FL,27.7286,-81.9897,1996,Gas_CC,3346,6723242000.0,46535344.085,2765306.193
592,Tiger Bay,FL,27.746369,-81.849446,1997,Gas_CC,277,517793000.0,5725426.534,340251.62
567,Hines Energy Complex,FL,27.788215,-81.869983,1999,Gas_CC,3296,7497927000.0,82539135.494,4905994.901000001
86,Big Bend,FL,27.7944,-82.4036,1969,Coal,2076,3335206000.0,40258076.805,2852606.378
959,Corpus Christi Energy Center,TX,27.8139,-97.4283,2002,Gas_CC,591,2744112000.0,21227036.807,1261492.905
378,Nueces Bay,TX,27.819412,-97.419203,1949,Gas_CC,941,1252086000.0,9111852.548,541505.7170000001
841,Mulberry Cogeneration Facility,FL,27.8489,-81.8775,1994,Gas_CC,125,473102000.0,3516748.231,208992.09
83,P L Bartow,FL,27.859535,-82.601759,1958,Gas_CC,1966,7013834000.0,51241127.322,3045188.213
839,Orange Cogeneration Facility,FL,27.87082,-81.825061,1995,Gas_CC,136,468223000.0,3417799.753,203113.618
895,Gregory Power Plant,TX,27.88929,-97.258417,2000,Gas_CC,432,645490000.0,4464191.792,265300.42000000004
631,H L Culbreath Bayside Power Station,FL,27.9072,-82.4231,1965,Gas_CC,2785,5013603000.0,53789560.455,3196640.9220000003
1061,Osprey Energy Center Power Plant,FL,28.0525,-81.8083,2004,Gas_CC,644,2446131000.0,17320023.553,1029307.08
92,Larsen Memorial,FL,28.0797,-81.9228,1956,Gas_CC,158,103643000.0,1452965.512,86352.363
93,C D McIntosh Jr,FL,28.0801,-81.9229,1970,Gas_CC,1409,2031202000.0,21820771.667,1583518.393
679,Anclote,FL,28.184444,-82.788611,1974,Gas_SC,1112,2373107000.0,25707131.313,1527741.288
680,Intercession City,FL,28.262778,-81.548611,1974,Gas_SC,1190,338375000.0,4261053.072,255443.943
560,Cane Island,FL,28.2764,-81.533,1994,Gas_CC,705,4016957000.0,28456574.801,1691151.239
1009,Oleander Power Project LP,FL,28.3661,-80.7947,2002,Gas_SC,990,105597000.0,1100562.498,65406.168000000005
1062,Shady Hills Generating Station,FL,28.3665,-82.558611,2002,Gas_SC,1058,223631000.0,2197261.534,130693.851
842,Orlando Cogen LP,FL,28.442623,-81.412343,1993,Gas_CC,122,971585000.0,7335540.345,435944.713
75,Cape Canaveral,FL,28.4698,-80.7644,1965,Gas_CC,2099,6512104000.0,41643131.499,2477298.379
62,Stanton Energy Center,FL,28.4822,-81.1678,1987,Coal,1260,5925807000.0,54802139.683,4917903.897
1151,Curtis H Stanton Energy Center,FL,28.488246,-81.166944,2003,Gas_CC,1016,1944268000.0,15784197.49,938035.342
94,Indian River Plant,FL,28.493232,-80.780124,1989,Gas_SC,342,23594000.0,330808.612,19692.638
1329,Port Comfort Power LLC,TX,28.64807,-96.54621,2017,Gas_SC,120,50094000.0,444437.984,26412.332
1341,Victoria Port Power LLC,TX,28.695805,-96.945409,2019,Gas_SC,100,89423000.0,759650.819,45147.231
504,San Miguel,TX,28.7044,-98.4775,1982,Coal,410,2610918000.0,29608943.004,3223528.661
500,Coleto Creek,TX,28.7128,-97.214167,1980,Coal,622,2705523000.0,28661161.895,3005980.887
1340,Victoria City Power LLC,TX,28.7853,-97.0093,2020,Gas_SC,100,100374000.0,841447.719,50007.763
379,Victoria,TX,28.7883,-97.01,1955,Gas_CC,712,966155000.0,7497727.98,445582.317
80,Sanford,FL,28.8419,-81.3256,1959,Gas_CC,2532,9918293000.0,67973650.826,4039583.507
410,Sam Rayburn,TX,28.8947,-97.135,1963,Gas_CC,238,89517000.0,972792.196,59365.893
464,DeBary,FL,28.903863,-81.332329,1975,Oil,808,151523000.0,1880178.913,113573.26
82,Crystal River,FL,28.9656,-82.6977,1966,Coal,5299,15609828000.0,116870276.679,8557198.43
873,Sweeny Cogen Facility,TX,29.0728,-95.745,1997,Gas_SC,572,3243291000.0,55995276.912,3327820.999
408,V H Braunig,TX,29.2567,-98.3825,1966,Gas_SC,1138,4133757000.0,32127964.626,1909358.638
761,Newgulf Cogen,TX,29.2639,-95.8997,1984,Gas_SC,113,11313000.0,132822.986,7893.285
1215,Colorado Bend Energy Center,TX,29.2878,-96.0683,2002,Gas_CC,580,2293136000.0,18406654.52,1093882.665
1321,Colorado Bend II,TX,29.289415,-96.065399,2017,Gas_CC,1228,5779141000.0,37756059.193,2243788.309
407,O W Sommers,TX,29.308056,-98.3242,1972,Gas_SC,892,979976000.0,10762585.211,639604.099
547,J K Spruce,TX,29.309722,-98.3203,1992,Coal,1444,5671932000.0,61814937.049,6342205.970000001
406,Leon Creek,TX,29.3525,-98.5761,1953,Gas_SC,416,135777000.0,1268963.726,75409.791
1079,Green Power 2,TX,29.378097,-94.932773,2003,Gas_CC,861,1322500000.0,48285090.776,2869502.616
815,Texas City Power Plant,TX,29.378697,-94.943829,1987,Gas_CC,450,2498476000.0,18672472.948,1109683.367
1037,Jack Fusco Energy Center,TX,29.4731,-95.6244,2003,Gas_CC,1075,3527252000.0,24895043.695,1479473.957
1300,W.A. Parish Carbon Capture Plant,TX,29.475278,-95.634167,2013,Gas_SC,102,154859000.0,1955909.002,116237.519
388,W A Parish,TX,29.4828,-95.6311,1958,Coal,4005,11731786000.0,116339094.918,11373985.015
1322,Bacliff,TX,29.49233,-94.98483,2018,Gas_SC,426,129998000.0,1566138.4,92408.2
176,Houma,LA,29.5806,-90.7225,1948,Gas_SC,94,28765000.0,339518.653,20176.954
923,Rio Nogales Power Project,TX,29.593056,-97.973215,2002,Gas_CC,940,4406314000.0,29134738.74,1731435.086
713,Bayou Cogen Plant,TX,29.6225,-95.0458,1984,Gas_SC,620,2322614000.0,32623627.833,1890563.488
932,Guadalupe Generating Station,TX,29.6244,-98.1419,2000,Gas_CC,1086,6232194000.0,48079114.507,2857265.997
88,John R Kelly,FL,29.6461,-82.3208,1958,Gas_CC,237,833568000.0,6915963.718,410986.712
1332,Friendswood Energy,TX,29.647267,-95.451516,2018,Gas_SC,121,26054000.0,303172.882,18016.349
1305,LEPA Unit No. 1,LA,29.691111,-91.192778,2016,Gas_CC,74,210844000.0,1635772.625,97208.075
572,San Jacinto Steam Electric Station,TX,29.694838,-95.040622,1995,Gas_SC,176,932261000.0,12785306.369,759890.8809999999
1040,Exelon LaPorte Generating Station,TX,29.7028,-95.0718,2001,Gas_SC,236,94127000.0,1125209.3,66387.1
1077,Deer Park Energy Center,TX,29.713414,-95.134508,2003,Gas_CC,1176,7606662000.0,74957014.012,4454592.061
1017,Channel Energy Center LLC,TX,29.7189,-95.2319,2001,Gas_CC,923,6321357000.0,41304301.868,2454647.917
882,Pasadena Cogeneration,TX,29.72475,-95.176479,1998,Gas_CC,815,4292438000.0,28465346.669,1691662.0699999998
22,Seminole (FL),FL,29.733056,-81.632778,1984,Coal,2278,7093448000.0,68315035.552,7009117.937
385,Cedar Bayou,TX,29.75,-94.9256,1970,Gas_SC,2295,2006819000.0,20382213.632,1211289.521
1253,Cedar Bayou 4,TX,29.751645,-94.92312,2009,Gas_CC,534,1142069000.0,12884676.997,765719.9619999999
87,Deerhaven Generating Station,FL,29.7592,-82.3878,1972,Coal,469,750718000.0,8258550.147,622402.804
1024,Baytown Energy Center,TX,29.7731,-94.9019,2002,Gas_CC,932,5145459000.0,36713138.949,2181804.809
927,Hays Energy Project,TX,29.7806,-97.9894,2002,Gas_CC,986,2482393000.0,18268292.329,1085662.021
796,Optim Energy Altura Cogen LLC,TX,29.8161,-95.10773,1985,Gas_CC,638,3400434000.0,38558836.591,2291515.129
170,Teche,LA,29.822222,-91.5425,1953,Gas_SC,467,503159000.0,5116865.048,304082.141
947,Channelview Cogeneration Plant,TX,29.836952,-95.121744,2001,Gas_CC,917,7702042000.0,52952329.596,3146883.225
1330,Chamon Power LLC,TX,29.883214,-95.111345,2017,Gas_SC,120,44814000.0,403419.687,23972.504
501,Fayette Power Project,TX,29.9172,-96.7506,1979,Coal,1690,9411477000.0,97702623.278,10247053.41
387,T H Wharton,TX,29.9417,-95.5306,1960,Gas_CC,1435,676002000.0,9721290.904,307513.648
172,Nine Mile Point,LA,29.9472,-90.1458,1951,Gas_SC,2788,9734496000.0,81544367.131,4846137.255
898,Taft Cogeneration Facility,LA,29.9888,-90.4599,2002,Gas_CC,892,3652995000.0,42945276.377,2552160.82
683,Waterford 1 & 2,LA,29.998884,-90.47684,1975,Gas_SC,931,134210000.0,1479339.405,88188.89199999999
171,Little Gypsy,LA,30.005067,-90.461694,1961,Gas_SC,1249,1713462000.0,18307564.102,1087990.954
1336,St. Charles Power Station (LA),LA,30.01,-90.460833,2019,Gas_CC,1000,5995705000.0,41588645.251,2471553.306
384,Sabine,TX,30.0242,-93.878,1962,Gas_SC,2049,4956860000.0,50392669.797,2994758.426
1248,Winchester Power Park,TX,30.0381,-96.9875,2010,Gas_SC,240,33859000.0,289890.808,17229.46
906,Sabine Cogen,TX,30.0444,-93.771389,2000,Gas_CC,105,114266000.0,1585069.487,94199.018
786,ExxonMobil Beaumont Refinery,TX,30.0636,-94.0753,1957,Gas_SC,696,5549538000.0,37203476.229,2210347.25
404,Sim Gideon,TX,30.1456,-97.2708,1965,Gas_SC,623,680051000.0,6856742.529,407490.218
937,Bastrop Energy Center,TX,30.1458,-97.55,2002,Gas_CC,618,2650673000.0,18743972.082,1113936.983
933,Lost Pines 1 Power Project,TX,30.1478,-97.2714,2001,Gas_CC,608,1940683000.0,21070905.502,1252212.01
1251,Greenland Energy Center,FL,30.159131,-81.518415,2011,Gas_SC,610,599962000.0,6191672.347,368157.123
935,Calcasieu,LA,30.1608,-93.345,2000,Gas_SC,358,85015000.0,977380.331,58082.714
96,S O Purdom,FL,30.162304,-84.200673,1963,Gas_CC,350,663452000.0,6650960.348,395280.832
1208,Hargis-Hebert Electric Generating,LA,30.1694,-91.9923,2006,Gas_SC,100,23036000.0,246671.442,14660.357
634,Sand Hill,TX,30.2098,-97.6129,2001,Gas_CC,694,1653851000.0,12772728.073,759015.837
913,RS Cogen,LA,30.221,-93.2992,2002,Gas_CC,493,2780683000.0,25617820.258,1522424.954
1056,Carville Energy LLC,LA,30.2294,-91.065,2003,Gas_CC,555,2712275000.0,20606522.516,1224614.117
1186,T J Labbe Electric Generating,LA,30.2554,-92.0433,2005,Gas_SC,100,22527000.0,234523.033,13938.073
1038,Cottonwood Energy Project,TX,30.2588,-93.7353,2003,Gas_CC,1428,6305658000.0,45079097.467,2678989.193
85,Lansing Smith,FL,30.2686,-85.7003,1965,Gas_CC,999,5059620000.0,35228323.383,2093567.51
1337,Lake Charles Power,LA,30.272631,-93.299056,2020,Gas_CC,1000,3326237000.0,22113306.498,1314161.819
1067,Bayou Cove Peaking Power,LA,30.2825,-92.5997,2002,Gas_SC,416,59126000.0,715655.956,42529.793
168,R S Nelson,LA,30.2844,-93.2911,1959,Gas_SC,1594,1017215000.0,11279371.814,1182981.035
401,Decker Creek,TX,30.3033,-97.6128,1971,Gas_SC,930,718600000.0,8587296.678,486626.463
1239,Hardin County Peaking Facility,TX,30.3038,-94.2526,2001,Gas_SC,172,96045000.0,1176841.821,69936.379
624,Brandy Branch,FL,30.320556,-81.947222,2001,Gas_CC,783,3608274000.0,35947312.271,2136338.607
221,Chevron Oil,MS,30.34,-88.4919,1967,Gas_SC,169,600125000.0,6774642.308,402605.776
89,J D Kennedy,FL,30.364818,-81.625967,1973,Gas_SC,538,134223000.0,1300445.788,77451.624
90,Northside Generating Station,FL,30.4172,-81.5525,1966,Coal,1405,5080842000.0,55671482.453,4623721.522
1238,San Jacinto County Peaking Facility,TX,30.4193,-95.0118,2001,Gas_SC,170,239685000.0,2826051.008,167945.994
940,Acadia Energy Center,LA,30.428611,-92.413056,2002,Gas_CC,1388,6130920000.0,40352690.487,2398103.372
383,Lewis Creek,TX,30.4356,-95.5214,1970,Gas_SC,542,2362997000.0,23027716.052,1368501.96
223,Jack Watson,MS,30.4392,-89.0286,1957,Gas_SC,1212,2392307000.0,23890945.719,1416769.574
95,Arvah B Hopkins,FL,30.4522,-84.4,1970,Gas_CC,1107,1412279000.0,11056639.06,657115.279
595,Theodore Cogen Facility,AL,30.525445,-88.128477,2000,Gas_CC,317,2066939000.0,13248743.35,787360.525
473,Victor J Daniel Jr,MS,30.5322,-88.5553,1977,Gas_CC,2226,11271082000.0,86375917.652,6399159.56
446,Thomas C Ferguson,TX,30.558,-98.3705,1974,Gas_CC,1020,2336710000.0,23833676.627,1416400.308
84,Crist,FL,30.5661,-87.2244,1945,Coal,1226,1308078000.0,14486362.104,1263481.962
987,Santa Rosa Energy Center,FL,30.5664,-87.115,2003,Gas_CC,274,1558289000.0,11160881.175,663271.781
885,Tenaska Frontier Generation Station,TX,30.5924,-95.9178,2000,Gas_CC,939,3795586000.0,27085063.826,1609632.521
177,Big Cajun 1,LA,30.6739,-91.3556,1972,Gas_SC,490,58208000.0,692928.76,41180.423
512,Dansby,TX,30.7217,-96.4608,1978,Gas_SC,203,184525000.0,2087481.998,124061.837
466,Big Cajun 2,LA,30.7261,-91.3692,1981,Coal,2632,1373749000.0,15225489.627,1075686.12
986,Hog Bayou Energy Center,AL,30.7478,-88.0575,2001,Gas_CC,280,1679333000.0,12651626.193,751871.215
1086,Washington Parish Energy Center,LA,30.791389,-89.909166,2020,Gas_SC,1053,8645000.0,66571.89,3956.169
169,Coughlin Power Station,LA,30.8439,-92.261111,1961,Gas_CC,920,3841940000.0,27472642.949,1632662.042
0,Barry,AL,31.0069,-88.0103,1954,Coal,2839,11673453000.0,91895874.8,6846726.2
1289,Panda Temple Power Station,TX,31.055833,-97.317222,2014,Gas_CC,1606,5626809000.0,42995459.605,2555158.964
543,Major Oak Power,TX,31.091925,-96.69503,1990,Coal,948,2702959000.0,28259329.438,3076585.624
502,Oak Grove (TX),TX,31.1803,-96.4866,2010,Coal,3394,14156221000.0,131696051.869,14334643.816
590,Washington County Cogeneration Facility,AL,31.2504,-88.0156,1999,Gas_CC,121,1065946000.0,7939410.125,471835.7
545,McIntosh (AL),AL,31.2546,-88.0299,1991,Gas_SC,676,395499000.0,4000347.393,237737.219
604,Sowega Power,GA,31.3869,-84.08,1999,Gas_SC,98,76468000.0,731632.018,43481.607
1018,Baconton Power Plant,GA,31.3869,-84.08,2000,Gas_SC,240,153500000.0,1459241.299,86724.126
505,Brame Energy Center,LA,31.395,-92.716667,1975,Coal,1706,5368708000.0,56392476.86,5593480.331
53,McWilliams,AL,31.400255,-86.476449,1954,Gas_CC,653,2879239000.0,29887417.483,1776162.766
32,Limestone,TX,31.4219,-96.2525,1985,Coal,1849,6332172000.0,63944990.991,6702640.393999999
1243,Sandy Creek Energy Station,TX,31.474378,-96.957149,2013,Coal,1008,4884613000.0,47161984.870000005,4943073.232
8,Lowman Energy Center,AL,31.488019,-87.910747,1969,Coal,538,394730000.0,4043808.636,414894.287
225,Moselle,MS,31.528,-89.3004,1970,Gas_CC,509,1882630000.0,15859938.67,942495.124
398,Permian Basin,TX,31.5839,-102.9633,1958,Gas_SC,1094,360918000.0,4550546.2,268610.9
662,Silver Creek,MS,31.6004,-89.9468,2003,Gas_SC,249,48171000.0,575687.413,34213.527
273,Rio Grande,NM,31.8047,-106.5472,1957,Gas_SC,397,928728000.0,9949978.056,591310.323
1307,Montana Power Station,TX,31.823889,-106.211944,2015,Gas_SC,524,892520000.0,8210589.978,487946.605
1134,Nacogdoches Power,TX,31.832132,-94.90064,2012,Gas_CC,1039,61763000.0,821611.453,85703.184
964,Odessa-Ector Power Plant,TX,31.8403,-102.3264,2001,Gas_CC,1152,6953503000.0,47080164.321,2797912.954
1214,Quail Run Energy Center,TX,31.8414,-102.315,2002,Gas_CC,548,1683678000.0,14628847.316,869366.746
939,Bosque County Peaking,TX,31.8594,-97.3586,2000,Gas_CC,807,3971665000.0,30634795.32,1820587.018
974,Freestone Energy Center,TX,31.8907,-96.1131,2002,Gas_CC,1032,7015915000.0,48468395.127,2880402.058
399,Stryker Creek,TX,31.93985,-94.989834,1958,Gas_SC,712,226304000.0,2456600.196,145992.466
663,Sylvarena,MS,31.982076,-89.412714,2003,Gas_SC,141,239332000.0,2170681.193,128997.608
382,Newman,TX,31.983587,-106.431777,1960,Gas_CC,879,3118790000.0,29565593.574,1757096.285
921,Tenaska Gateway Generating Station,TX,32.017826,-94.619743,2001,Gas_CC,939,4216745000.0,30123587.635,1790567.149
6,Dolet Hills,LA,32.030556,-93.569167,1986,Coal,720,793116000.0,7632777.63,830981.316
25,Apache Station,AZ,32.0603,-109.8931,1963,Gas_SC,658,2354923000.0,24173837.737,1683841.084
1304,Ector County Energy Center,TX,32.069167,-102.585556,2015,Gas_SC,358,700927000.0,7569973.618,449879.925
961,Afton Generating Station,NM,32.114185,-106.846483,2002,Gas_CC,464,953546000.0,7236969.873,430082.228
400,Trinidad (TX),TX,32.124519,-96.101277,1965,Gas_SC,243,47639000.0,637461.958,37882.898
19,H Wilson Sundt Generating Station,AZ,32.16,-110.9047,1958,Gas_SC,736,1016524000.0,10599106.418,629887.725
657,Pyramid,NM,32.2363,-108.5494,2003,Gas_SC,184,131700000.0,1274790.595,75869.983
18,Demoss Petrie,AZ,32.252273,-110.992148,2001,Gas_SC,85,1949000.0,21859.563,1299.097
494,Martin Lake,TX,32.2606,-94.5706,1977,Coal,3179,14044368000.0,135840242.896,14788925.215
822,C R Wing Cogen Plant,TX,32.273178,-101.422386,1987,Gas_CC,229,643828000.0,6149831.097,365478.925
1058,Effingham County Power Project,GA,32.277252,-81.284411,2003,Gas_CC,595,1905950000.0,20766046.055,1234096.351
224,Baxter Wilson,MS,32.2831,-90.9306,1967,Gas_SC,1327,1577580000.0,15533548.14,923362.417
1031,Luna Energy Facility,NM,32.299349,-107.7834,2006,Gas_CC,650,3392675000.0,23007921.352,1367327.687
971,Ennis Power Company LLC,TX,32.32,-96.675,2002,Gas_CC,418,859613000.0,7014038.985,416834.635
925,Wolf Hollow I LP,TX,32.33422,-97.731686,2003,Gas_CC,786,2140053000.0,15627527.446,928720.487
1316,Wolf Hollow II,TX,32.337679,-97.734612,2017,Gas_CC,1231,5477361000.0,36496565.495,2168936.036
1189,McIntosh Combined Cycle Facility,GA,32.3478,-81.1817,2005,Gas_CC,1374,8722374000.0,60743931.837,3609919.419
655,Lordsburg Generating,NM,32.35051,-108.69799,2002,Gas_SC,88,16044000.0,131111.812,7792.312
490,McIntosh,GA,32.356287,-81.168347,1979,Gas_SC,985,59530000.0,791241.0,47043.4
1159,Jasper,SC,32.3594,-81.1242,2004,Gas_CC,999,5393716000.0,37546655.606,2231415.451
389,Knox Lee,TX,32.3766,-94.6415,1950,Gas_SC,501,142341000.0,1704954.682,101321.453
967,Hinds Energy Facility,MS,32.378969,-90.219906,2001,Gas_CC,599,3086898000.0,20977381.988,1246659.052
633,E B Harris Electric Generating Plant,AL,32.381352,-86.574366,2003,Gas_CC,2534,4536292000.0,30763680.4,1828239.85
1123,Harrison County Power Project,TX,32.3958,-94.4367,2003,Gas_CC,570,2993085000.0,21130361.77,1255745.497
864,Johnson County,TX,32.3994,-97.4078,1996,Gas_CC,282,940117000.0,7417756.133,440824.707
899,Midlothian Energy Facility,TX,32.4302,-97.0537,2000,Gas_CC,1734,4080310000.0,30079046.604,1787556.582
941,Eastman Cogeneration Facility,TX,32.4481,-94.6903,2001,Gas_CC,467,2560304000.0,24894178.654,1479433.551
635,Pirkey,TX,32.4607,-94.4852,1985,Coal,721,2379413000.0,22761955.815,2478093.857
878,Mid-Georgia Cogeneration Facility,GA,32.4856,-83.6039,1997,Gas_CC,322,147133000.0,1201021.919,71513.678
16,Saguaro,AZ,32.5517,-111.3,1954,Gas_SC,435,87338000.0,1160786.078,68982.795
1095,CalPeak Power Border Peaker Plant,CA,32.562448,-116.943869,2001,Gas_SC,60,21748000.0,178603.615,10492.631
1107,Larkspur Energy Facility,CA,32.567041,-116.944197,2001,Gas_SC,98,41575000.0,349904.717,20792.772
1279,Pio Pico Energy Center,CA,32.573889,-116.917777,2016,Gas_SC,393,129273000.0,1006895.174,59839.065
577,Robins,GA,32.5792,-83.5822,1995,Gas_SC,182,23708000.0,265475.10000000003,15745.3
1032,Otay Mesa Generating Project,CA,32.581481,-116.914969,2009,Gas_CC,686,2192815000.0,15281656.652,908171.814
643,Talbot County Energy,GA,32.5892,-84.6917,2002,Gas_SC,726,504779000.0,5623401.582,334272.254
1105,Chula Vista Energy Center,CA,32.591667,-117.058611,2001,Gas_SC,37,2844000.0,45498.151,2703.781
3,Greene County,AL,32.6017,-87.7811,1965,Gas_SC,1288,1153839000.0,11641749.925,696954.552
594,H Allen Franklin Combined Cycle,AL,32.6078,-85.0975,2002,Gas_CC,2680,12982872000.0,87423375.625,5195443.6
1070,Central Alabama Generating Station,AL,32.6497,-86.74,2003,Gas_CC,927,5408761000.0,40248912.806,2391941.2970000003
1001,Tenaska Lindsay Hill Generating Station,AL,32.6514,-86.7386,2002,Gas_CC,939,1874407000.0,14490465.095,861178.546
1268,Ratcliffe,MS,32.654722,-88.762222,2014,Gas_CC,839,4609735000.0,31651622.68,1881009.101
409,R W Miller,TX,32.6581,-98.3103,1968,Gas_SC,602,200073000.0,2193265.5700000003,130374.992
1110,Perryville Power Station,LA,32.6908,-92.0183,2001,Gas_CC,822,3268537000.0,22919726.695,1362091.052
175,Lieberman,LA,32.7047,-93.9597,1947,Gas_SC,278,25051000.0,317446.994,18866.88
173,Sterlington,LA,32.7047,-92.0792,1958,Gas_SC,473,1120000.0,12628.037,750.5219999999999
1078,Ouachita,LA,32.7061,-92.0683,2002,Gas_CC,903,3486067000.0,26487928.882,1574139.764
277,Cunningham,NM,32.7131,-103.3533,1957,Gas_SC,517,1345768000.0,14318869.367,850966.878
274,Maddox,NM,32.714224,-103.301469,1963,Gas_SC,210,524387000.0,5440333.754,323309.838
17,Yucca,AZ,32.7214,-114.7106,1959,Gas_SC,421,425651000.0,4890130.695,290612.052
381,Mountain Creek,TX,32.7231,-96.9358,1945,Gas_SC,956,421671000.0,4755090.759000001,282593.319
396,Handley,TX,32.7283,-97.2192,1948,Gas_SC,1431,606086000.0,7200511.399999999,427917.228
1221,Hobbs Generating Station,NM,32.728333,-103.309444,2008,Gas_CC,679,3905790000.0,33968382.615,2018692.626
855,Yuma Cogeneration Associates,AZ,32.728822,-114.654053,1994,Gas_CC,62,113945000.0,1041395.097,61884.789
1083,Forney Energy Center,TX,32.7563,-96.4916,2003,Gas_CC,1892,10668173000.0,75053854.56,4460347.393
1264,El Cajon Energy Center,CA,32.796106,-116.972073,2010,Gas_SC,60,7992000.0,71954.22,4276.673
1096,Cuyamaca Peak Energy Plant,CA,32.796491,-116.972071,2002,Gas_SC,48,8196000.0,77963.961,4561.981
652,Kemper County,MS,32.7976,-88.606,2002,Gas_SC,372,237128000.0,2844636.671,169112.43
42,El Centro Hybrid,CA,32.802222,-115.54,1952,Gas_CC,435,660521000.0,5363384.605,318738.575
361,Hagood,SC,32.8265,-79.9634,1991,Gas_SC,176,18096000.0,242570.411,16567.102
380,Lake Hubbard,TX,32.8358,-96.5458,1970,Gas_SC,927,473910000.0,5233697.556,311027.425
391,Wilkes,TX,32.848163,-94.547986,1964,Gas_SC,882,751984000.0,7860591.172,467167.276
1199,Miramar Energy Facility,CA,32.8769,-117.166389,2005,Gas_SC,106,91829000.0,815270.616,48449.834
919,Desert Basin,AZ,32.9042,-111.7889,2001,Gas_CC,646,1856180000.0,14023585.181,833394.723
998,Edward L. Addison Generating Plant,GA,32.9111,-84.3064,2000,Gas_SC,700,369666000.0,3899301.86,231913.1
1260,Coolidge Generation Station,AZ,32.917399,-111.503327,2011,Gas_SC,720,586213000.0,5214119.697,309870.42
1102,Sundance,AZ,32.9285,-111.5899,2002,Gas_SC,690,470536000.0,4685144.242,278431.814
888,Mustang Station,TX,32.9728,-102.7417,1999,Gas_CC,520,1940590000.0,15329314.265,910999.778
1212,Mustang Station Unit 4,TX,32.974554,-102.743607,2006,Gas_SC,510,1314077000.0,13702583.831,814324.963
613,Smarr Energy Center,GA,32.9842,-83.8464,1999,Gas_SC,242,277558000.0,3503189.2800000003,208189.588
1060,Hillabee Energy Center,AL,33.000669,-85.903278,2010,Gas_CC,822,5420538000.0,36777104.596,2185607.354
968,Attala,MS,33.0147,-89.6753,2001,Gas_CC,550,1992302000.0,13944152.135,828680.025
365,Williams,SC,33.0158,-79.9297,1972,Coal,711,2923951000.0,26361645.203,2704237.285
493,Welsh,TX,33.05522,-94.839993,1977,Coal,1674,3587706000.0,38601790.456,4048551.427
1022,Wise County Power LLC,TX,33.0583,-97.9103,2004,Gas_CC,821,2545713000.0,18212781.737,1082361.37
518,Scherer,GA,33.0606,-83.8075,1982,Coal,3564,6455829000.0,71558364.304,7505037.866
403,Ray Olinger,TX,33.068055,-96.452481,1967,Gas_SC,426,20625000.0,249777.525,14853.475
1026,Washington County Power LLC,GA,33.092239,-82.979992,2003,Gas_SC,792,117409000.0,1186052.13,70485.607
977,Jack County,TX,33.101,-97.9574,2006,Gas_CC,1280,3449553000.0,24172733.752,1436549.3739999998
856,Goal Line LP,CA,33.1185,-117.0995,1994,Gas_CC,51,20729000.0,170920.884,10156.825
1125,AL Sandersville LLC,GA,33.1189,-82.8608,2002,Gas_SC,688,36308000.0,446755.1,26360.5
1172,Palomar Energy,CA,33.1197,-117.117778,2005,Gas_CC,559,2103466000.0,14586585.049,866860.637
1097,CalPeak Power Enterprise Peaker Plant,CA,33.121943,-117.117441,2001,Gas_SC,58,20525000.0,173485.98,10150.828
1104,Escondido Energy Center,CA,33.1261,-117.1172,2001,Gas_SC,98,16611000.0,135204.052,8034.294
395,Graham,TX,33.1344,-98.6117,1960,Gas_SC,634,224191000.0,2369463.469,140814.709
1175,AMEA Peaking,AL,33.1661,-86.2825,2004,Gas_SC,98,43195000.0,418583.2,24690.5
443,Powerlane Plant,TX,33.1707,-96.1264,1966,Gas_SC,110,8128000.0,108269.125,6443.4
444,Spencer,TX,33.1975,-97.1061,1955,Gas_SC,172,2984000.0,49105.425,2919.1
1236,Niland Gas Turbine Plant,CA,33.238842,-115.504456,2008,Gas_SC,120,123628000.0,1066096.057,63357.516
4,E C Gaston,AL,33.244211,-86.458056,1960,Gas_SC,2033,4159470000.0,44005747.7,3832358.702
1133,Choctaw County,MS,33.2881,-89.4201,2003,Gas_CC,899,3511191000.0,37344958.965,2219356.867
1044,Union Power Station,AR,33.296146,-92.589364,2003,Gas_CC,2428,9809940000.0,70151888.792,4169027.528
514,Winyah,SC,33.33184,-79.357236,1975,Coal,1260,2631016000.0,26210305.23,2689178.031
687,Santan,AZ,33.3325,-111.7503,1974,Gas_CC,1321,4900374000.0,34689677.238,2061555.255
1074,Red Hawk,AZ,33.334562,-112.840641,2002,Gas_CC,1138,5716503000.0,38889979.831,2311182.125
1005,Arlington Valley Energy Facility,AZ,33.3417,-112.8897,2002,Gas_CC,713,2197057000.0,15561216.584,924781.924
682,Gerald Andrus,MS,33.35,-91.1167,1975,Gas_SC,781,1038230000.0,11519664.597,684678.854
884,Tenaska Georgia Generation Facility,GA,33.3516,-84.9996,2001,Gas_SC,1098,73089000.0,715520.485,42621.14
24,Kyrene,AZ,33.3556,-111.9353,1952,Gas_CC,572,1697711000.0,11461683.53,681150.912
926,Hawk Road Facility,GA,33.358472,-84.991391,2001,Gas_SC,495,643567000.0,7035119.319,418089.721
1258,Orange Grove Peaking Facility,CA,33.3594,-117.1114,2010,Gas_SC,118,22254000.0,197457.356,11734.937
556,Cope,SC,33.3644,-81.03,1996,Gas_SC,417,1028009000.0,9646353.337,693924.287
21,Cross,SC,33.371506,-80.113235,1984,Coal,2389,6832826000.0,71046981.476,7289416.468
1128,Quantum Choctaw Power LLC,MS,33.3792,-89.2089,2006,Gas_CC,850,3036637000.0,21958130.614,1304939.435
1166,Wansley Combined Cycle,GA,33.406385,-85.036988,2002,Gas_CC,1238,8625756000.0,58146792.939,3455591.238
644,Chattahoochee Energy Facility,GA,33.4072,-85.0386,2003,Gas_CC,539,3464723000.0,23652938.358,1405661.706
648,Wansley Unit 9,GA,33.4083,-85.0403,2004,Gas_CC,592,2138515000.0,22487977.908,1336428.957
465,Wansley,GA,33.41342,-85.032329,1976,Coal,1956,238194000.0,2421208.108,248110.061
14,Ocotillo,AZ,33.4225,-111.9122,1960,Gas_SC,1137,778366000.0,6998883.022,415931.12
363,Urquhart,SC,33.435,-81.9111,1953,Gas_CC,755,1363832000.0,15099214.228,899655.8539999999
15,West Phoenix,AZ,33.4417,-112.1583,1948,Gas_CC,1324,2726067000.0,20384204.648,1211403.972
100,Yates,GA,33.4622,-84.8986,1950,Gas_SC,1484,2428382000.0,25020975.687,1486953.61
392,Jones,TX,33.5239,-101.7392,1971,Gas_SC,858,2817409000.0,28763007.782,1709344.851
23,Agua Fria,AZ,33.5561,-112.2153,1957,Gas_SC,611,346970000.0,3546740.864,210779.456
1290,Panda Sherman Power Station,TX,33.582573,-96.617893,2014,Gas_CC,803,2800004000.0,19063492.143,1132914.982
1059,Calhoun Energy Center,AL,33.5883,-85.9731,2003,Gas_SC,748,41521000.0,422671.26,25547.344
405,J Robert Massengale,TX,33.6039,-101.8408,1952,Gas_CC,106,53979000.0,455395.248,27060.001
611,Fulton (AR),AR,33.6094,-93.7924,2001,Gas_SC,154,73745000.0,752603.74,44726.938
1013,Blythe Energy Inc,CA,33.6157,-114.6865,2003,Gas_CC,591,1299373000.0,14184216.271,842948.417
901,Lamar Power Project,TX,33.6308,-95.59,2000,Gas_CC,1112,7187123000.0,49674214.115,2952070.291
450,James H Miller Jr,AL,33.6319,-87.0597,1978,Coal,2820,17594945000.0,179699736.425,18846905.225
35,AES Huntington Beach LLC,CA,33.6439,-117.9792,1958,Gas_SC,1021,1322790000.0,9458494.236,562099.998
952,Caledonia,MS,33.6464,-88.2717,2003,Gas_CC,801,4612607000.0,31395597.479,1865796.315
1235,John W Turk Jr Power Plant,AR,33.649722,-93.811944,2012,Coal,609,3751582000.0,32814037.894,3441534.109
759,Paris Energy Center,TX,33.6968,-95.5577,1989,Gas_CC,264,408641000.0,3474746.948,206500.832
36,Long Beach Generation LLC,CA,33.7641,-118.2248,1976,Gas_CC,587,37891000.0,573005.9990000001,34052.905
44,Haynes,CA,33.764741,-118.09913,1962,Gas_SC,2882,3802589000.0,28051436.0,1636605.754
33,AES Alamitos LLC,CA,33.7688,-118.1009,1956,Gas_SC,2055,1785596000.0,15163913.192,901172.842
43,Harbor,CA,33.7706,-118.2656,1972,Gas_SC,591,78120000.0,765275.759,44720.597
1334,Stanton Energy Reliability Center Hybrid,CA,33.806801,-117.985758,2020,Gas_SC,160,49860000.0,474567.421,28204.887
1226,Barre Peaker,CA,33.8073,-117.9832,2007,Gas_SC,49,54567000.0,444714.825,26429.343
603,MPC Generating,GA,33.8119,-83.6953,2000,Gas_SC,385,6812000.0,74036.66699999999,4508.599
918,Walton County Power LLC,GA,33.8148,-83.6954,2001,Gas_SC,492,318036000.0,3151280.794,187275.659
98,Jack McDonough,GA,33.8239,-84.4758,1963,Gas_CC,3443,18976953000.0,127623709.352,7584444.817
364,Wateree,SC,33.8264,-80.6228,1970,Coal,770,914984000.0,8639431.337000001,886406.4909999999
989,Doyle Energy Facility,GA,33.837699,-83.699577,2000,Gas_SC,406,117900000.0,1348435.336,80135.409
38,AES Redondo Beach LLC,CA,33.8504,-118.395,1954,Gas_SC,1316,320561000.0,4445420.7,264167.6
1265,Canyon Power Plant,CA,33.858056,-117.861667,2011,Gas_SC,200,129525000.0,1171072.31,69598.04
1285,Antelope Station,TX,33.865,-101.843333,2011,Gas_SC,162,778290000.0,6930909.28,411895.363
1047,Columbia Energy Center (SC),SC,33.8697,-81.0178,2004,Gas_CC,668,2980152000.0,23892419.4,1364928.278
708,Carson Cogeneration,CA,33.8759,-118.2491,1989,Gas_CC,55,21575000.0,188613.65,11209.479
34,El Segundo Power,CA,33.909804,-118.424172,1955,Gas_SC,996,440008000.0,3540209.776,210389.773
1106,Indigo Energy Facility,CA,33.910873,-116.552994,2001,Gas_SC,147,49797000.0,437200.972,25984.572
45,Scattergood,CA,33.918151,-118.427648,1958,Gas_SC,1714,1773127000.0,13597388.757,794092.53
1227,Center Hybrid,CA,33.9296,-118.1046,2007,Gas_SC,59,24636000.0,231665.641,13767.381
1276,"Sentinel Energy Center, LLC",CA,33.934167,-116.571388,2013,Gas_SC,800,730710000.0,5964026.111,354436.256
609,Sewell Creek Energy,GA,33.9486,-85.2769,2000,Gas_SC,570,426763000.0,4639901.166999999,275741.619
1188,Riverside Energy Resource Center,CA,33.9636,-117.4528,2006,Gas_SC,196,125585000.0,1047800.734,62271.338
1179,Malburg,CA,33.9986,-118.2219,2005,Gas_CC,130,628973000.0,5084236.563,302156.932
1225,Mira Loma Peaker,CA,34.0053,-117.5604,2007,Gas_SC,49,25125000.0,208546.398,12392.979
1278,Walnut Creek Energy Park,CA,34.008709,-117.944864,2013,Gas_SC,500,505896000.0,3995182.757,237430.641
538,Hugo,OK,34.0158,-95.3206,1982,Coal,1196,229638000.0,2675860.913,273573.031
1164,Agua Mansa Power Plant,CA,34.0414,-117.3603,2003,Gas_SC,60,16436000.0,162191.325,9639.375
362,McMeekin,SC,34.0556,-81.2172,1958,Gas_SC,292,1105026000.0,9416088.506,558190.689
39,Mountainview Generating Station,CA,34.0818,-117.2418,1957,Gas_CC,1164,2973461000.0,21384891.706,1270879.594
20,Oklaunion,TX,34.0825,-99.1753,1986,Coal,720,1209201000.0,12914358.63,1354458.972
1224,Grapeland Hybrid,CA,34.0903,-117.5343,2007,Gas_SC,59,21290000.0,199560.993,11858.877
97,Bowen,GA,34.1256,-84.9222,1971,Coal,3538,8768072000.0,84573288.441,8677220.883
47,Glenarm,CA,34.126,-118.1494,1976,Gas_SC,263,59400000.0,553801.559,32911.778
37,Ormond Beach,CA,34.1292,-119.1689,1971,Gas_SC,1612,757790000.0,7227871.532,429541.632
40,Grayson,CA,34.1556,-118.2782,1953,Gas_CC,353,116596000.0,1676318.122,99537.634
394,Plant X,TX,34.1661,-102.4114,1952,Gas_SC,434,976440000.0,10435557.995,620181.384
661,Lake One,CA,34.1772,-118.3147,2002,Gas_SC,60,17220000.0,167376.478,9947.286
1180,Magnolia Power Project,CA,34.1786,-118.3153,2005,Gas_CC,386,1378018000.0,10040818.274,596713.382
1051,Crossroads Energy Center,MS,34.183,-90.5621,2002,Gas_SC,304,123895000.0,1577082.507,93726.843
507,Tolk,TX,34.186494,-102.56999,1982,Coal,1134,2029709000.0,21336678.285,2222219.412
1223,McGrath Peaker,CA,34.205556,-119.246944,2012,Gas_SC,49,26932000.0,222666.322,13233.604
890,Pine Bluff Energy Center,AR,34.2181,-91.9025,2001,Gas_CC,236,1824535000.0,12525257.621,744360.373
46,Valley (CA),CA,34.244991,-118.391327,1954,Gas_CC,1232,893450000.0,6397637.384,373259.724
306,L V Sutton Steam,NC,34.283056,-77.985278,1954,Coal,760,4158880000.0,29036887.88,1725646.213
1065,Hot Spring Generating Facility,AR,34.29759,-92.868344,2002,Gas_CC,1426,1181335000.0,8659294.141,514608.998
692,Springerville,AZ,34.3186,-109.1639,1985,Coal,2176,8527353000.0,83732537.387,8777652.853
886,Batesville Generation Facility,MS,34.3356,-89.9275,2000,Gas_CC,1180,3964559000.0,31032589.753,1844228.465
614,John S Rainey,SC,34.347734,-82.774478,2001,Gas_CC,1632,4222107000.0,44888370.774,2667136.603
359,Darlington County,SC,34.4185,-80.1657,1974,Oil,1037,5148000.0,62005.218,4473.433
452,White Bluff,AR,34.4228,-92.1406,1980,Coal,1800,4195667000.0,46014977.17,4824080.41
1136,Magnet Cove,AR,34.4297,-92.8317,2005,Gas_CC,746,1914072000.0,12178633.156,723762.398
27,Lake Catherine,AR,34.4341,-92.9049,1950,Gas_SC,751,499406000.0,5247637.251,311859.148
684,Comanche (OK),OK,34.5431,-98.3244,1962,Gas_CC,294,147192000.0,2295895.651,136442.054
499,Coronado,AZ,34.5789,-109.2708,1979,Coal,820,3000622000.0,32998176.892,3460853.88
969,Harry L. Oswald,AR,34.5923,-92.2166,2002,Gas_CC,599,465218000.0,3543324.762,210578.029
1101,High Desert Power Plant,CA,34.5953,-117.3647,2003,Gas_CC,852,3321435000.0,23703996.215,1408691.932
360,W S Lee,SC,34.6022,-82.435,1951,Gas_CC,1402,6188730000.0,43079081.452,2560892.822
1147,Valencia Energy Facility,NM,34.611549,-106.732234,2008,Gas_SC,654,75511000.0,815940.523,48490.342
1298,La Luz Energy Center,NM,34.616111,-106.815,2015,Gas_SC,84,13868000.0,108998.45,6478.316
1010,Decatur Energy Center,AL,34.6292,-87.0214,2002,Gas_CC,900,1553502000.0,11008537.459,654223.054
1011,Morgan Energy Center,AL,34.6397,-87.0639,2003,Gas_CC,900,2958429000.0,22287849.863,1324531.448
1089,Kiamichi Energy Facility,OK,34.6831,-95.9349,2003,Gas_CC,1366,5360668000.0,41298343.444,2454302.362
1046,Thomas A Smith Energy Facility,GA,34.7094,-84.9175,2002,Gas_CC,1192,7359362000.0,52711239.017,3132551.997
5,Colbert,AL,34.7439,-87.8486,1955,Coal,1822,3731000.0,53425.0,3304.1
1072,Magnolia Power Plant,MS,34.835,-89.2026,2003,Gas_CC,1002,5376643000.0,39801866.898,2365371.562
608,Sherwood H Smith Jr Energy Complex,NC,34.8392,-79.7406,2001,Gas_CC,2241,7720048000.0,65330394.147,3883258.789
1209,Hamlet Generating Facility,NC,34.842311,-79.736087,2007,Gas_SC,342,66949000.0,627355.496,37283.786
942,South Point Energy Center,AZ,34.8678,-114.5317,2001,Gas_CC,708,3164007000.0,23297818.77,1384558.425
13,Cholla,AZ,34.9394,-110.3033,1962,Coal,1127,3529723000.0,40707844.837,4176620.563
1120,"Pastoria Energy Facility, LLC",CA,34.9556,-118.844,2005,Gas_CC,779,4041414000.0,33505208.942,1991171.23
334,Seminole,OK,34.96645,-96.7258,1971,Gas_SC,1724,2667360000.0,28228357.389,1677574.715
1205,Anson County Generation Facility,NC,34.968651,-79.921738,2007,Gas_SC,342,97366000.0,919487.999,54794.704
999,TVA Southaven Combined Cycle,MS,34.9939,-90.0378,2003,Gas_CC,903,4825238000.0,32473408.66,1929843.826
877,Rio Bravo,NM,35.026,-106.644,2000,Gas_SC,150,131297000.0,1508569.722,89766.982
1230,Black Mountain Generating Station,AZ,35.0361,-114.1594,2008,Gas_SC,120,180993000.0,1687855.524,100307.529
915,Griffith Energy LLC,AZ,35.054029,-114.133272,2002,Gas_CC,653,2447489000.0,17111808.528,1016928.412
881,Cherokee County Cogen,SC,35.0727,-81.613,1998,Gas_CC,101,238778000.0,2776713.647,165015.424
370,Allen,TN,35.074087,-90.14868,1959,Gas_CC,2764,3815383000.0,24638356.599,1464222.803
936,Broad River Energy Center,SC,35.0786,-81.575,2000,Gas_SC,985,320668000.0,3100542.3430000003,184268.634
339,Anadarko Plant,OK,35.0847,-98.23,1953,Gas_CC,534,563726000.0,5410401.36,175547.163
336,Southwestern,OK,35.1009,-98.3524,1952,Gas_SC,657,504821000.0,6010680.263,356641.376
658,Mill Creek (SC),SC,35.1597,-81.4306,2002,Gas_SC,792,77439000.0,918683.797,55702.883
1267,Cleveland Cnty Generating Facility,NC,35.170547,-81.416648,2012,Gas_SC,1472,624292000.0,5999753.653,356843.63
275,Reeves,NM,35.171,-106.6019,1960,Gas_SC,154,123633000.0,1455196.284,86479.228
308,G G Allen,NC,35.1897,-81.0122,1957,Coal,1148,638355000.0,5705477.373,585379.488
1312,Kings Mountain Energy Center,NC,35.2025,-81.363056,2018,Gas_CC,543,2929189000.0,19784814.126,1175782.836
945,Sunrise Power LLC,CA,35.2097,-119.585,2001,Gas_CC,684,3065877000.0,20816500.443,1237093.178
310,James E. Rogers Energy Complex,NC,35.22,-81.7594,1940,Coal,2540,5789040000.0,50317830.194,4597599.933
1053,Elk Hills Power LLC,CA,35.280318,-119.470707,2003,Gas_CC,623,3553190000.0,26427279.757,1570652.877
393,Nichols,TX,35.283357,-101.746423,1960,Gas_SC,473,1351105000.0,14264860.448,847745.3369999999
931,La Paloma Generating Plant,CA,35.2956,-119.5919,2003,Gas_CC,1200,1683375000.0,12327116.162,732593.802
1075,McClain Energy Facility,OK,35.29774,-97.58985,2001,Gas_CC,550,2027271000.0,20765777.089,1234080.628
506,Harrington,TX,35.29816,-101.747187,1976,Coal,1080,3689626000.0,35342404.537,3685235.861
785,McKittrick Limited,CA,35.319503,-119.661992,1991,Gas_SC,46,16792000.0,157919.325,9383.5
11,Escalante,NM,35.4159,-108.082,1984,Coal,257,637931000.0,6378643.973,668993.557
733,Bear Mountain Limited,CA,35.419181,-118.926643,1995,Gas_SC,46,43642000.0,397448.05,23620.25
564,Lincoln Combustion,NC,35.4317,-81.0347,1995,Gas_SC,1744,60567000.0,640754.129,38165.512
782,Frontier,OK,35.439722,-97.625,1989,Gas_CC,131,224609000.0,1829087.25,90563.621
28,Thomas Fitzhugh,AR,35.462382,-93.804926,1963,Gas_CC,185,434792000.0,3751482.31,223336.403
333,Mustang,OK,35.46988,-97.67498,1950,Gas_SC,995,1161180000.0,10664970.871,629325.727
302,Asheville,NC,35.4731,-82.5417,1964,Gas_CC,1421,3057631000.0,22039315.643,1319492.146
859,Live Oak Limited,CA,35.4837,-119.0298,1992,Gas_SC,46,22116000.0,196218.7,11659.3
734,Badger Creek Limited,CA,35.483736,-119.029856,1991,Gas_SC,46,19723000.0,176720.125,10502.675
331,Horseshoe Lake,OK,35.50866,-97.17969,1958,Gas_SC,973,1100144000.0,11918441.24,708294.052
894,Brownsville Peaking Power,TN,35.5438,-89.198,1999,Gas_SC,460,334949000.0,3834429.612,227873.668
312,Marshall (NC),NC,35.5975,-80.9658,1965,Coal,2118,6545010000.0,59710933.33499999,6104876.479
1126,Higgins Generating Station,NV,35.6139,-115.3561,2004,Gas_CC,688,1842700000.0,13480493.969,801130.104
623,Lagoon Creek,TN,35.6578,-89.3964,2001,Gas_SC,1619,3862041000.0,25338618.622,1506225.597
1220,Plum Point Energy Station,AR,35.6644,-89.9489,2010,Coal,720,3579835000.0,35408538.771,3713368.926
530,Independence Steam Electric Station,AR,35.678442,-91.408761,1983,Coal,1800,3136187000.0,35188269.116000004,3688666.339
1076,Redbud Power Plant,OK,35.6856,-97.2264,2004,Gas_CC,1428,6086733000.0,44912352.005,2669066.3
887,Black Hawk Station,TX,35.6957,-101.36,1999,Gas_SC,369,1874490000.0,17991850.827,1064517.741
309,Buck,NC,35.7133,-80.3767,1941,Gas_CC,1169,3978445000.0,27054524.116,1607803.927
612,Rowan,NC,35.7314,-80.6019,2001,Gas_SC,1190,3016686000.0,31680685.36,1882801.645
1118,Spring Creek Energy Center,OK,35.7422,-97.655,2001,Gas_SC,336,64463000.0,822285.711,48867.08
332,Muskogee,OK,35.76135,-95.28732,1956,Gas_SC,1889,2887174000.0,31639775.147,2623045.207
892,Desert Star Energy Center,NV,35.788889,-114.994167,2000,Gas_CC,535,1052953000.0,8026666.717,477014.132
1293,Delano Energy Center,CA,35.790864,-119.294469,2013,Gas_SC,60,7433000.0,73875.325,4389.869
1232,Jonesboro City Water & Light Plant,AR,35.848561,-90.725377,1999,Gas_SC,222,10558000.0,112600.1,6666.9
1030,Dell Power Station,AR,35.8619,-90.0253,2007,Gas_CC,678,2887799000.0,21468053.054,1275819.427
376,Kingston,TN,35.8992,-84.5194,1954,Coal,1700,1746724000.0,18878690.876,1958476.24
800,Salinas River Cogeneration,CA,35.9515,-120.8679,1991,Gas_SC,38,260005000.0,3338059.135,198378.541
928,Green Country Energy LLC,OK,35.9833,-95.9346,2002,Gas_CC,903,4330907000.0,30928885.454,1838053.253
448,Riverside (OK),OK,35.9978,-95.9567,1974,Gas_SC,1120,360773000.0,4471766.243,265563.063
973,Oneta Energy Center,OK,36.0119,-95.6967,2002,Gas_CC,1214,6575696000.0,47218564.498,2806134.957
371,Bull Run,TN,36.0211,-84.1567,1967,Coal,950,739769000.0,7270929.042,745998.767
375,Johnsonville,TN,36.0278,-87.9861,1951,Coal,2906,1049384000.0,8623089.481,498715.351
254,Clark (NVE),NV,36.0875,-115.0507,1955,Gas_SC,1556,305307000.0,2762815.958,164189.31399999998
337,Tulsa,OK,36.116492,-95.990974,1948,Gas_SC,443,286760000.0,3340183.4050000003,198503.179
867,Sun Peak Generating Station,NV,36.1375,-115.0339,1991,Gas_SC,222,128077000.0,1529402.831,90890.914
1213,Harry D Mattison Gas Plant,AR,36.1855,-94.2841,2007,Gas_SC,348,57073000.0,691161.8,40779.1
26,GREC,OK,36.190278,-95.2894,1981,Gas_CC,1734,2615424000.0,17736827.73,1099988.09
599,Chouteau,OK,36.222058,-95.277064,2000,Gas_CC,1068,6282371000.0,43467959.588,2583233.637
712,King City Power Plant,CA,36.225,-121.1278,1989,Gas_CC,132,76789000.0,633703.0889999999,37661.669
744,Las Vegas Generating Station,NV,36.2319,-115.1222,1994,Gas_CC,354,270089000.0,2819195.911,167537.117
1148,Henrietta Peaker,CA,36.2397,-119.9044,2002,Gas_SC,98,38999000.0,328624.255,19529.858
992,Gleason Generating Facility,TN,36.2454,-88.612,2000,Gas_SC,567,470362000.0,4899365.157,291158.105
492,Flint Creek,AR,36.2561,-94.5241,1978,Coal,558,1992327000.0,20074444.36,2105410.454
1129,Hanford Energy Park Peaker,CA,36.270072,-119.648055,2001,Gas_SC,92,24028000.0,214117.937,12725.933
678,Belews Creek,NC,36.2811,-80.0603,1974,Coal,2490,5751348000.0,51475866.161,4846203.945
373,Gallatin (TN),TN,36.3156,-86.4006,1956,Coal,1914,2765308000.0,27983225.26,2853724.553
912,Rockingham County CT Station,NC,36.3297,-79.8297,2000,Gas_SC,975,667548000.0,6862918.011,408581.996
374,John Sevier,TN,36.3767,-82.9639,1955,Gas_CC,1796,5176365000.0,35867829.357,2131601.988
1023,Chuck Lenzie Generating Station,NV,36.383719,-114.921779,2006,Gas_CC,1462,6351277000.0,46868347.229,2785324.351
372,Cumberland (TN),TN,36.3903,-87.6539,1973,Coal,2600,10186573000.0,101328432.745,10382601.489
1154,Silverhawk,NV,36.4078,-114.9606,2004,Gas_CC,664,2626535000.0,19774016.517,1175139.812
1098,Apex Generating Station,NV,36.415999,-114.960916,2003,Gas_CC,600,2818786000.0,19243962.735,1143652.533
546,Harry Allen,NV,36.430554,-114.902405,1995,Gas_CC,743,3529996000.0,25457435.529,1512898.14
335,Northeastern,OK,36.4317,-95.7008,1961,Coal,1949,3054286000.0,34998029.009,2688246.005
340,Mooreland,OK,36.43725,-99.22543,1964,Gas_SC,305,41683000.0,449061.798,26698.286
781,Rosemary Power Station,NC,36.4517,-77.6594,1990,Oil,180,2815000.0,38362.613000000005,3104.8700000000003
483,Sooner,OK,36.45307,-97.05279,1979,Coal,2088,2562602000.0,26416800.709,2765181.454
305,Roxboro,NC,36.4833,-79.0731,1966,Coal,2573,2310556000.0,55418825.502,5681613.894
311,Dan River,NC,36.4862,-79.7208,1949,Gas_CC,1084,4600143000.0,32132747.475,1909590.869
240,New Madrid,MO,36.5147,-89.5617,1972,Coal,1300,6524903000.0,59087591.284,6197073.609999999
722,Kingsburg Cogen,CA,36.5397,-119.5794,1990,Gas_CC,36,2682000.0,36446.521,2165.899
588,St Francis Energy Facility,MO,36.5852,-90.1779,1999,Gas_CC,506,985606000.0,7230221.97,429682.715
707,Fresno Cogen Partners,CA,36.617022,-120.099846,1990,Gas_CC,102,2316000.0,24683.834000000003,1467.136
1252,Panoche Energy Center,CA,36.6514,-120.5833,2009,Gas_SC,432,648928000.0,5186319.358,308212.42100000003
1094,CalPeak Power Panoche Peaker Plant,CA,36.652905,-120.580609,2001,Gas_SC,60,25302000.0,208728.341,12248.977
1245,Midway Peaking LLC,CA,36.654114,-120.579727,2009,Gas_SC,138,35575000.0,348478.315,20710.77
1008,Wolf Hills Energy,VA,36.6644,-82.1044,2001,Gas_SC,285,117125000.0,1157880.2,68266.1
1203,Malaga Power LLC,CA,36.6697,-119.7404,2005,Gas_SC,120,16713000.0,133407.559,7928.278
1280,Algonquin Power Sanger LLC,CA,36.6842,-119.5522,1990,Gas_CC,73,52836000.0,536778.508,31900.404
272,Four Corners,NM,36.69,-108.4814,1963,Coal,2269,8243761000.0,80177568.04,8226212.118
1171,Bluffview,NM,36.716628,-108.215282,2005,Gas_CC,67,378099000.0,3146952.191,187015.089
1319,Greensville County Power Station,VA,36.718236,-77.649559,2018,Gas_CC,1770,10939560000.0,70502052.51,4189822.459
101,Ponca,OK,36.71979,-97.085758,1977,Gas_SC,48,13725000.0,123333.719,7329.908
1297,Brunswick County Power Station,VA,36.765,-77.713889,2016,Gas_CC,1470,10165534000.0,69586192.378,4135381.48
814,Elizabeth River Power Station,VA,36.775,-76.3083,1992,Gas_SC,387,87045000.0,1062716.2,63054.9
276,San Juan,NM,36.8006,-108.4386,1973,Coal,1848,5352045000.0,59622703.411,6249613.377
31,Dynegy Moss Landing Power Plant Hybrid,CA,36.804837,-121.782241,1967,Gas_SC,2802,5487443000.0,38567163.41,2185318.142
1299,Charles D. Lamb Energy Center,OK,36.813889,-97.125278,2015,Gas_SC,122,118247000.0,1401776.227,83307.952
597,Essex,MO,36.868206,-89.840173,1999,Gas_SC,229,91668000.0,1062467.131,63140.718
558,Clover,VA,36.869,-78.704,1995,Coal,848,1360680000.0,13959582.122,1432252.161
537,Sikeston Power Station,MO,36.8791,-89.6209,1981,Coal,261,1783184000.0,16880136.51,1770392.745
414,Clinch River,VA,36.9333,-82.1997,1958,Gas_SC,711,288032000.0,3096889.291,184039.754
166,Cooper,KY,36.9981,-84.5919,1965,Coal,343,176455000.0,1722022.663,176678.565
1149,Gilroy Peaking Energy Center,CA,36.999,-121.5363,2001,Gas_SC,135,36501000.0,352307.753,20937.466
700,Gilroy Power Plant,CA,37.0001,-121.5367,1987,Gas_CC,130,116154000.0,940467.78,55885.3
979,Marshall Energy Facility,KY,37.0286,-88.3958,2002,Gas_SC,688,26941000.0,320044.87,19768.555
1234,PPS Power Plant No 1,KY,37.03385,-88.615862,2010,Gas_SC,120,18545000.0,197132.811,11715.17
150,Coffeyville,KS,37.037344,-95.612689,1956,Gas_SC,62,290000.0,2835.279,168.146
566,State Line Combined Cycle,MO,37.0659,-94.614,1995,Gas_CC,690,2964912000.0,19529633.906,1160668.171
144,Riverton,KS,37.072616,-94.698704,1950,Gas_CC,397,1521111000.0,10841966.64,644324.479
239,James River Power Station,MO,37.108611,-93.261944,1957,Gas_SC,450,127363000.0,1660484.109,99450.829
1206,Millcreek Power Generation,UT,37.112092,-113.516581,2006,Gas_SC,80,114276000.0,1087877.951,64367.55
511,Empire Energy Center,MO,37.1385,-94.1041,1978,Gas_SC,378,249804000.0,3304106.258,197016.755
162,Shawnee,KY,37.1517,-88.775,1953,Coal,1750,4089194000.0,44866116.756,4705547.174
508,John Twitty Energy Center,MO,37.151706,-93.38804,1976,Coal,603,1828216000.0,17677672.701,1796233.656
544,Gravel Neck,VA,37.1575,-76.6911,1970,Gas_SC,403,148614000.0,1907276.9,113015.2
141,Cimarron River,KS,37.1611,-100.7619,1963,Gas_SC,65,480000.0,6582.435,390.832
1140,Buchanan Generation LLC,VA,37.175278,-81.961388,2002,Gas_SC,88,461314000.0,4357006.208,258931.451
110,Joppa Steam,IL,37.2094,-88.858889,1953,Coal,1098,4492161000.0,44699839.569,4446866.1
418,Yorktown,VA,37.2144,-76.4611,1957,Gas_SC,1256,65754000.0,770931.991,62395.709
626,MEPI GT Facility,IL,37.2175,-88.8661,1974,Gas_SC,300,19836000.0,345110.868,20510.279
1050,Metcalf Energy Center,CA,37.2207,-121.7457,2005,Gas_CC,635,2478826000.0,17624841.103,1047420.399
542,East 12th Street,KS,37.2367,-96.9625,1970,Gas_SC,27,7772000.0,95608.5,5637.0
636,McCartney,MO,37.248431,-93.170839,2002,Gas_SC,116,41516000.0,473450.383,28137.892
161,Paradise,KY,37.2608,-86.9783,1963,Coal,3718,7584661000.0,52114080.138,3316502.109
732,Hopewell Cogeneration,VA,37.291667,-77.281111,1990,Gas_CC,399,1501401000.0,17264209.884,1025984.208
1176,Donald Von Raesfeld Power Plant,CA,37.3767,-121.9508,2005,Gas_CC,154,493310000.0,3846162.996,228570.896
416,Chesterfield,VA,37.3822,-77.3833,1952,Coal,1797,3645796000.0,30464363.285,2020768.003
1141,Los Esteros Critical Energy Center,CA,37.425,-121.9319,2003,Gas_CC,306,302573000.0,2390644.581,142075.801
540,D B Wilson,KY,37.4497,-87.0806,1984,Coal,509,2511569000.0,25905336.594,2657884.525
1183,Walnut Energy Center,CA,37.4878,-120.8956,2006,Gas_CC,298,1268114000.0,10275608.133,611271.058
557,Darbytown,VA,37.498223,-77.368544,1990,Gas_SC,368,106638000.0,1346145.6,80893.3
570,Almond Power Plant,CA,37.5744,-120.985,1996,Gas_SC,223,266714000.0,2568416.243,152638.392
114,Marion,IL,37.619747,-88.953114,1963,Coal,422,1000046000.0,12859348.206,1356548.317
1222,Russell City Energy Center,CA,37.63466,-122.13381,2013,Gas_CC,655,1130920000.0,7965583.245999999,473379.7
529,R D Green,KY,37.6461,-87.5,1979,Coal,586,1302573000.0,13717138.673,1407376.869
562,Woodland,CA,37.652602,-121.020397,1993,Gas_CC,195,409127000.0,3408812.739,202588.743
103,Grand Tower Energy Center LLC,IL,37.6577,-89.511161,1951,Gas_CC,639,1171248000.0,11380872.664,676329.532
149,Chanute 2,KS,37.6953,-95.4586,1965,Gas_SC,64,243288000.0,3269468.305,193589.122
1254,Bear Garden,VA,37.695556,-78.285278,2011,Gas_CC,559,4402099000.0,30382240.542,1805606.03
1160,Tracy Combined Cycle Power Plant,CA,37.7107,-121.4906,2003,Gas_CC,335,749035000.0,5840826.638,347113.039
1187,Ripon Generation Station,CA,37.7315,-121.116,2006,Gas_SC,120,18971000.0,192550.903,11442.331
142,Fort Dodge,KS,37.7328,-99.9497,1969,Gas_SC,149,3164000.0,34321.450000000004,2039.589
155,E W Brown,KY,37.78831,-84.71257,1957,Gas_SC,1748,1458548000.0,15795745.82,1516834.619
1277,Mariposa Energy Project,CA,37.789167,-121.601944,2012,Gas_SC,196,130768000.0,1143482.591,67953.93
145,Gordon Evans Energy Center,KS,37.7903,-97.521667,1961,Gas_SC,902,134118000.0,1473745.773,87637.59
160,Elmer Smith,KY,37.7942,-87.0608,1964,Coal,445,501812000.0,4914382.851,504216.512
811,Doswell Energy Center,VA,37.820805,-77.446246,1991,Gas_CC,1313,5804767000.0,52120200.275,3097620.62
1069,Tenaska Virginia Generating Station,VA,37.8667,-78.3813,2004,Gas_CC,1011,4572029000.0,32395611.093,1925324.45
7,J K Smith,KY,37.8833,-84.1017,1999,Gas_SC,1663,333852000.0,3852807.891,229094.517
491,A B Brown,IN,37.9053,-87.715,1979,Coal,706,2369786000.0,25549087.069,2609644.344
126,F B Culley,IN,37.9111,-87.3275,1955,Coal,414,1020047000.0,12318607.888,1258642.022
535,Warrick,IN,37.915,-87.3328,1960,Coal,821,5239879000.0,57585408.857,5908255.332
498,Rockport,IN,37.9256,-87.0372,1984,Coal,2600,4358302000.0,41905763.266,4383521.255
12,Holcomb,KS,37.9308,-100.9725,1983,Coal,348,1590954000.0,15249576.28,1599375.823
153,Garden City,KS,37.9703,-100.8956,1962,Gas_SC,266,11882000.0,166228.21899999998,1949.35
1045,Commonwealth Chesapeake,VA,37.9892,-75.54,2000,Oil,399,28485000.0,255824.009,20757.889
1165,Riverview Energy Center,CA,38.014423,-121.790679,2003,Gas_SC,47,25786000.0,253745.559,15079.223
1027,Delta Energy Center,CA,38.0169,-121.8439,2002,Gas_CC,943,4004527000.0,27467300.377,1632335.473
1274,Marsh Landing Generating Station,CA,38.016944,-121.765,2013,Gas_SC,828,298123000.0,3034397.617,180329.804
1228,Gateway Generating Station,CA,38.0175,-121.7587,2009,Gas_CC,619,2921497000.0,21186064.809,1259066.458
966,Los Medanos Energy Center,CA,38.030071,-121.873004,2001,Gas_CC,676,3259668000.0,23003662.166,1367075.449
158,Mill Creek (KY),KY,38.0525,-85.9103,1972,Coal,1715,7340568000.0,68286753.78299999,6995650.739
619,Ladysmith,VA,38.0722,-77.5133,2001,Gas_SC,890,1184227000.0,11435831.524,682849.364
1288,Lodi Energy Center,CA,38.088056,-121.3875,2012,Gas_CC,288,484453000.0,5065499.259,301036.417
581,Combustion Turbine Project No 2,CA,38.088138,-121.386944,1996,Gas_SC,50,36125000.0,277134.767,16469.095
957,Pinckneyville,IL,38.1114,-89.3467,2000,Gas_SC,380,83681000.0,771991.5160000001,45879.129
617,Louisa Generation Facility,VA,38.1181,-78.2139,2003,Gas_SC,507,378549000.0,4005133.685,238054.684
866,Gordonsville Energy LP,VA,38.124688,-78.203543,1994,Gas_CC,300,1189547000.0,9992829.717,594369.426
495,Rush Island,MO,38.131248,-90.263157,1976,Coal,1242,7865413000.0,71684445.991,7518268.246
154,Big Sandy,KY,38.1707,-82.6176,1963,Coal,1096,948161000.0,9072868.604,539187.029
157,Cane Run,KY,38.1831,-85.8892,1962,Gas_CC,1467,4676622000.0,31617572.044,1878987.956
953,Riverside Generating LLC,KY,38.191661,-82.604586,2001,Gas_SC,1150,503762000.0,5501978.278,326974.243
111,Baldwin Energy Complex,IL,38.205,-89.8544,1970,Coal,1893,4473276000.0,42583477.514,4466151.61
49,Comanche (CO),CO,38.2081,-104.5747,1973,Coal,1634,4648786000.0,47269634.09,4883250.386
1113,Lambie Energy Center,CA,38.221577,-121.868333,2003,Gas_SC,47,16746000.0,165186.62099999998,9816.498
159,Paddys Run,KY,38.223592,-85.841704,1968,Gas_SC,226,37974000.0,373420.159,22061.642
1114,Goose Haven Energy Center,CA,38.226752,-121.843271,2003,Gas_SC,47,19155000.0,193102.843,11475.355
1157,Wolfskill Energy Center,CA,38.228522,-122.07525,2003,Gas_SC,47,11079000.0,107239.006,6372.963
1112,Creed Energy Center,CA,38.242158,-121.854722,2003,Gas_SC,47,19578000.0,195652.372,11625.815
125,R Gallagher,IN,38.2636,-85.8381,1958,Coal,600,66725000.0,663392.384,68064.195
837,Birchwood Power,VA,38.2667,-77.3147,1996,Coal,258,99801000.0,1058633.744,108615.784
1158,Prairie State Generating Station,IL,38.279167,-89.666944,2012,Coal,1766,12152389000.0,126592426.127,12988380.74
1263,Pueblo Airport Generating Station,CO,38.320833,-104.52639,2012,Gas_SC,540,994835000.0,10597713.178,629757.708
1168,Cosumnes,CA,38.338475,-121.123978,2006,Gas_CC,556,3800495000.0,26305883.09,1558188.656
1007,Big Sandy Peaker Plant,WV,38.3441,-82.5938,2001,Gas_SC,348,269174000.0,2687489.8,158624.9
146,La Cygne,KS,38.3481,-94.6456,1973,Coal,1598,6650553000.0,65925746.963,6912975.648
185,Morgantown Generating Plant,MD,38.3592,-76.9767,1970,Coal,1548,1259835000.0,12531503.731,1284643.79
1002,Ceredo Generating Station,WV,38.3681,-82.5339,2001,Gas_SC,516,111355000.0,1353242.5,79837.0
489,Gibson,IN,38.372222,-87.765833,1975,Coal,3335,12883913000.0,121401225.622,12455766.038
1309,Cove Point LNG Terminal,MD,38.385456,-76.409796,1978,Gas_SC,224,1458257000.0,18978570.575,1012755.91
584,McPherson 3,KS,38.38932,-97.61108,1998,Gas_SC,115,10699000.0,124964.692,7571.567
934,Bluegrass Generating Station,KY,38.3902,-85.4133,2002,Gas_SC,624,86992000.0,941294.503,59083.715
1088,CalPeak Power Vaca Dixon Peaker Plant,CA,38.398867,-121.923973,2002,Gas_SC,60,22654000.0,184207.621,10726.271
233,Meramec,MO,38.4017,-90.3358,1953,Coal,1040,135052000.0,1549132.857,146223.355
143,Great Bend - Sunflower,KS,38.41,-98.8689,1963,Gas_SC,81,1520000.0,17623.414,1047.064
585,Carson Ice-Gen Project,CA,38.445681,-121.462387,1995,Gas_CC,125,243467000.0,2155557.809,128351.739
1231,Emporia Energy Center,KS,38.445883,-96.065247,2008,Gas_SC,729,434267000.0,4931796.397,293090.158
420,John E Amos,WV,38.4731,-81.8233,1971,Coal,2932,11396439000.0,109028027.615,11181736.999
182,Vienna Operations,MD,38.4878,-75.8208,1968,Oil,180,1521000.0,24066.25,1953.048
587,SPA Cogen 3,CA,38.511,-121.4735,1997,Gas_CC,173,627056000.0,4571568.546,271681.184
119,AES Petersburg,IN,38.5281,-87.2525,1967,Coal,2150,6925548000.0,70137795.295,7196134.229
616,Marsh Run Generation Facility,VA,38.5283,-77.7681,2004,Gas_SC,708,596322000.0,5981067.2530000005,355516.912
586,SCA Cogen 2,CA,38.530943,-121.400128,1997,Gas_CC,191,669426000.0,5791207.806,344162.804
646,Osawatomie,KS,38.532161,-94.902633,2003,Gas_SC,739,22710000.0,233907.614,13900.224
417,Possum Point,VA,38.5367,-77.2806,1948,Oil,2081,3862181000.0,26901544.118,1604137.311
618,Remington,VA,38.5442,-77.7714,2000,Gas_SC,704,720233000.0,7055949.974,419713.811
183,Chalk Point LLC,MD,38.5444,-76.6861,1964,Gas_SC,2553,484178000.0,5546031.768,439272.376
1073,Fountain Valley Power Facility,CO,38.5569,-104.6875,2001,Gas_SC,228,162596000.0,1789184.101,106332.457
232,Labadie,MO,38.562244,-90.837686,1970,Coal,2388,17359426000.0,163826168.915,17182089.668
1256,CPV St Charles Energy Center,MD,38.5686,-76.8919,2017,Gas_CC,774,3236777000.0,26727342.417,1588380.536
1139,Hanging Rock Energy Facility,OH,38.5731,-82.7833,2003,Gas_CC,1426,10207392000.0,70461678.136,4187432.042
472,Trimble County,KY,38.5847,-85.4117,1990,Coal,2594,9717610000.0,84222695.172,8478734.484
70,Indian River Generating Station,DE,38.5857,-75.2341,1957,Coal,801,158029000.0,1606279.735,163735.061
1006,Front Range Power Plant,CO,38.6281,-104.7069,2003,Gas_CC,552,2911304000.0,22508026.153,1337615.621
690,Ray D Nixon,CO,38.633451,-104.70577,1980,Coal,281,1384958000.0,12034998.047,1258624.29
112,Venice,IL,38.6642,-90.1764,1942,Gas_SC,1097,66407000.0,656068.896,38989.655
865,Brandywine Power Facility,MD,38.6681,-76.8678,1996,Gas_CC,287,621627000.0,4892636.1850000005,290958.975
972,Wheatland Generating Facility,IN,38.6716,-87.2931,2000,Gas_SC,500,162262000.0,2031851.63,120754.458
1190,South Harper,MO,38.6803,-94.4824,2005,Gas_SC,351,59734000.0,733745.181,43605.663
1323,Keys Energy Center,MD,38.695519,-76.827785,2018,Gas_CC,829,5014709000.0,36145023.56,2148051.95
1064,Raccoon Creek Energy Center,IL,38.6996,-88.5392,2002,Gas_SC,456,5698000.0,66869.28,3973.982
461,H L Spurlock,KY,38.7,-83.8181,1977,Coal,1607,8104889000.0,73851755.807,7577184.401000001
115,Clifty Creek,IN,38.7378,-85.4206,1955,Coal,1302,4881738000.0,48939578.429,5021194.772
156,Ghent,KY,38.7497,-85.035,1974,Coal,2224,10911256000.0,102797458.607,10547018.842
625,Holden,MO,38.7538,-93.9983,2002,Gas_SC,321,240843000.0,2771409.671,164764.537
958,Kinmundy,IL,38.7619,-89.0128,2001,Gas_SC,270,18249000.0,208157.654,12370.72
647,West Gardner,KS,38.7875,-94.9861,2003,Gas_SC,408,87409000.0,1010724.897,60066.28
1210,Roseville Energy Park,CA,38.7928,-121.3811,2007,Gas_CC,165,318747000.0,2431617.684,144510.74
943,Dogwood Energy Facility,MO,38.7931,-94.3006,2001,Gas_CC,630,2210150000.0,16091225.231,956276.316
650,Lawrence County Station,IN,38.8003,-86.4511,2005,Gas_SC,402,58860000.0,589337.3130000001,35021.061
123,Edwardsport,IN,38.8067,-87.2472,1944,Coal,947,2897761000.0,23563498.544,2994571.452
51,Martin Drake,CO,38.824444,-104.833333,1962,Gas_SC,257,449750000.0,5251736.758,504985.454
456,W H Zimmer,OH,38.8675,-84.2289,1991,Coal,1425,6078823000.0,54657422.842,5591345.667
455,East Bend,KY,38.9036,-84.8514,1981,Coal,772,2492997000.0,26608833.796,2730062.755
327,Kyger Creek,OH,38.9144,-82.1289,1955,Coal,1085,5271043000.0,51540009.535,5287990.864
234,Sioux,MO,38.915479,-90.290247,1967,Coal,1098,3014662000.0,30181257.813,3165411.165
689,"Gavin Power, LLC",OH,38.9347,-82.1158,1974,Coal,2600,14344976000.0,146937430.286,15074332.081
454,Newton,IL,38.9361,-88.2781,1977,Coal,1234,2860079000.0,28793934.068,3019906.626
1163,Warren County,VA,38.971667,-78.177222,2014,Gas_CC,1470,9347369000.0,63064073.155,3747810.748
520,Mountaineer,WV,38.9794,-81.9344,1980,Coal,1300,5764921000.0,53620440.307,5491899.428
148,Lawrence Energy Center,KS,39.0072,-95.269167,1952,Coal,604,2137047000.0,21159756.632,2181852.158
1071,Columbia Energy Center,MO,39.0192,-92.2629,2001,Gas_SC,160,16807000.0,172594.04799999998,10257.376
911,Sutter Energy Center,CA,39.053139,-121.695873,2001,Gas_CC,636,1007005000.0,6778720.007,402847.231
1308,Stonewall,VA,39.058056,-77.545,2017,Gas_CC,812,5067700000.0,33868405.689,2012750.541
510,Merom,IN,39.0694,-87.5108,1982,Coal,1080,2808884000.0,29308006.55,3007001.638
929,Worthington Generation LLC,IN,39.0708,-87.0128,2000,Gas_SC,240,95129000.0,936982.016,55684.343
1054,Rolling Hills Generating,OH,39.0839,-82.3328,2003,Gas_SC,975,283169000.0,3002013.44,178402.29
1090,"Lawrenceburg Power, LLC",IN,39.0911,-84.8669,2004,Gas_CC,1232,8780279000.0,62865153.946,3735983.92
238,Blue Valley,MO,39.0919,-94.3261,1958,Gas_SC,176,2019000.0,22981.032,1365.626
620,Freedom Power Project,IL,39.103333,-88.85898,2000,Gas_SC,71,1064000.0,9231.402,548.616
1155,Feather River Energy Center,CA,39.109344,-121.60931,2003,Gas_SC,47,34524000.0,339638.412,20184.611
318,Miami Fort,OH,39.1128,-84.8036,1949,Coal,1441,7310885000.0,68113794.29,6988482.331
255,Fort Churchill,NV,39.1281,-119.1322,1968,Gas_SC,230,660444000.0,7254595.796,431131.175
227,Hawthorn,MO,39.1306,-94.4778,1969,Coal,1045,2381292000.0,22713664.04,2263843.506
718,Greenleaf 2 Power Plant,CA,39.1365,-121.6397,1989,Gas_SC,49,63901000.0,647270.177,38468.761
571,Van Sant Station,DE,39.145036,-75.548172,1991,Gas_SC,45,7595000.0,99860.114,6053.573
699,Energy Center Dover,DE,39.149549,-75.547335,1985,Gas_CC,118,94464000.0,844882.022,50212.926
469,Nearman Creek,KS,39.1681,-94.6975,1981,Coal,671,1208375000.0,13611277.482,1423278.426
497,Hunter,UT,39.1747,-111.0289,1978,Coal,1577,8738927000.0,84948794.276,8715742.669
72,McKee Run,DE,39.176222,-75.546628,1962,Gas_SC,149,5135000.0,63914.228,3798.229
179,Herbert A Wagner,MD,39.1781,-76.5268,1956,Coal,1057,106152000.0,1341439.419,123320.104
73,Brandon Shores,MD,39.18,-76.5389,1984,Coal,1370,1148597000.0,12187110.157,1250397.931
1275,Garrison Energy Center LLC,DE,39.187195,-75.499396,2015,Gas_CC,361,1620585000.0,11074302.338,658512.961
424,Mt Storm,WV,39.2008,-79.2636,1965,Coal,1680,5067481000.0,50102368.115,5140495.682
1092,Limon Generating Station,CO,39.2038,-103.7005,2002,Gas_SC,154,71243000.0,874973.2860000001,52077.904
184,Dickerson,MD,39.2097,-77.4644,1959,Coal,933,282632000.0,2854660.235,267877.677
1028,Holland Energy Facility,IL,39.223144,-88.758406,2002,Gas_CC,701,2396014000.0,16862714.759999998,1002133.715
181,Westport,MD,39.26604,-76.629537,1969,Gas_SC,121,3882000.0,53688.115,3190.805
653,Warren F Sam Beasley Generation Station,DE,39.279179,-75.623928,2002,Gas_SC,96,35491000.0,320562.205,19223.133
983,Energy Shelby County,IL,39.2794,-88.4772,2000,Gas_SC,480,331805000.0,3069795.5,181122.5
471,Jeffrey Energy Center,KS,39.286453,-96.117231,1978,Coal,2160,7742614000.0,77712558.28,8145164.31
981,Audrain Generating Station,MO,39.3092,-91.5369,2001,Gas_SC,808,23706000.0,275232.128,16357.398
1035,Pleasants Energy LLC,WV,39.3325,-81.3642,2002,Gas_SC,344,1712479000.0,17086432.614,1015467.083
605,Hamilton Peaking,OH,39.3528,-84.5183,2000,Gas_SC,32,2999000.0,35517.399999999994,2094.3
654,Peno Creek,MO,39.3531,-91.2295,2002,Gas_SC,240,24021000.0,262795.681,15618.433
1233,Colusa Generating Station,CA,39.3661,-122.27,2010,Gas_CC,711,3108859000.0,21854886.58,1298805.335
451,Pleasants Power Station,WV,39.366667,-81.294444,1979,Coal,1368,5439737000.0,51133697.24,5246313.091
449,Cumberland (NJ),NJ,39.3757,-74.9654,1990,Gas_SC,230,77632000.0,621558.308,37631.501
688,Huntington,UT,39.3792,-111.0781,1974,Coal,1037,4963083000.0,47834902.969,4907864.5600000005
422,FirstEnergy Harrison Power Station,WV,39.384167,-80.3325,1972,Coal,2052,11779753000.0,104654602.334,10737557.678
1039,Sugar Creek Power,IN,39.3931,-87.5108,2002,Gas_CC,1127,3416457000.0,23716141.326,1409419.3
1295,Clayville,NJ,39.424444,-75.02,2015,Gas_SC,73,59621000.0,524669.779,31180.227
180,Perryman,MD,39.442836,-76.221761,1972,Gas_SC,545,219390000.0,2265402.118,140663.258
470,Iatan,MO,39.4472,-94.98,1980,Coal,1725,7571663000.0,65703095.582,6890941.699
553,Woodsdale,OH,39.4492,-84.4611,1992,Gas_SC,570,66206000.0,1009049.666,60088.703
565,Sherman Avenue,NJ,39.451,-75.0578,1991,Gas_SC,112,18248000.0,216920.721,12892.044
909,Madison,OH,39.4522,-84.4647,2000,Gas_SC,688,336247000.0,4064198.31,241521.752
261,Carlls Corner,NJ,39.4547,-75.2014,1973,Gas_SC,82,8936000.0,235613.9,14599.0
1313,Middletown Energy Center,OH,39.465,-84.347778,2018,Gas_CC,543,3469907000.0,23119567.033,1373967.573
117,Eagle Valley (IN),IN,39.48517,-86.4183,1949,Gas_CC,1039,5210498000.0,33248107.499,1975885.608
271,Howard Down,NJ,39.4889,-75.0347,1942,Oil,137,73522000.0,646348.793,38415.63
539,West Station (NJ),NJ,39.4912,-75.0486,1972,Oil,27,184000.0,2204.1,178.50000000000003
526,Intermountain Power Project,UT,39.509731,-112.58018,1986,Coal,1640,7314550000.0,67177712.5,6892435.775
1284,Wabash Valley Power IGCC,IN,39.53,-87.4247,1953,Gas_SC,304,125207000.0,1235512.162,73425.318
1091,"Waterford Power, LLC",OH,39.5333,-81.7178,2003,Gas_CC,921,6800228000.0,46402092.654,2757610.524
241,Thomas Hill,MO,39.5522,-92.6381,1966,Coal,1181,7266410000.0,70350121.873,7377929.471
256,Tracy,NV,39.5625,-119.525,1961,Gas_CC,1179,4752087000.0,37371457.612,2220932.507
610,Alsey,IL,39.569771,-90.43602,1999,Gas_SC,173,20819000.0,248594.199,6981.494000000001
1052,Washington Energy Facility,OH,39.58,-81.6564,2002,Gas_CC,713,5115020000.0,36337256.795,2159466.981
105,Kincaid Generation LLC,IL,39.590556,-89.496389,1967,Coal,1318,1624422000.0,16187689.842,1697765.107
736,AES Warrior Run Cogeneration Facility,MD,39.595171,-78.745333,1999,Coal,229,949524000.0,11908738.447,1221680.864
955,Arapahoe Combustion Turbine Project,CO,39.6692,-105.0018,2000,Gas_CC,193,229686000.0,1925000.458,114398.792
1247,Longview Power Plant,WV,39.707893,-79.958974,2011,Coal,807,5487405000.0,46366753.596,4757227.216
421,FirstEnergy Fort Martin Power Station,WV,39.710833,-79.9275,1967,Coal,1152,5568901000.0,50443729.948,5175523.081
116,Harding Street,IN,39.711319,-86.196867,1941,Gas_SC,1176,1737404000.0,17931821.542,1065762.083
990,"Darby Power, LLC",OH,39.7139,-83.1778,2001,Gas_SC,564,413160000.0,4756106.0,281152.9
615,Essential Power Rock Springs LLC,MD,39.71901,-76.15976,2003,Gas_SC,770,279787000.0,2802116.533,166526.445
1311,Wildcat Point Generation Facility,MD,39.719364,-76.161625,2018,Gas_CC,1113,3110725000.0,20770286.164,1234346.086
231,Lake Road (MO),MO,39.7246,-94.8773,1950,Gas_SC,277,8760000.0,239378.293,3032.157
322,Tait Electric Generating Station,OH,39.727249,-84.211084,1967,Gas_SC,677,267502000.0,3301464.8,194781.3
67,Christiana,DE,39.7302,-75.5371,1973,Oil,52,69000.0,1675.0,135.60000000000002
1103,York Energy Center,PA,39.7375,-76.306666,2011,Gas_CC,1567,8874289000.0,64747458.556,3847909.297
69,Edge Moor,DE,39.73886,-75.50384,1954,Gas_SC,709,192386000.0,2080091.785,123945.743
551,Hay Road,DE,39.7436,-75.5072,1989,Gas_CC,1193,1209513000.0,14348604.639,852744.125
1043,Gans,PA,39.7475,-79.838888,2000,Gas_SC,86,207691000.0,2013410.143,119653.753
1117,Blue Spruce Energy Center,CO,39.747875,-104.681404,2003,Gas_SC,396,521191000.0,6192582.07,368052.31
113,Dallman,IL,39.754803,-89.602389,1968,Coal,617,916183000.0,9252006.177,946787.427
703,Pedricktown Cogeneration Company LP,NJ,39.7668,-75.4238,1992,Gas_CC,140,66386000.0,538471.775,32001.772
128,Whitewater Valley,IN,39.8028,-84.8953,1955,Coal,93,40843000.0,461185.104,47316.611
1146,Marcus Hook Energy LP,PA,39.807038,-75.421606,2004,Gas_CC,835,5430032000.0,36703298.058,2181224.926
48,Cherokee,CO,39.807275,-104.964548,1957,Gas_CC,1425,4021840000.0,31338454.353,1862330.822
548,Forked River,NJ,39.8154,-74.2098,1989,Gas_SC,76,6617000.0,77111.5,4549.9
1184,Currant Creek,UT,39.82144,-111.89345,2005,Gas_CC,649,2396139000.0,17429375.001000002,1035804.198
580,Interstate,IL,39.8233,-89.5891,1997,Gas_SC,138,28619000.0,357420.039,21265.749
423,Mitchell (WV),WV,39.8297,-80.8153,1971,Coal,1632,3956208000.0,39052565.323,4000630.396
573,Richmond,IN,39.839572,-84.965682,1992,Gas_SC,82,6162000.0,71253.057,4455.224
1261,West Deptford Energy Station,NJ,39.8414,-75.2214,2014,Gas_CC,754,2293408000.0,16421356.093,975894.662
355,Eddystone Generating Station,PA,39.858,-75.323,1960,Gas_SC,1566,13291000.0,180277.223,11166.199
1099,Fayette Energy Facility,PA,39.8592,-79.9182,2003,Gas_CC,643,5089241000.0,35518017.135,2110784.554
978,Liberty Electric Power Plant,PA,39.8614,-75.3358,2002,Gas_CC,614,2411821000.0,27416463.35,1629330.79
1119,Chambersburg,PA,39.866944,-77.685833,2001,Gas_SC,86,244839000.0,2372710.203,141002.856
1170,Hunterstown Power Plant,PA,39.8725,-77.1672,2003,Gas_CC,898,4282993000.0,46596373.326,2769155.771
783,Eagle Point Power Generation,NJ,39.8746,-75.1592,1990,Gas_CC,251,551910000.0,4437364.26,263724.553
600,Georgetown,IN,39.902556,-86.24405,2000,Gas_SC,340,244902000.0,2882872.681,171322.486
743,Camden Plant Holdings LLC,NJ,39.9175,-75.1192,1993,Gas_CC,172,119443000.0,1073546.751,63797.797
910,Vermillion Energy Facility,IN,39.922328,-87.446358,2000,Gas_SC,688,179339000.0,2135816.564,126927.216
122,Cayuga,IN,39.9242,-87.4244,1970,Coal,1182,4762761000.0,44187386.433,4526193.386
1093,Frank Knutson,CO,39.941129,-104.682015,2002,Gas_SC,154,73771000.0,912492.099,54291.524
860,Grays Ferry Cogeneration,PA,39.942219,-75.188069,1997,Gas_SC,192,865346000.0,12846683.748,638441.926
602,Henry County,IN,39.9528,-85.5039,2001,Gas_SC,180,291662000.0,2922303.334,173667.662
960,Valmont Combustion Turbine Project,CO,40.0205,-105.2009,2000,Gas_SC,142,11525000.0,112696.771,6697.747
574,Anderson,IN,40.0529,-85.7389,1992,Gas_SC,167,9927000.0,126798.711,7556.836
854,NAEA Lakewood LLC,NJ,40.0613,-74.1686,1994,Gas_CC,235,165175000.0,1943860.847,115518.244
1193,Nebo Power Station,UT,40.0614,-111.7294,2004,Gas_CC,140,487189000.0,3583163.259,212944.96
1162,NAEA Ocean Peaking Power LLC,NJ,40.0633,-74.1672,2003,Gas_SC,573,238257000.0,2391677.388,142135.22
975,Greenville Electric Generating Station,OH,40.075783,-84.615136,2000,Gas_SC,236,104257000.0,1006238.3,59385.0
265,PSEG Burlington Generating Station,NJ,40.076611,-74.879172,1967,Oil,806,18314000.0,138673.78699999998,8252.529
607,Bonanza,UT,40.0864,-109.2844,1986,Coal,609,3474383000.0,34851215.795,3575733.558
1152,Rocky Mountain Energy Center,CO,40.0908,-104.5953,2004,Gas_CC,684,3245431000.0,25871837.938,1537525.244
1219,Spindle Hill Energy Center,CO,40.092192,-104.887844,2007,Gas_SC,420,442192000.0,4690835.572,278890.855
1036,Dresden Energy Facility,OH,40.0928,-82.0276,2012,Gas_CC,676,4728086000.0,30093747.368,1788430.618
352,Brunner Island,PA,40.096111,-76.6962,1961,Gas_SC,1621,2060637000.0,19918795.885,1342783.238
124,Noblesville,IN,40.0969,-85.9714,1950,Gas_CC,283,1199041000.0,12602113.486,748959.963
788,JM Shafer Generating Station,CO,40.0986,-104.7736,1994,Gas_CC,394,789312000.0,6947369.705,412872.974
601,Tilton,IL,40.106125,-87.653818,1999,Gas_SC,188,123190000.0,1187466.184,70570.855
1087,Goose Creek Energy Center,IL,40.106931,-88.599867,2003,Gas_SC,684,21512000.0,242686.922,14422.425
1016,Fairless Energy Center,PA,40.1475,-74.7411,2004,Gas_CC,1334,8097926000.0,54310170.462,3227570.874
1331,Tenaska Westmoreland Generating Station,PA,40.175249,-79.696665,2018,Gas_CC,1134,6418323000.0,44070327.49,2619041.5360000003
321,Conesville,OH,40.1842,-81.8811,1957,Coal,2172,1177468000.0,11834871.111,1213470.392
917,Manchief Electric Generating Station,CO,40.217143,-103.68504,2000,Gas_SC,300,470307000.0,4941013.271,293636.626
513,Pawnee,CO,40.2217,-103.6803,1981,Coal,552,3337217000.0,36728409.412,3851491.118
737,Brush Generation Facility,CO,40.2415,-103.631,1990,Gas_CC,294,106917000.0,1205080.811,71619.13799999999
488,Fort St Vrain,CO,40.2461,-104.8742,1996,Gas_CC,1147,3805730000.0,30889043.449,1835692.174
316,Cardinal,OH,40.2522,-80.6486,1967,Coal,1880,9760784000.0,98432593.129,10088892.151
1339,Birdsboro Power,PA,40.268522,-75.799669,2019,Gas_CC,525,3710328000.0,24210441.502,1438793.184
598,Nodaway,MO,40.2877,-94.7913,1999,Gas_SC,314,8763000.0,109423.925,6503.964
666,Beatrice,NE,40.330184,-96.808153,2005,Gas_CC,245,732250000.0,6372835.377,378725.002
1201,Lake Side Power Plant,UT,40.331667,-111.754167,2007,Gas_CC,1385,5740027000.0,40185626.109,2388175.032
1029,Ironwood LLC,PA,40.3509,-76.3658,2001,Gas_CC,777,3300793000.0,35940023.9,2135860.525
345,Conemaugh,PA,40.3842,-79.0611,1970,Coal,1962,8186225000.0,76568322.164,7850456.132999999
1333,CPV Fairview Energy Center,PA,40.412,-78.855,2019,Gas_CC,1197,7395314000.0,46585752.289,2769719.794
950,Ontelaunee Energy Center,PA,40.4219,-75.9356,2002,Gas_CC,728,4025555000.0,28007205.096,1664428.814
715,Sayreville Cogeneration Facility,NJ,40.439,-74.3444,1991,Gas_CC,429,351723000.0,2920807.696,173577.20200000002
985,Red Oak Power LLC,NJ,40.448674,-74.348879,2002,Gas_CC,820,1871654000.0,20034977.415,1190652.614
728,Ebensburg Power,PA,40.455,-78.7472,1990,Coal,57,338299000.0,4743554.563,517889.946
794,Parlin Power Plant,NJ,40.460717,-74.327161,1991,Gas_CC,132,6855000.0,65399.015,3886.51
457,Craig (CO),CO,40.4627,-107.5912,1979,Coal,1426,7639894000.0,80418011.579,8434235.936
341,Brunot Island,PA,40.464851,-80.043761,1972,Gas_CC,414,96989000.0,1344596.326,79904.876
956,Gibson City Energy Center LLC,IL,40.4705,-88.3987,2000,Gas_SC,270,210182000.0,2484262.467,147633.886
262,Sayreville,NJ,40.476525,-74.352336,1955,Oil,462,1176000.0,21190.800000000003,1558.1
52,Hayden,CO,40.4856,-107.185,1965,Coal,465,2286358000.0,24115724.321,2474266.67
568,Redding Power,CA,40.507292,-122.423281,1989,Gas_CC,180,340140000.0,2737669.894,162700.347
346,Homer City Generating Station,PA,40.512825,-79.196107,1969,Coal,2012,3413527000.0,33998054.615,3488198.994
1283,Woodbridge Energy Center,NJ,40.515,-74.318889,2015,Gas_CC,771,4570264000.0,27287383.501,1621651.051
325,W H Sammis,OH,40.5317,-80.6319,1959,Coal,2464,5476431000.0,53871683.463,5650061.447
694,Cheswick Power Plant,PA,40.5383,-79.7906,1970,Coal,637,645388000.0,6543784.6620000005,665475.228
106,Powerton,IL,40.5408,-89.6786,1972,Coal,1784,1043563000.0,12096674.75,1286625.38
1135,Allegheny Energy Units 3 4 & 5,PA,40.545278,-79.768611,2003,Gas_CC,556,2953703000.0,27488148.366,1633579.8
951,Springdale 1 & 2,PA,40.546667,-79.768333,1999,Gas_SC,86,170621000.0,1629611.879,96846.165
705,Colver Green Energy,PA,40.55,-78.8,1995,Coal,118,558903000.0,6389007.942,238324.927
270,PSEG Sewaren Generating Station,NJ,40.5558,-74.2469,1948,Gas_CC,1174,3787163000.0,24978556.542,1485966.328
250,Sheldon,NE,40.5589,-96.7847,1961,Coal,227,563013000.0,5786358.566,606873.678
263,Gilbert,NJ,40.565833,-75.163889,1970,Gas_CC,608,20040000.0,235758.728,14768.308
10,Whelan Energy Center,NE,40.580872,-98.312437,1981,Coal,324,1163179000.0,11683032.735,1225316.813
279,Arthur Kill Generating Station,NY,40.591564,-74.200035,1959,Gas_SC,895,937632000.0,10129449.587,601846.01
102,E D Edwards,IL,40.5958,-89.6631,1960,Coal,779,3338667000.0,32727715.523,3432477.373
1315,Carroll County Energy,OH,40.60441,-81.05918,2017,Gas_CC,831,5412935000.0,38752843.805,2303006.523
1130,Bayswater Peaking Facility LLC,NY,40.610654,-73.762218,2002,Gas_SC,60,121135000.0,1267992.191,80206.897
287,E F Barrett,NY,40.616689,-73.647881,1956,Gas_SC,684,1469493000.0,15812832.339,941535.239
1127,Bethlehem Power Plant,PA,40.6175,-75.3147,2002,Gas_CC,1152,5848239000.0,45317513.271,2693975.381
681,Pouch,NY,40.6182,-74.06849,2001,Gas_SC,47,70294000.0,656805.624,39045.315
784,Westwood Generation LLC,PA,40.6191,-76.45,1987,Coal,36,214724000.0,3723178.783,440344.765
976,Montpelier Electric Generating Station,IN,40.6206,-85.3057,2001,Gas_SC,472,156264000.0,1530873.8,90326.7
484,Nebraska City,NE,40.6214,-95.7764,1979,Coal,1389,8317716000.0,83716848.543,8770945.502
268,PSEG Linden Generating Station,NJ,40.6217,-74.2072,1957,Gas_CC,2118,3409922000.0,24664883.538,1465896.209
758,Linden Cogen Plant,NJ,40.6322,-74.2156,1992,Gas_CC,972,7062279000.0,48924010.625,2908231.739
1033,Armstrong,PA,40.638021,-79.351725,2002,Gas_SC,688,1193104000.0,11962091.217,711238.865
831,Kennedy International Airport Cogen,NY,40.6417,-73.7778,1994,Gas_CC,171,431255000.0,4316863.858,256622.174
1178,Equus Freeport Power,NY,40.6439,-73.5683,2004,Gas_SC,120,72764000.0,614735.0869999999,36532.631
300,Plant No 2 Freeport,NY,40.6447,-73.5683,1969,Gas_SC,96,10824000.0,105952.35,6297.15
1262,Bayonne Energy Center,NJ,40.652834,-74.09155,2012,Gas_SC,644,402893000.0,3472497.242,206381.972
350,Keystone,PA,40.6604,-79.3411,1967,Coal,1880,7931612000.0,77364299.749,7937574.553
638,Joseph J Seymour Power Project,NY,40.6631,-74.0,2001,Gas_SC,94,120366000.0,1123142.414,66746.553
1111,West Valley Generation Project,UT,40.6667,-112.0317,2001,Gas_SC,215,330479000.0,3349995.483,199087.061
802,Northampton Generating Company LP,PA,40.6917,-75.4792,1995,Coal,134,10732000.0,117014.551,13887.83
243,Canaday,NE,40.6942,-99.7011,1958,Gas_SC,108,971000.0,13273.6,782.6
292,West Babylon,NY,40.695485,-73.348573,1971,Oil,52,1925000.0,27204.4,2203.0
869,Brooklyn Navy Yard Cogeneration,NY,40.699357,-73.976392,1996,Gas_CC,322,1616508000.0,18359005.639,1091072.527
1292,Newark Energy Center,NJ,40.707222,-74.125833,2015,Gas_CC,735,4369657000.0,28664342.957,1703477.068
996,Galion Generating Station,OH,40.7167,-82.789,2000,Gas_SC,49,1975000.0,33758.600000000006,1993.4
642,North 1st,NY,40.7171,-73.9664,2001,Gas_SC,47,55257000.0,520139.494,30911.431
768,Newark Bay Cogeneration Partnership LP,NJ,40.7197,-74.13,1993,Gas_CC,152,60115000.0,526378.4870000001,31281.952
813,Nassau Energy Corp,NY,40.7264,-73.5892,1991,Gas_CC,55,141677000.0,1775502.244,105527.713
280,East River,NY,40.7281,-73.9742,1951,Gas_SC,716,2593206000.0,36564742.325,2173868.175
523,Rokeby,NE,40.7316,-96.7364,1975,Gas_SC,264,20582000.0,309693.373,11006.917
1194,Pinelawn Power LLC,NY,40.736611,-73.388424,2005,Gas_CC,82,143942000.0,1132882.995,66999.775
266,PSEG Essex Generating Station,NJ,40.7372,-74.1206,1971,Gas_SC,585,1250000.0,15184.006,910.647
267,PSEG Kearny Generating Station,NJ,40.737283,-74.096464,1953,Gas_SC,1420,129467000.0,1141909.924,67885.522
135,Burlington (IA),IA,40.7412,-91.116667,1968,Coal,288,1224617000.0,12458284.273,1305468.737
1197,TS Power Plant,NV,40.7461,-116.5297,2008,Coal,406,1143626000.0,11928645.191,1249532.799
765,Bethpage Power Plant,NY,40.7469,-73.4994,1989,Gas_CC,238,539271000.0,4442748.961,264031.917
637,Vernon Boulevard,NY,40.7537,-73.9508,2001,Gas_SC,94,77015000.0,681727.089,40516.26
284,Ravenswood,NY,40.759167,-73.946111,1963,Gas_SC,2633,2186656000.0,18367965.072,1089195.584
286,74th Street,NY,40.768,-73.9515,1968,Oil,36,280000.0,2475553.925,147554.775
411,Gadsby,UT,40.7686,-111.9289,1951,Gas_SC,491,163696000.0,1944972.928,115585.559
1143,Edgewood Energy LLC,NY,40.7861,-73.2931,2002,Gas_SC,100,91805000.0,864144.7660000001,51354.894
988,Astoria Gas Turbines,NY,40.787,-73.9048,1970,Gas_SC,651,34008000.0,290470.5,17273.0
639,Brentwood,NY,40.787062,-73.293412,2001,Gas_SC,47,92521000.0,870958.567,51758.055
695,Astoria Generating Station,NY,40.787674,-73.912561,1954,Gas_SC,1345,1522144000.0,8977037.817,533408.173
1196,500MW CC,NY,40.7889,-73.9069,2005,Gas_CC,528,2519277000.0,18314145.687,1088924.29
353,TalenEnergy Martins Creek,PA,40.797762,-75.105416,1954,Gas_SC,2107,429311000.0,4799172.85,286181.735
640,Hell Gate,NY,40.799,-73.9094,2001,Gas_SC,94,72684000.0,674065.1440000001,40058.627
641,Harlem River Yard,NY,40.7991,-73.9156,2001,Gas_SC,94,68281000.0,612916.188,36424.699
1124,Lower Mount Bethel Energy,PA,40.801924,-75.107563,2004,Gas_CC,650,2225822000.0,15462154.051,918897.211
717,Foster Wheeler Mt Carmel Cogen,PA,40.811189,-76.452951,1990,Coal,47,41791000.0,774489.808,91160.458
1200,Caithness Long Island Energy Center,NY,40.8142,-72.9403,2009,Gas_CC,348,2249567000.0,15144027.66,899998.235
569,Richard M Flynn,NY,40.8158,-73.064,1994,Gas_CC,170,384941000.0,4680842.066,278476.368
669,Holtsville,NY,40.817037,-73.066265,1974,Oil,560,50435000.0,703668.8,56988.5
289,Glenwood,NY,40.827149,-73.647473,1952,Gas_SC,338,1765000.0,24477.7,1982.4
628,Glenwood Landing,NY,40.8275,-73.6478,1967,Gas_SC,122,116181000.0,1116843.675,66625.55
264,Bergen Generating Station,NJ,40.8375,-74.0244,1959,Gas_CC,1415,1137911000.0,13251579.657,787560.252
1327,Hummel Station LLC,PA,40.839014,-76.825517,2018,Gas_CC,1192,6364545000.0,43394135.915,2578849.0870000003
9,Platte,NE,40.854765,-98.348222,1982,Coal,109,409993000.0,4842587.007,507889.874
536,Rawhide,CO,40.860905,-105.021207,1984,Gas_SC,798,2221328000.0,20670571.479,2088151.445
693,North Valmy,NV,40.881317,-117.151605,1981,Coal,566,1085346000.0,10399050.569,1090649.724
798,Elmwood Park Power LLC,NJ,40.905337,-74.130448,1989,Gas_CC,88,1234000.0,12117.073,719.89
632,Terry Bundy Generating Station,NE,40.909653,-96.613086,2003,Gas_CC,212,161554000.0,1617826.487,96150.778
343,Portland (PA),PA,40.910205,-75.079398,1958,Oil,621,1887000.0,17844.539,1447.923
833,Stony Brook Cogen Plant,NY,40.916833,-73.129056,1995,Gas_SC,47,350411000.0,3334709.923,198180.252
245,C W Burdick,NE,40.9228,-98.3269,1957,Gas_SC,238,3562000.0,42228.686,2519.218
290,Northport,NY,40.923565,-73.342323,1967,Gas_SC,1564,3136361000.0,31779700.968,1892666.569
756,Hazelton,PA,40.928161,-76.040929,1989,Gas_SC,171,11358000.0,136078.54400000002,6736.89
630,Robert P Mone Plant,OH,40.9297,-84.7392,2002,Gas_SC,594,185946000.0,1834021.1,109421.4
351,New Castle Plant,PA,40.937939,-80.369007,1939,Gas_SC,424,595298000.0,6338136.165,376668.958
1169,Cass County,NE,40.947913,-95.964026,2003,Gas_SC,344,160325000.0,1755292.227,104314.975
291,Port Jefferson,NY,40.949696,-73.078507,1948,Gas_SC,590,600008000.0,6140145.224,369870.655
550,Wading River,NY,40.956932,-72.877411,1989,Oil,237,39824000.0,521994.7,42354.425
1144,Shoreham Energy LLC,NY,40.957053,-72.865877,2002,Oil,100,41560000.0,340518.171,27632.448
288,East Hampton,NY,40.961706,-72.210277,1962,Oil,27,12648000.0,180730.972,14660.503
1338,Hickory Run Energy Station,PA,40.994444,-80.43,2020,Gas_CC,1033,4267048000.0,27905721.799,1658395.573
348,Shawville,PA,41.06755,-78.366228,1954,Gas_SC,632,1481276000.0,15157043.114,900764.211
354,TalenEnergy Montour,PA,41.0714,-76.6672,1972,Coal,1774,206762000.0,1974068.631,202540.695
476,Gerald Gentleman,NE,41.0808,-101.1408,1979,Coal,1362,7412380000.0,69650462.925,7304937.575
517,Ottumwa,IA,41.0961,-92.555833,1981,Coal,725,2751569000.0,28662182.975,3005151.0130000003
1167,Hawkeye Energy Greenport LLC,NY,41.10603,-72.376155,2003,Oil,54,56092000.0,553676.246,44926.808
1318,Moxie Freedom Generation Plant,PA,41.113056,-76.158056,2018,Gas_CC,1058,5894096000.0,39173822.849,2328050.966
1281,Cheyenne Prairie Generating Station,WY,41.123611,-104.72,2014,Gas_SC,220,284687000.0,2791108.734,165867.066
298,Hillburn,NY,41.1269,-74.1653,1972,Gas_SC,46,290000.0,3835.247,227.969
1328,"Clean Energy Future-Lordstown, LLC",OH,41.14889,-80.85162,2018,Gas_CC,962,6311142000.0,41547270.53,2469104.682
880,Bridgeport Energy Project,CT,41.1692,-73.1844,1998,Gas_CC,520,1969610000.0,13297680.06,790261.426
253,Sarpy County,NE,41.170594,-95.970603,1972,Gas_SC,335,78588000.0,896091.3119999999,37761.871
64,Bridgeport Station,CT,41.1706,-73.1844,1961,Gas_CC,1156,3720970000.0,23911423.42,1423097.917
133,Walter Scott Jr Energy Center,IA,41.18,-95.8408,1954,Coal,1777,5450692000.0,52232489.325,5478142.3
1302,Hamilton Patriot Generation Plant,PA,41.180833,-76.839167,2016,Gas_CC,870,6295065000.0,41129444.085,2444269.373
357,Hunlock Power Station,PA,41.200556,-76.07,1959,Gas_CC,145,269228000.0,2075792.719,123361.755
1216,Hunlock Unit 4,PA,41.2025,-76.068333,2000,Gas_SC,44,43761000.0,348114.654,20688.529
297,Bowline Point,NY,41.2044,-73.9689,1972,Gas_SC,1992,694789000.0,7048664.591,417872.923
56,Devon Station,CT,41.209797,-73.108976,1957,Oil,428,15755000.0,133434.107,9750.459
479,R M Schahfer,IN,41.2164,-87.0261,1976,Coal,2200,3160356000.0,36912136.116,3810973.865
916,Milford Power Project,CT,41.224355,-73.099728,2004,Gas_CC,578,3595439000.0,25675843.481,1525881.517
496,New Haven Harbor,CT,41.283997,-72.904323,1975,Gas_SC,640,17997000.0,191627.353,12584.359
980,Handsome Lake Energy LLC,PA,41.2908,-79.8061,2001,Gas_SC,290,130701000.0,1504550.1,88819.6
329,Richland,OH,41.305203,-84.334622,1965,Gas_SC,450,261701000.0,3145988.715,186960.261
534,Louisa,IA,41.3181,-91.0931,1983,Coal,811,2046614000.0,19483009.331,2043380.589
252,North Omaha,NE,41.32909,-95.94466,1954,Coal,642,1947607000.0,20227757.291,2105599.714
1132,Fremont Energy Center,OH,41.377116,-83.161388,2012,Gas_CC,738,3571018000.0,25072740.031,1490052.956
606,Bowling Green Peaking,OH,41.3884,-83.6402,2000,Gas_SC,32,2516000.0,27400.7,1616.3000000000002
138,Muscatine Plant #1,IA,41.3917,-91.0569,1958,Coal,293,811937000.0,9568391.947,1003529.785
970,Lincoln Generating Facility,IL,41.393315,-87.943612,2000,Gas_SC,688,5087000.0,62887.625,3737.538
995,Bowling Green Generating Station,OH,41.397369,-83.641236,2000,Gas_SC,49,2120000.0,28358.2,1673.9
997,Napoleon Peaking Station,OH,41.4079,-84.1095,2000,Gas_SC,49,1162000.0,20202.7,1192.8
1259,CPV Valley Energy Center,NY,41.4122,-74.4378,2018,Gas_CC,770,4753565000.0,32491852.21,1930961.797
299,Shoemaker,NY,41.4278,-74.4186,1972,Gas_SC,41,155000.0,2075.403,123.372
244,Lon Wright,NE,41.4281,-96.4623,1957,Coal,211,327347000.0,3305806.129,340384.907
57,Montville Station,CT,41.4281,-72.1019,1954,Oil,493,23676000.0,294037.173,20825.821
326,West Lorain,OH,41.429444,-82.264444,1973,Gas_SC,555,73356000.0,888018.975,51151.294
993,Crete Energy Venture LLC,IL,41.429444,-87.6187,2002,Gas_SC,356,43670000.0,500497.518,29739.344
954,Elwood Energy LLC,IL,41.4388,-88.1236,1999,Gas_SC,1728,411708000.0,4409251.198,262031.211
991,University Park South,IL,41.440893,-87.753189,2001,Gas_SC,348,433196000.0,4363611.899999999,257489.4
1115,University Park North,IL,41.4425,-87.7514,2002,Gas_SC,720,858680000.0,8143022.589,483947.538
528,A L Pierce,CT,41.44823,-72.834884,1953,Gas_SC,105,2212000.0,22075.072,1372.158
1100,Wallingford Energy,CT,41.448694,-72.835364,2001,Gas_SC,350,190424000.0,1634817.352,97154.174
1326,Lackawanna Energy Center,PA,41.471389,-75.544167,2018,Gas_CC,1665,9442190000.0,61894648.057,3678313.685
1034,Troy Energy LLC,OH,41.47724,-83.45983,2002,Gas_SC,792,942112000.0,9615268.879,571792.094
920,Kendall County Generation Facility,IL,41.4797,-88.2581,2002,Gas_CC,1256,7782079000.0,56452603.929,3354898.6380000003
1181,CPV Towantic Energy Center,CT,41.481243,-73.123108,2018,Gas_CC,840,5452943000.0,35875057.064,2132176.236
764,Archbald Power Station,PA,41.485,-75.5406,1988,Gas_SC,91,33228000.0,324225.15,19269.75
104,Joliet 9,IL,41.4931,-88.1153,1959,Gas_SC,504,21477000.0,257356.525,15255.85
41,Joliet 29,IL,41.494636,-88.123827,1965,Gas_SC,1320,1091451000.0,11312187.925,670585.4299999999
319,Avon Lake,OH,41.504453,-82.054619,1949,Coal,873,273478000.0,2536566.807,260085.369
1173,Exira,IA,41.514365,-94.919729,2004,Gas_SC,180,89334000.0,865127.563,51533.881
1244,Waterbury Generation,CT,41.5444,-73.0417,2009,Gas_SC,96,24147000.0,209009.809,12445.541
1250,Kleen Energy Systems Project,CT,41.553227,-72.596867,2011,Gas_CC,693,1832466000.0,12801399.367,760983.506
60,Middletown,CT,41.554944,-72.579075,1954,Oil,853,325261000.0,3439297.038,211537.738
660,Greater Des Moines,IA,41.5563,-93.5283,2003,Gas_CC,575,457689000.0,4992929.627,296722.743
549,Pleasant Hill,IA,41.5572,-93.5242,1990,Gas_SC,179,5023000.0,84852.404,2888.948
278,Danskammer Generating Station,NY,41.571247,-73.974981,1951,Gas_SC,535,12759000.0,143161.891,8486.795
668,Roseton Generating Facility,NY,41.573783,-73.966269,1974,Gas_SC,1242,118000000.0,1238392.745,74412.18400000001
108,Will County,IL,41.6334,-88.0629,1955,Coal,1267,372616000.0,4087933.475,431771.475
883,Tiverton Power Plant,RI,41.6422,-71.1706,2000,Gas_CC,544,1634259000.0,11355303.976,674833.269
1314,Oregon Clean Energy Center,OH,41.667928,-83.443664,2017,Gas_CC,1061,5813670000.0,38070986.59,2262502.392
812,Dartmouth Power Associates LP,MA,41.6731,-70.9994,1992,Gas_CC,96,49870000.0,418838.686,24925.136
994,Whiting Clean Energy,IN,41.6739,-87.4775,2002,Gas_CC,575,2259294000.0,26051463.417,1548203.317
1272,Cricket Valley Energy,NY,41.676111,-73.581111,2020,Gas_CC,1311,4040671000.0,28566967.668,1697691.544
1014,Calumet Energy Team LLC,IL,41.6835,-87.5563,2002,Gas_SC,312,17576000.0,155608.84,9038.629
1282,St Joseph Energy Center,IN,41.698992,-86.479699,2018,Gas_CC,2186,4844160000.0,31951260.599,1898816.536
948,Cordova Energy,IL,41.712216,-90.279679,2001,Gas_CC,611,2040038000.0,13538132.796,804562.545
121,Michigan City,IN,41.7208,-86.9086,1950,Coal,680,1658109000.0,16260738.308,1705426.85
686,Jim Bridger,WY,41.7378,-108.7875,1974,Coal,2441,11336603000.0,117039764.935,12275116.354
851,Pratt & Whitney,CT,41.748327,-72.636693,1992,Gas_SC,25,85790000.0,985538.778,58569.66
61,South Meadow,CT,41.7495,-72.6524,1970,Oil,164,1656000.0,22375.8,1812.2
442,Naughton,WY,41.7581,-110.5983,1963,Coal,832,2905299000.0,30338463.637,3056807.435
780,Capitol District Energy Center,CT,41.7639,-72.6925,1988,Gas_CC,69,11708000.0,99298.289,5900.867
1301,Hamilton Liberty,PA,41.7675,-76.39,2016,Gas_CC,870,5161125000.0,34521395.95,2051558.325
190,Canal,MA,41.7694,-70.5097,1968,Oil,1825,320540000.0,3172012.484,192024.631
946,Nelson Energy Center,IL,41.774444,-89.607222,2015,Gas_CC,626,3968921000.0,26831806.827,1594575.796
907,Rhode Island State Energy Center,RI,41.8017,-71.5186,2002,Gas_CC,596,3718519000.0,25045021.176,1488389.885
1003,Aurora,IL,41.8151,-88.2265,2001,Gas_SC,1080,824938000.0,7770818.632,461804.32
358,Manchester Street,RI,41.8167,-71.4042,1995,Gas_CC,515,1107067000.0,13565120.175,804654.425
982,Lee Energy Facility,IL,41.8287,-89.4054,2001,Gas_SC,688,273592000.0,3387296.152,201305.252
874,Dighton Power Plant,MA,41.8312,-71.1239,1999,Gas_CC,200,216922000.0,1689282.333,100391.37
826,Pawtucket Power Associates,RI,41.861531,-71.406856,1990,Gas_CC,68,5785000.0,51068.158,3047.98
196,Cleary Flood Hybrid,MA,41.8653,-71.1061,1966,Gas_CC,149,52643000.0,560039.6190000001,33339.974
930,Lake Road Generating Plant,CT,41.872043,-71.895799,2002,Gas_CC,840,3619711000.0,39772251.212,2363498.479
201,Monroe (MI),MI,41.8906,-83.3464,1969,Coal,3288,14295504000.0,136084002.376,14276708.615
727,Algonquin Windsor Locks,CT,41.9227,-72.6255,1990,Gas_CC,71,6538000.0,86882.201,5184.077
1068,Elgin Energy Center LLC,IL,42.000061,-88.244572,2002,Gas_SC,540,390722000.0,4420334.302,262695.088
810,Ocean State Power,RI,42.009722,-71.668909,1990,Gas_CC,252,442546000.0,5175091.072000001,307762.369
838,Ocean State Power II,RI,42.0099,-71.6701,1991,Gas_CC,252,421685000.0,5073498.176,301591.385
136,Ames Electric Services Power Plant,IA,42.0258,-93.6089,1968,Gas_SC,108,263519000.0,3554398.289,210709.305
524,Ames GT,IA,42.0272,-93.5828,1972,Oil,78,696000.0,6391.9,517.5999999999999
1296,Marshalltown Generating Station,IA,42.043333,-92.872778,2017,Gas_CC,706,2737902000.0,19623687.102,1166207.249
879,Berkshire Power,MA,42.0476,-72.6478,1999,Gas_CC,289,634499000.0,4525904.71,268970.39
963,ANP Blackstone Energy Project,MA,42.059876,-71.515811,2001,Gas_CC,578,951288000.0,10517931.658,625063.477
827,Indeck Olean Energy Center,NY,42.085944,-78.45425,1994,Gas_CC,90,87172000.0,748123.9500000001,44458.975
714,Bellingham Cogeneration Facility,MA,42.0925,-71.4833,1991,Gas_CC,384,41395000.0,481654.901,28751.054
908,Rocky Road Power LLC,IL,42.0931,-88.2397,1999,Gas_SC,413,82724000.0,928948.267,55471.30300000001
301,S A Carlson,NY,42.0933,-79.2478,1951,Gas_SC,95,69026000.0,643513.625,38231.6
192,Essential Power Massachusetts LLC,MA,42.095,-72.595,1949,Gas_SC,352,2848000.0,28185.505,1540.799
509,Laramie River Station,WY,42.108889,-104.8825,1981,Coal,1710,8652304000.0,97551039.731,10231153.943
962,ANP Bellingham Energy Project,MA,42.110577,-71.453468,2002,Gas_CC,578,971792000.0,10925397.196,649280.37
893,Millennium Power,MA,42.112291,-72.015113,2001,Gas_CC,427,686521000.0,7559875.478,449275.269
863,Milford Power LP,MA,42.129361,-71.511496,1993,Gas_CC,248,207225000.0,1756061.57,104361.763
1317,Exelon West Medway II LLC,MA,42.137218,-71.4447,2019,Gas_SC,200,208911000.0,1940048.243,115862.331
188,Exelon Medway LLC,MA,42.140028,-71.446441,1970,Oil,135,1899000.0,33620.5,2724.5
740,Masspower,MA,42.1575,-72.5225,1993,Gas_CC,260,256404000.0,2995553.975,178018.8
656,Sumpter,MI,42.167,-83.5318,2002,Gas_SC,340,352070000.0,4396849.717,261295.699
1108,Klamath Expansion Project,OR,42.172718,-121.814393,2002,Gas_SC,116,45352000.0,407081.697,24192.093
905,Klamath Cogeneration Plant,OR,42.173889,-121.810556,2001,Gas_CC,500,2798950000.0,20584610.875,1223321.78
477,Stony Brook,MA,42.1978,-72.5106,1981,Gas_CC,956,77144000.0,916619.075,55276.025
194,Potter Station 2,MA,42.235,-70.9672,1963,Gas_SC,221,24522000.0,202330.249,12410.217
1161,NRG Rockford II Energy Center,IL,42.2383,-89.1011,2002,Gas_SC,168,88802000.0,825181.8539999999,49038.782
984,NRG Rockford I,IL,42.238558,-89.101202,2000,Gas_SC,316,137074000.0,1395210.9740000002,82914.214
1021,Fore River Generating Station,MA,42.2422,-70.9661,2003,Gas_CC,871,3410507000.0,24815891.781,1475845.104
1000,Jackson Generating Station,MI,42.2488,-84.3767,2002,Gas_CC,649,1874495000.0,14706656.312,873996.483
1057,Athens Generating Plant,NY,42.2728,-73.8492,2003,Gas_CC,1218,2004534000.0,14098037.034,837827.477
202,River Rouge,MI,42.2739,-83.1119,1956,Coal,940,261675000.0,3127562.989,242207.638
903,Kalamazoo River Generating Station,MI,42.281345,-85.494956,1999,Gas_SC,77,78808000.0,959163.599,57002.899000000005
199,Delray,MI,42.2947,-83.1019,2000,Gas_SC,142,38278000.0,420078.95,24966.0
134,George Neal North,IA,42.299794,-96.361707,1964,Coal,1080,942043000.0,9719747.225,1019408.05
575,George Neal South,IA,42.3006,-96.3617,1979,Coal,695,759395000.0,7135139.05,748335.0499999999
897,Dearborn Industrial Generation,MI,42.3026,-83.154,1999,Gas_SC,747,3573856000.0,43465600.9,2132402.875
1015,New Covert Generating Facility,MI,42.32238,-86.29368,2004,Gas_CC,1176,7411165000.0,51766839.03,3076430.652
709,M Street Jet,MA,42.339387,-71.031407,1979,Oil,69,845000.0,5916.2,479.7
751,Deer Island Treatment Plant,MA,42.353333,-70.962778,1989,Oil,83,2540000.0,31639.798,2567.853
189,Kendall Square Station,MA,42.3633,-71.0792,1949,Gas_CC,294,2027427000.0,13292160.9,789389.602
107,Waukegan,IL,42.3833,-87.8133,1952,Coal,914,747412000.0,7877858.9,832780.45
187,Mystic Generating Station,MA,42.3908,-71.0675,1957,Gas_CC,2841,1933965000.0,14197747.535,844116.246
757,Pittsfield Generating LP,MA,42.4564,-73.2181,1990,Gas_CC,173,27084000.0,321453.334,19151.953
1049,Zion Energy Center,IL,42.4776,-87.895,2002,Gas_SC,990,582706000.0,6015143.555,358080.61600000004
1335,Salem Harbor Station NGCC,MA,42.525486,-70.878239,2018,Gas_CC,796,865595000.0,6190364.34,367883.891
137,Streeter Station,IA,42.5267,-92.4394,1963,Gas_SC,51,3070000.0,60445.821,3659.517
710,Castleton Energy Center,NY,42.5375,-73.7433,1992,Gas_CC,72,81970000.0,739155.058,43928.712
195,Waters River,MA,42.542949,-70.928314,1971,Gas_SC,64,4050000.0,43352.3,2143.5
200,Hancock,MI,42.5497,-83.4425,1966,Gas_SC,158,5525000.0,67111.9,3958.8
739,Selkirk Cogen,NY,42.5744,-73.8592,1992,Gas_CC,445,156371000.0,1250217.304,74291.378
1116,Riverside Energy Center,WI,42.583056,-89.035833,2004,Gas_CC,673,4362818000.0,30064839.438,1786707.467
294,Bethlehem Energy Center,NY,42.594196,-73.763752,1952,Gas_CC,1292,3346011000.0,34172719.047,2030841.502
1207,Empire Generating Co LLC,NY,42.625239,-73.750021,2010,Gas_CC,653,3015016000.0,21404682.856,1272056.188
824,Rensselaer Cogen,NY,42.625325,-73.749955,1994,Gas_CC,88,4885000.0,43062.602,2559.018
848,Tanner Street Generation,MA,42.632124,-71.313235,1992,Gas_CC,149,22095000.0,187712.413,11177.651
771,Indeck Silver Springs Energy Center,NY,42.6544,-78.0772,1991,Gas_CC,56,49046000.0,458029.775,27219.1
563,Paris (WI),WI,42.6658,-88.0131,1995,Gas_SC,380,69601000.0,907399.468,53989.864
293,Greenidge Generation LLC,NY,42.6789,-76.9483,1950,Gas_SC,162,392792000.0,3849053.684,228303.061
207,Erickson Station,MI,42.692222,-84.657222,1973,Coal,154,616427000.0,7461886.34,782601.455
206,Eckert Station,MI,42.71839,-84.55808,1954,Coal,375,7499000.0,89293.03099999999,9364.775
1303,Lansing BWL REO Town Plant,MI,42.719722,-84.551667,2013,Gas_CC,98,581255000.0,5085480.1,302219.761
203,St Clair,MI,42.7642,-82.4719,1953,Coal,1923,1885094000.0,19903603.932,2087492.367
1137,Dean,MI,42.7725,-82.4953,2002,Gas_SC,356,738897000.0,8601439.405,511160.287
459,Belle River,MI,42.7756,-82.495,1981,Coal,1659,4950838000.0,49747806.267,5018291.802
1310,Holland Energy Park,MI,42.7925,-86.092222,2017,Gas_CC,149,830062000.0,5984614.214,355654.299
896,Zeeland Generating Station,MI,42.8206,-85.9975,2001,Gas_CC,965,4154187000.0,32988972.173,1960485.28
441,Dave Johnston,WY,42.8378,-105.7769,1959,Coal,921,4779630000.0,51464143.522,5397569.887
431,South Oak Creek,WI,42.8457,-87.8294,1959,Coal,1258,3381674000.0,33900439.978,3553613.478
1182,Elm Road Generating Station,WI,42.8492,-87.8336,2010,Coal,1402,8195897000.0,73817406.681,7739753.19
872,LSP-Whitewater LP,WI,42.855463,-88.72992,1997,Gas_CC,283,907411000.0,7202000.848999999,428152.137
938,Granite Ridge,NH,42.9042,-71.4261,2003,Gas_CC,790,2120035000.0,22565329.077,1341025.934
198,J H Campbell,MI,42.910296,-86.20074,1962,Coal,1577,7290821000.0,70803324.577,7425853.869
773,Indeck Yerkes Energy Center,NY,42.9671,-78.9182,1989,Gas_CC,59,23979000.0,227488.85,13520.075
1048,RockGen Energy Center,WI,42.9767,-89.0492,2001,Gas_SC,561,466185000.0,4971121.011,295658.987
850,Batavia Power Plant,NY,42.9828,-78.1592,1992,Gas_CC,66,5307000.0,64677.204,3843.732
832,Fortistar North Tonawanda,NY,43.0483,-78.8539,1993,Gas_CC,65,11980000.0,184773.137,10981.236
809,Carr Street Generating Station,NY,43.06132,-76.08239,1993,Gas_CC,121,73459000.0,937994.117,55745.064
731,CH Resources Syracuse,NY,43.0664,-76.2144,1994,Gas_CC,102,6151000.0,50565.66,3005.003
205,J B Sims,MI,43.0706,-86.235,1983,Coal,80,38619000.0,356919.835,36621.025
664,West Campus Cogeneration Facility,WI,43.075071,-89.4251,2005,Gas_CC,169,448698000.0,4688450.289,278670.628
427,Blount Street,WI,43.0789,-89.3744,1925,Gas_SC,187,32919000.0,447227.249,26577.625
792,Sterling Power Plant,NY,43.080338,-75.600963,1991,Gas_CC,64,3224000.0,36272.158,2156.13
676,Emery Station,IA,43.094,-93.292222,2004,Gas_CC,602,2657240000.0,19742336.388,1173262.183
259,Schiller,NH,43.0978,-70.7842,1952,Coal,171,26631000.0,516433.601,50943.944
667,Newington,NH,43.1,-70.790833,1974,Gas_SC,414,18036000.0,244344.516,15086.256
1121,Newington,NH,43.1047,-70.8061,2002,Gas_CC,604,494592000.0,3536235.507,214199.966
460,Greenwood (MI),MI,43.1056,-82.6964,1979,Gas_SC,1070,1025811000.0,10833548.402,642438.498
258,Merrimack,NH,43.1411,-71.4692,1960,Coal,494,143744000.0,1432798.63,144674.354
1138,Bennett Mountain,ID,43.147153,-115.666637,2005,Gas_SC,392,315698000.0,3400267.35,202071.538
140,Earl F Wisdom,IA,43.1606,-95.2569,1960,Gas_SC,118,26047000.0,338633.074,20167.172
825,Lockport Energy Associates LP,NY,43.161947,-78.744971,1992,Gas_CC,219,118965000.0,1539734.668,91498.818
554,Concord,WI,43.1669,-88.69,1993,Gas_SC,380,93118000.0,1246087.077,74053.895
651,Evander Andrews Power Complex,ID,43.179176,-115.734315,2001,Gas_SC,269,280995000.0,2986230.084,177466.461
1055,Renaissance Power Plant,MI,43.1864,-84.8429,2002,Gas_SC,780,1183096000.0,12729140.542,756474.183
516,Germantown,WI,43.1952,-88.1496,1978,Oil,334,11508000.0,182282.465,11944.483
552,Lime Creek,IA,43.2481,-93.205,1991,Oil,90,647000.0,8588.448999999999,690.698
774,Indeck Corinth Energy Center,NY,43.25,-73.8125,1995,Gas_CC,147,391328000.0,3143564.2,186815.925
129,Lansing,IA,43.3359,-91.1675,1948,Coal,339,405557000.0,4329877.575,453574.457
478,Somerset Operating Co LLC,NY,43.358889,-78.604722,1984,Coal,655,160448000.0,1699406.1590000002,174360.03000000003
430,Port Washington Generating Station,WI,43.3842,-87.8689,1935,Gas_CC,1543,8508804000.0,57597461.083,3422935.237
296,Oswego Harbor Power,NY,43.4586,-76.5319,1948,Oil,1894,51397000.0,606458.455,47784.098
772,Indeck Oswego Energy Center,NY,43.471745,-76.493474,1990,Gas_CC,57,20428000.0,184664.225,10974.925
673,Columbia (WI),WI,43.4864,-89.4203,1975,Coal,1112,5644215000.0,59242619.219,6212741.745
845,Sithe Independence Station,NY,43.495,-76.4511,1994,Gas_CC,1084,4214176000.0,29589731.873,1758469.349
440,Genoa,WI,43.5589,-91.2325,1969,Coal,345,1006246000.0,10542454.298,1105690.912
559,Angus Anson,SD,43.60347,-96.6356,1994,Gas_SC,404,144971000.0,1656245.238,98691.592
197,Dan E Karn,MI,43.644996,-83.840074,1959,Gas_SC,1945,1828950000.0,20504908.273,2109575.665
1012,Westbrook Energy Center Power Plant,ME,43.6575,-70.375,2001,Gas_CC,563,1133481000.0,6961177.045,413690.835
433,Edgewater,WI,43.715142,-87.705863,1951,Coal,833,1189922000.0,12373316.499,1297712.24
555,South Fond Du Lac,WI,43.7353,-88.496667,1993,Gas_SC,380,27556000.0,459570.29,27342.738
178,William F Wyman Hybrid,ME,43.7508,-70.1567,1957,Oil,861,18599000.0,193733.896,16456.563000000002
1192,Sheboygan Falls,WI,43.751826,-87.878056,2005,Gas_SC,346,604879000.0,6387969.782000001,379628.711
645,Lakefield Junction,MN,43.798439,-94.841451,2001,Gas_SC,536,43023000.0,552603.137,32961.788
621,Pleasant Valley (MN),MN,43.799446,-92.682874,2001,Gas_SC,466,33346000.0,369594.822,21964.841
729,CH Resources Beaver Falls,NY,43.8861,-75.4342,1995,Gas_CC,107,2418000.0,19862.319,1180.788
1266,Langley Gulch Power Plant,ID,43.904444,-116.819722,2012,Gas_CC,318,1561807000.0,10555784.794,627313.996
870,Michigan Power LP,MI,43.9375,-86.425,1995,Gas_CC,138,1084461000.0,9449816.174,561589.46
730,Carthage Energy LLC,NY,43.9842,-75.6225,1991,Gas_CC,62,4983000.0,42939.676,2551.519
467,Cascade Creek,MN,44.0322,-92.4908,1975,Gas_SC,84,10936000.0,177946.08599999998,6756.715
1081,Lange Gas Turbines,SD,44.1203,-103.26,2002,Gas_SC,40,40236000.0,375206.784,22296.534
922,Alliant Energy Neenah,WI,44.1936,-88.5064,2000,Gas_SC,370,421449000.0,4657196.2,274772.3
